{"results": [{"fsq_id": "56186887498e6be9d5232c88", "categories": [{"id": 13072, "name": "Asian Restaurant", "icon": {"prefix": "https://ss3.4sqi.net/img/categories_v2/food/asian_", "suffix": ".png"}}, {"id": 13352, "name": "Thai Restaurant", "icon": {"prefix": "https://ss3.4sqi.net/img/categories_v2/food/thai_", "suffix": ".png"}}], "chains": [], "distance": 95, "geocodes": {"main": {"latitude": 37.789234, "longitude": -122.420573}}, "link": "/v3/places/56186887498e6be9d5232c88", "location": {"address": "1331 Polk St", "country": "US", "cross_street": "Austin", "dma": "San Francisco-Oakland-San Jose", "formatted_address": "1331 Polk St (Austin), San Francisco, CA 94109", "locality": "San Francisco", "neighborhood": ["Cathedral Hill"], "postcode": "94109", "region": "CA"}, "name": "Ben Thai Cafe", "related_places": {}, "timezone": "America/Los_Angeles"}, {"fsq_id": "44f9e6a7f964a52071381fe3", "categories": [{"id": 13072, "name": "Asian Restaurant", "icon": {"prefix": "https://ss3.4sqi.net/img/categories_v2/food/asian_", "suffix": ".png"}}, {"id": 13379, "name": "Vietnamese Restaurant", "icon": {"prefix": "https://ss3.4sqi.net/img/categories_v2/food/vietnamese_", "suffix": ".png"}}], "chains": [], "distance": 72, "geocodes": {"main": {"latitude": 37.790767, "longitude": -122.420366}, "roof": {"latitude": 37.790767, "longitude": -122.420366}}, "link": "/v3/places/44f9e6a7f964a52071381fe3", "location": {"address": "1574 California St", "census_block": "060750111011003", "country": "US", "cross_street": "at Polk St", "dma": "San Francisco-Oakland-San Jose", "formatted_address": "1574 California St (at Polk St), San Francisco, CA 94109", "locality": "San Francisco", "neighborhood": ["Lower Nob Hill"], "postcode": "94109", "region": "CA"}, "name": "Cordon Bleu", "related_places": {}, "timezone": "America/Los_Angeles"}, {"fsq_id": "44cf44a2f964a52020361fe3", "categories": [{"id": 13002, "name": "Bakery", "icon": {"prefix": "https://ss3.4sqi.net/img/categories_v2/food/bakery_", "suffix": ".png"}}, {"id": 13043, "name": "Donut Shop", "icon": {"prefix": "https://ss3.4sqi.net/img/categories_v2/food/donuts_", "suffix": ".png"}}, {"id": 13145, "name": "Fast Food Restaurant", "icon": {"prefix": "https://ss3.4sqi.net/img/categories_v2/food/fastfood_", "suffix": ".png"}}], "chains": [], "distance": 221, "geocodes": {"main": {"latitude": 37.791791, "longitude": -122.421071}, "roof": {"latitude": 37.791791, "longitude": -122.421071}}, "link": "/v3/places/44cf44a2f964a52020361fe3", "location": {"address": "1621 Polk St", "census_block": "060750111011001", "country": "US", "cross_street": "btwn Clay & Sacramento St", "dma": "San Francisco-Oakland-San Jose", "formatted_address": "1621 Polk St (btwn Clay & Sacramento St), San Francisco, CA 94109", "locality": "San Francisco", "neighborhood": ["Nob Hill"], "postcode": "94109", "region": "CA"}, "name": "Bob's Donut & Pastry Shop", "related_places": {}, "timezone": "America/Los_Angeles"}, {"fsq_id": "4cb202c2562d224be4702388", "categories": [{"id": 13035, "name": "Coffee Shop", "icon": {"prefix": "https://ss3.4sqi.net/img/categories_v2/food/coffeeshop_", "suffix": ".png"}}, {"id": 13049, "name": "Diner", "icon": {"prefix": "https://ss3.4sqi.net/img/categories_v2/food/diner_", "suffix": ".png"}}, {"id": 13068, "name": "American Restaurant", "icon": {"prefix": "https://ss3.4sqi.net/img/categories_v2/food/default_", "suffix": ".png"}}], "chains": [], "distance": 120, "geocodes": {"main": {"latitude": 37.790917, "longitude": -122.419201}}, "link": "/v3/places/4cb202c2562d224be4702388", "location": {"address": "1500 California St", "country": "US", "cross_street": "at Larkin St.", "dma": "San Francisco-Oakland-San Jose", "formatted_address": "1500 California St (at Larkin St.), San Francisco, CA 94109", "locality": "San Francisco", "neighborhood": ["Lower Nob Hill"], "postcode": "94109", "region": "CA"}, "name": "Mymy", "related_places": {}, "timezone": "America/Los_Angeles"}, {"fsq_id": "535445c711d2e8996ac58181", "categories": [{"id": 13006, "name": "Beer Bar", "icon": {"prefix": "https://ss3.4sqi.net/img/categories_v2/nightlife/pub_", "suffix": ".png"}}, {"id": 13065, "name": "Restaurant", "icon": {"prefix": "https://ss3.4sqi.net/img/categories_v2/food/default_", "suffix": ".png"}}], "chains": [], "distance": 240, "geocodes": {"main": {"latitude": 37.790525, "longitude": -122.417125}, "roof": {"latitude": 37.790525, "longitude": -122.417125}}, "link": "/v3/places/535445c711d2e8996ac58181", "location": {"address": "1040 Hyde St", "census_block": "060750111021000", "country": "US", "cross_street": "California", "dma": "San Francisco-Oakland-San Jose", "formatted_address": "1040 Hyde St (California), San Francisco, CA 94109", "locality": "San Francisco", "neighborhood": ["Lower Nob Hill"], "postcode": "94109", "region": "CA"}, "name": "Liquid Gold", "related_places": {}, "timezone": "America/Los_Angeles"}, {"fsq_id": "56169f63498e38d4b665870c", "categories": [{"id": 13034, "name": "Caf\u00e9", "icon": {"prefix": "https://ss3.4sqi.net/img/categories_v2/food/cafe_", "suffix": ".png"}}, {"id": 13039, "name": "Deli", "icon": {"prefix": "https://ss3.4sqi.net/img/categories_v2/food/deli_", "suffix": ".png"}}, {"id": 13272, "name": "Ramen Restaurant", "icon": {"prefix": "https://ss3.4sqi.net/img/categories_v2/food/ramen_", "suffix": ".png"}}], "chains": [], "distance": 180, "geocodes": {"main": {"latitude": 37.791265, "longitude": -122.420682}, "roof": {"latitude": 37.791265, "longitude": -122.420682}}, "link": "/v3/places/56169f63498e38d4b665870c", "location": {"address": "1552 Polk St", "census_block": "060750111011003", "country": "US", "cross_street": "Sacramento", "dma": "San Francisco-Oakland-San Jose", "formatted_address": "1552 Polk St (Sacramento), San Francisco, CA 94109", "locality": "San Francisco", "neighborhood": ["Lower Nob Hill"], "postcode": "94109", "region": "CA"}, "name": "Common Sage", "related_places": {}, "timezone": "America/Los_Angeles"}, {"fsq_id": "5a2ac84731fd147947b1025b", "categories": [{"id": 13034, "name": "Caf\u00e9", "icon": {"prefix": "https://ss3.4sqi.net/img/categories_v2/food/cafe_", "suffix": ".png"}}, {"id": 13334, "name": "Sandwich Restaurant", "icon": {"prefix": "https://ss3.4sqi.net/img/categories_v2/food/deli_", "suffix": ".png"}}, {"id": 13347, "name": "Tapas Restaurant", "icon": {"prefix": "https://ss3.4sqi.net/img/categories_v2/food/tapas_", "suffix": ".png"}}], "chains": [], "distance": 273, "geocodes": {"main": {"latitude": 37.78898, "longitude": -122.417249}, "roof": {"latitude": 37.78898, "longitude": -122.417249}}, "link": "/v3/places/5a2ac84731fd147947b1025b", "location": {"address": "899 Hyde St", "census_block": "060750120011000", "country": "US", "cross_street": "Bush and Hyde", "dma": "San Francisco-Oakland-San Jose", "formatted_address": "899 Hyde St (Bush and Hyde), San Francisco, CA 94109", "locality": "San Francisco", "neighborhood": ["Lower Nob Hill"], "postcode": "94109", "region": "CA"}, "name": "Crostini & Java", "related_places": {}, "timezone": "America/Los_Angeles"}, {"fsq_id": "5c5d144a2f97ec002c1c1485", "categories": [{"id": 10032, "name": "Night Club", "icon": {"prefix": "https://ss3.4sqi.net/img/categories_v2/nightlife/nightclub_", "suffix": ".png"}}, {"id": 13025, "name": "Wine Bar", "icon": {"prefix": "https://ss3.4sqi.net/img/categories_v2/food/winery_", "suffix": ".png"}}, {"id": 13347, "name": "Tapas Restaurant", "icon": {"prefix": "https://ss3.4sqi.net/img/categories_v2/food/tapas_", "suffix": ".png"}}], "chains": [], "distance": 113, "geocodes": {"main": {"latitude": 37.788978, "longitude": -122.42069}, "roof": {"latitude": 37.788978, "longitude": -122.42069}}, "link": "/v3/places/5c5d144a2f97ec002c1c1485", "location": {"address": "1327 Polk St", "census_block": "060750111022006", "country": "US", "cross_street": "", "dma": "San Francisco-Oakland-San Jose", "formatted_address": "1327 Polk St, San Francisco, CA 94109", "locality": "San Francisco", "neighborhood": ["Cathedral Hill"], "postcode": "94109", "region": "CA"}, "name": "El Lopo", "related_places": {}, "timezone": "America/Los_Angeles"}, {"fsq_id": "3fd66200f964a5201af11ee3", "categories": [{"id": 13049, "name": "Diner", "icon": {"prefix": "https://ss3.4sqi.net/img/categories_v2/food/diner_", "suffix": ".png"}}, {"id": 13068, "name": "American Restaurant", "icon": {"prefix": "https://ss3.4sqi.net/img/categories_v2/food/default_", "suffix": ".png"}}, {"id": 13325, "name": "Portuguese Restaurant", "icon": {"prefix": "https://ss3.4sqi.net/img/categories_v2/food/portuguese_", "suffix": ".png"}}], "chains": [], "distance": 89, "geocodes": {"main": {"latitude": 37.789385, "longitude": -122.420929}, "roof": {"latitude": 37.789385, "longitude": -122.420929}}, "link": "/v3/places/3fd66200f964a5201af11ee3", "location": {"address": "1525 Pine St", "census_block": "060750111022003", "country": "US", "cross_street": "btw Polk & Van Ness", "dma": "San Francisco-Oakland-San Jose", "formatted_address": "1525 Pine St (btw Polk & Van Ness), San Francisco, CA 94109", "locality": "San Francisco", "neighborhood": ["Cathedral Hill"], "postcode": "94109", "region": "CA"}, "name": "The Grubstake", "related_places": {}, "timezone": "America/Los_Angeles"}, {"fsq_id": "5989205d64c8e12750122427", "categories": [{"id": 13276, "name": "Sushi Restaurant", "icon": {"prefix": "https://ss3.4sqi.net/img/categories_v2/food/sushi_", "suffix": ".png"}}], "chains": [], "distance": 357, "geocodes": {"main": {"latitude": 37.78674, "longitude": -122.419626}, "roof": {"latitude": 37.78674, "longitude": -122.419626}}, "link": "/v3/places/5989205d64c8e12750122427", "location": {"address": "1040 Polk St", "census_block": "060750122021000", "country": "US", "cross_street": "", "dma": "San Francisco-Oakland-San Jose", "formatted_address": "1040 Polk St, San Francisco, CA 94109", "locality": "San Francisco", "neighborhood": ["Little Saigon"], "postcode": "94109", "region": "CA"}, "name": "Kuma Sushi + Sake", "related_places": {}, "timezone": "America/Los_Angeles"}, {"fsq_id": "583129619168026ebf2a3ef3", "categories": [{"id": 13039, "name": "Deli", "icon": {"prefix": "https://ss3.4sqi.net/img/categories_v2/food/deli_", "suffix": ".png"}}, {"id": 13334, "name": "Sandwich Restaurant", "icon": {"prefix": "https://ss3.4sqi.net/img/categories_v2/food/deli_", "suffix": ".png"}}], "chains": [], "distance": 415, "geocodes": {"main": {"latitude": 37.787487, "longitude": -122.423634}}, "link": "/v3/places/583129619168026ebf2a3ef3", "location": {"address": "1400 Sutter St", "country": "US", "cross_street": "Franklin St", "dma": "San Francisco-Oakland-San Jose", "formatted_address": "1400 Sutter St (Franklin St), San Francisco, CA 94109", "locality": "San Francisco", "neighborhood": ["Cathedral Hill"], "postcode": "94109", "region": "CA"}, "name": "Limoncello", "related_places": {}, "timezone": "America/Los_Angeles"}, {"fsq_id": "4fc9734de4b08a2449f58f1c", "categories": [{"id": 13009, "name": "Cocktail Bar", "icon": {"prefix": "https://ss3.4sqi.net/img/categories_v2/nightlife/cocktails_", "suffix": ".png"}}, {"id": 13010, "name": "Dive Bar", "icon": {"prefix": "https://ss3.4sqi.net/img/categories_v2/nightlife/divebar_", "suffix": ".png"}}], "chains": [], "distance": 62, "geocodes": {"main": {"latitude": 37.789824, "longitude": -122.42074}, "roof": {"latitude": 37.789824, "longitude": -122.42074}}, "link": "/v3/places/4fc9734de4b08a2449f58f1c", "location": {"address": "1423 Polk St", "census_block": "060750111021003", "country": "US", "cross_street": "btwn Pine & California", "dma": "San Francisco-Oakland-San Jose", "formatted_address": "1423 Polk St (btwn Pine & California), San Francisco, CA 94109", "locality": "San Francisco", "neighborhood": ["Cathedral Hill"], "postcode": "94109", "region": "CA"}, "name": "Hi-Lo Club", "related_places": {}, "timezone": "America/Los_Angeles"}, {"fsq_id": "3fd66200f964a52013ed1ee3", "categories": [{"id": 13236, "name": "Italian Restaurant", "icon": {"prefix": "https://ss3.4sqi.net/img/categories_v2/food/italian_", "suffix": ".png"}}], "chains": [], "distance": 222, "geocodes": {"main": {"latitude": 37.791612, "longitude": -122.421276}, "roof": {"latitude": 37.791612, "longitude": -122.421276}}, "link": "/v3/places/3fd66200f964a52013ed1ee3", "location": {"address": "1722 Sacramento St", "census_block": "060750111011001", "country": "US", "cross_street": "btwn Polk & Van Ness Ave", "dma": "San Francisco-Oakland-San Jose", "formatted_address": "1722 Sacramento St (btwn Polk & Van Ness Ave), San Francisco, CA 94109", "locality": "San Francisco", "neighborhood": ["Nob Hill"], "postcode": "94109", "region": "CA"}, "name": "Acquerello", "related_places": {}, "timezone": "America/Los_Angeles"}, {"fsq_id": "4ef18f09e3003ccf83ab084a", "categories": [{"id": 13003, "name": "Bar", "icon": {"prefix": "https://ss3.4sqi.net/img/categories_v2/nightlife/pub_", "suffix": ".png"}}], "chains": [], "distance": 83, "geocodes": {"main": {"latitude": 37.790876, "longitude": -122.419799}, "roof": {"latitude": 37.790876, "longitude": -122.419799}}, "link": "/v3/places/4ef18f09e3003ccf83ab084a", "location": {"address": "1548 California St", "census_block": "060750111011003", "country": "US", "cross_street": "btwn Polk & Larkin St", "dma": "San Francisco-Oakland-San Jose", "formatted_address": "1548 California St (btwn Polk & Larkin St), San Francisco, CA 94109", "locality": "San Francisco", "neighborhood": ["Lower Nob Hill"], "postcode": "94109", "region": "CA"}, "name": "Soda Popinski's", "related_places": {}, "timezone": "America/Los_Angeles"}, {"fsq_id": "5314cd3b498e023e8c28875c", "categories": [{"id": 13002, "name": "Bakery", "icon": {"prefix": "https://ss3.4sqi.net/img/categories_v2/food/bakery_", "suffix": ".png"}}, {"id": 13035, "name": "Coffee Shop", "icon": {"prefix": "https://ss3.4sqi.net/img/categories_v2/food/coffeeshop_", "suffix": ".png"}}, {"id": 13334, "name": "Sandwich Restaurant", "icon": {"prefix": "https://ss3.4sqi.net/img/categories_v2/food/deli_", "suffix": ".png"}}], "chains": [], "distance": 416, "geocodes": {"main": {"latitude": 37.78628, "longitude": -122.41838}, "roof": {"latitude": 37.78628, "longitude": -122.41838}}, "link": "/v3/places/5314cd3b498e023e8c28875c", "location": {"address": "925 Larkin St", "census_block": "060750122021001", "country": "US", "cross_street": "at Cedar St", "dma": "San Francisco-Oakland-San Jose", "formatted_address": "925 Larkin St (at Cedar St), San Francisco, CA 94109", "locality": "San Francisco", "neighborhood": ["Little Saigon"], "postcode": "94109", "region": "CA"}, "name": "Jane on Larkin", "related_places": {}, "timezone": "America/Los_Angeles"}, {"fsq_id": "42e03700f964a52065261fe3", "categories": [{"id": 13068, "name": "American Restaurant", "icon": {"prefix": "https://ss3.4sqi.net/img/categories_v2/food/default_", "suffix": ".png"}}, {"id": 13383, "name": "Steakhouse", "icon": {"prefix": "https://ss3.4sqi.net/img/categories_v2/food/steakhouse_", "suffix": ".png"}}], "chains": [], "distance": 447, "geocodes": {"main": {"latitude": 37.79327, "longitude": -122.422664}, "roof": {"latitude": 37.79327, "longitude": -122.422664}}, "link": "/v3/places/42e03700f964a52065261fe3", "location": {"address": "1906 Van Ness Ave", "census_block": "060750110012001", "country": "US", "cross_street": "btw Jackson & Washington", "dma": "San Francisco-Oakland-San Jose", "formatted_address": "1906 Van Ness Ave (btw Jackson & Washington), San Francisco, CA 94109", "locality": "San Francisco", "neighborhood": ["Nob Hill"], "postcode": "94109", "region": "CA"}, "name": "House Of Prime Rib42", "related_places": {}, "timezone": "America/Los_Angeles"}, {"fsq_id": "54558b9f498e05a0fd4bb6ea", "categories": [{"id": 13025, "name": "Wine Bar", "icon": {"prefix": "https://ss3.4sqi.net/img/categories_v2/food/winery_", "suffix": ".png"}}, {"id": 13377, "name": "Vegan and Vegetarian Restaurant", "icon": {"prefix": "https://ss3.4sqi.net/img/categories_v2/food/vegetarian_", "suffix": ".png"}}], "chains": [], "distance": 478, "geocodes": {"main": {"latitude": 37.786329, "longitude": -122.417353}}, "link": "/v3/places/54558b9f498e05a0fd4bb6ea", "location": {"address": "854 Geary St", "country": "US", "cross_street": "", "dma": "San Francisco-Oakland-San Jose", "formatted_address": "854 Geary St, San Francisco, CA 94109", "locality": "San Francisco", "neighborhood": ["Little Saigon"], "postcode": "94109", "region": "CA"}, "name": "Tender", "related_places": {}, "timezone": "America/Los_Angeles"}, {"fsq_id": "59279713d1a4025588bc2f8d", "categories": [{"id": 13009, "name": "Cocktail Bar", "icon": {"prefix": "https://ss3.4sqi.net/img/categories_v2/nightlife/cocktails_", "suffix": ".png"}}, {"id": 13057, "name": "Gastropub", "icon": {"prefix": "https://ss3.4sqi.net/img/categories_v2/food/gastropub_", "suffix": ".png"}}, {"id": 13068, "name": "American Restaurant", "icon": {"prefix": "https://ss3.4sqi.net/img/categories_v2/food/default_", "suffix": ".png"}}], "chains": [], "distance": 270, "geocodes": {"main": {"latitude": 37.787863, "longitude": -122.418187}, "roof": {"latitude": 37.787863, "longitude": -122.418187}}, "link": "/v3/places/59279713d1a4025588bc2f8d", "location": {"address": "1085 Sutter St", "census_block": "060750120021001", "country": "US", "cross_street": "Larkin Street", "dma": "San Francisco-Oakland-San Jose", "formatted_address": "1085 Sutter St (Larkin Street), San Francisco, CA 94109", "locality": "San Francisco", "neighborhood": ["Little Saigon"], "postcode": "94109", "region": "CA"}, "name": "Miller's Rest", "related_places": {}, "timezone": "America/Los_Angeles"}, {"fsq_id": "5008cbabe4b0b2967fa74bd6", "categories": [{"id": 13003, "name": "Bar", "icon": {"prefix": "https://ss3.4sqi.net/img/categories_v2/nightlife/pub_", "suffix": ".png"}}, {"id": 13057, "name": "Gastropub", "icon": {"prefix": "https://ss3.4sqi.net/img/categories_v2/food/gastropub_", "suffix": ".png"}}, {"id": 13068, "name": "American Restaurant", "icon": {"prefix": "https://ss3.4sqi.net/img/categories_v2/food/default_", "suffix": ".png"}}], "chains": [], "distance": 263, "geocodes": {"main": {"latitude": 37.787694, "longitude": -122.419969}, "roof": {"latitude": 37.787694, "longitude": -122.419969}}, "link": "/v3/places/5008cbabe4b0b2967fa74bd6", "location": {"address": "1160 Polk St", "address_extended": "Fl 2", "census_block": "060750120022000", "country": "US", "cross_street": "at Sutter St.", "dma": "San Francisco-Oakland-San Jose", "formatted_address": "1160 Polk St (at Sutter St.), San Francisco, CA 94109", "locality": "San Francisco", "neighborhood": ["Little Saigon"], "postcode": "94109", "region": "CA"}, "name": "Upcider", "related_places": {"children": []}, "timezone": "America/Los_Angeles"}, {"fsq_id": "4a949740f964a520132220e3", "categories": [{"id": 13039, "name": "Deli", "icon": {"prefix": "https://ss3.4sqi.net/img/categories_v2/food/deli_", "suffix": ".png"}}, {"id": 13334, "name": "Sandwich Restaurant", "icon": {"prefix": "https://ss3.4sqi.net/img/categories_v2/food/deli_", "suffix": ".png"}}], "chains": [], "distance": 434, "geocodes": {"main": {"latitude": 37.788498, "longitude": -122.415429}, "roof": {"latitude": 37.788498, "longitude": -122.415429}}, "link": "/v3/places/4a949740f964a520132220e3", "location": {"address": "912 Sutter St", "census_block": "060750120012000", "country": "US", "cross_street": "at Leavenworth St", "dma": "San Francisco-Oakland-San Jose", "formatted_address": "912 Sutter St (at Leavenworth St), San Francisco, CA 94109", "locality": "San Francisco", "neighborhood": ["Little Saigon"], "postcode": "94109", "region": "CA"}, "name": "Bite", "related_places": {}, "timezone": "America/Los_Angeles"}, {"fsq_id": "40bbc700f964a520ad001fe3", "categories": [{"id": 13011, "name": "Gay Bar", "icon": {"prefix": "https://ss3.4sqi.net/img/categories_v2/nightlife/gaybar_", "suffix": ".png"}}], "chains": [], "distance": 327, "geocodes": {"main": {"latitude": 37.792653, "longitude": -122.421337}, "roof": {"latitude": 37.792653, "longitude": -122.421337}}, "link": "/v3/places/40bbc700f964a520ad001fe3", "location": {"address": "1723 Polk St", "census_block": "060750110012002", "country": "US", "cross_street": "btwn Clay & Washington St", "dma": "San Francisco-Oakland-San Jose", "formatted_address": "1723 Polk St (btwn Clay & Washington St), San Francisco, CA 94109", "locality": "San Francisco", "neighborhood": ["Nob Hill"], "postcode": "94109", "region": "CA"}, "name": "The Cinch", "related_places": {}, "timezone": "America/Los_Angeles"}, {"fsq_id": "585cab80bbec66033bb4b92f", "categories": [{"id": 13072, "name": "Asian Restaurant", "icon": {"prefix": "https://ss3.4sqi.net/img/categories_v2/food/asian_", "suffix": ".png"}}, {"id": 13276, "name": "Sushi Restaurant", "icon": {"prefix": "https://ss3.4sqi.net/img/categories_v2/food/sushi_", "suffix": ".png"}}], "chains": [], "distance": 415, "geocodes": {"main": {"latitude": 37.788315, "longitude": -122.424235}, "roof": {"latitude": 37.788315, "longitude": -122.424235}}, "link": "/v3/places/585cab80bbec66033bb4b92f", "location": {"address": "1634 Bush St", "census_block": "060750151003001", "country": "US", "cross_street": "Franklin", "dma": "San Francisco-Oakland-San Jose", "formatted_address": "1634 Bush St (Franklin), San Francisco, CA 94109", "locality": "San Francisco", "neighborhood": ["Cathedral Hill"], "postcode": "94109", "region": "CA"}, "name": "Akira Japanese Restaurant", "related_places": {}, "timezone": "America/Los_Angeles"}, {"fsq_id": "5e432f701c81f20008b7f940", "categories": [{"id": 13002, "name": "Bakery", "icon": {"prefix": "https://ss3.4sqi.net/img/categories_v2/food/bakery_", "suffix": ".png"}}, {"id": 13032, "name": "Cafes, Coffee, and Tea Houses", "icon": {"prefix": "https://ss3.4sqi.net/img/categories_v2/food/default_", "suffix": ".png"}}, {"id": 13148, "name": "French Restaurant", "icon": {"prefix": "https://ss3.4sqi.net/img/categories_v2/food/french_", "suffix": ".png"}}], "chains": [], "distance": 392, "geocodes": {"main": {"latitude": 37.786534, "longitude": -122.419757}, "roof": {"latitude": 37.786534, "longitude": -122.419757}}, "link": "/v3/places/5e432f701c81f20008b7f940", "location": {"address": "1030 Polk St", "census_block": "060750122021000", "country": "US", "cross_street": "", "dma": "San Francisco-Oakland-San Jose", "formatted_address": "1030 Polk St, San Francisco, CA 94109", "locality": "San Francisco", "neighborhood": ["Little Saigon"], "postcode": "94109", "region": "CA"}, "name": "Maison Danel", "related_places": {}, "timezone": "America/Los_Angeles"}, {"fsq_id": "6052a71a10c9ff6ee1e79fe8", "categories": [{"id": 13009, "name": "Cocktail Bar", "icon": {"prefix": "https://ss3.4sqi.net/img/categories_v2/nightlife/cocktails_", "suffix": ".png"}}], "chains": [], "distance": 432, "geocodes": {"main": {"latitude": 37.787135, "longitude": -122.416426}}, "link": "/v3/places/6052a71a10c9ff6ee1e79fe8", "location": {"address": "895 Post St", "country": "US", "cross_street": "", "dma": "San Francisco-Oakland-San Jose", "formatted_address": "895 Post St, San Francisco, CA 94109", "locality": "San Francisco", "neighborhood": ["Little Saigon"], "postcode": "94109", "region": "CA"}, "name": "Propagation", "related_places": {}, "timezone": "America/Los_Angeles"}, {"fsq_id": "538689ca498e5a8cd9ef4268", "categories": [{"id": 13009, "name": "Cocktail Bar", "icon": {"prefix": "https://ss3.4sqi.net/img/categories_v2/nightlife/cocktails_", "suffix": ".png"}}, {"id": 13065, "name": "Restaurant", "icon": {"prefix": "https://ss3.4sqi.net/img/categories_v2/food/default_", "suffix": ".png"}}], "chains": [], "distance": 277, "geocodes": {"main": {"latitude": 37.792143, "longitude": -122.421164}, "roof": {"latitude": 37.792143, "longitude": -122.421164}}, "link": "/v3/places/538689ca498e5a8cd9ef4268", "location": {"address": "1695 Polk St", "census_block": "060750111011001", "country": "US", "cross_street": "", "dma": "San Francisco-Oakland-San Jose", "formatted_address": "1695 Polk St, San Francisco, CA 94109", "locality": "San Francisco", "neighborhood": ["Nob Hill"], "postcode": "94109", "region": "CA"}, "name": "Harper & Rye", "related_places": {}, "timezone": "America/Los_Angeles"}, {"fsq_id": "44f72fdcf964a5204d381fe3", "categories": [{"id": 13041, "name": "Creperie", "icon": {"prefix": "https://ss3.4sqi.net/img/categories_v2/food/creperie_", "suffix": ".png"}}, {"id": 13068, "name": "American Restaurant", "icon": {"prefix": "https://ss3.4sqi.net/img/categories_v2/food/default_", "suffix": ".png"}}, {"id": 13148, "name": "French Restaurant", "icon": {"prefix": "https://ss3.4sqi.net/img/categories_v2/food/french_", "suffix": ".png"}}], "chains": [], "distance": 373, "geocodes": {"main": {"latitude": 37.792978, "longitude": -122.421357}, "roof": {"latitude": 37.792978, "longitude": -122.421357}}, "link": "/v3/places/44f72fdcf964a5204d381fe3", "location": {"address": "1755 Polk St", "census_block": "060750110012002", "country": "US", "cross_street": "Washington St", "dma": "San Francisco-Oakland-San Jose", "formatted_address": "1755 Polk St (Washington St), San Francisco, CA 94109", "locality": "San Francisco", "neighborhood": ["Nob Hill"], "postcode": "94109", "region": "CA"}, "name": "The Crepe House", "related_places": {}, "timezone": "America/Los_Angeles"}, {"fsq_id": "5d804c81cb03a80008ae8b35", "categories": [{"id": 13303, "name": "Mexican Restaurant", "icon": {"prefix": "https://ss3.4sqi.net/img/categories_v2/food/mexican_", "suffix": ".png"}}], "chains": [], "distance": 68, "geocodes": {"main": {"latitude": 37.790149, "longitude": -122.420759}, "roof": {"latitude": 37.790149, "longitude": -122.420759}}, "link": "/v3/places/5d804c81cb03a80008ae8b35", "location": {"address": "1431 Polk St", "census_block": "060750111021003", "country": "US", "cross_street": "", "dma": "San Francisco-Oakland-San Jose", "formatted_address": "1431 Polk St, San Francisco, CA 94109", "locality": "San Francisco", "neighborhood": ["Lower Nob Hill"], "postcode": "94109", "region": "CA"}, "name": "The Little Chi", "related_places": {}, "timezone": "America/Los_Angeles"}, {"fsq_id": "4e97163f02d5458d04b57326", "categories": [{"id": 13031, "name": "Burger Joint", "icon": {"prefix": "https://ss3.4sqi.net/img/categories_v2/food/burger_", "suffix": ".png"}}, {"id": 13034, "name": "Caf\u00e9", "icon": {"prefix": "https://ss3.4sqi.net/img/categories_v2/food/cafe_", "suffix": ".png"}}, {"id": 13035, "name": "Coffee Shop", "icon": {"prefix": "https://ss3.4sqi.net/img/categories_v2/food/coffeeshop_", "suffix": ".png"}}], "chains": [], "distance": 404, "geocodes": {"main": {"latitude": 37.790173, "longitude": -122.415312}, "roof": {"latitude": 37.790173, "longitude": -122.415312}}, "link": "/v3/places/4e97163f02d5458d04b57326", "location": {"address": "1191 Pine St", "census_block": "060750119011001", "country": "US", "cross_street": "at Leavenworth St.", "dma": "San Francisco-Oakland-San Jose", "formatted_address": "1191 Pine St (at Leavenworth St.), San Francisco, CA 94109", "locality": "San Francisco", "neighborhood": ["Lower Nob Hill"], "postcode": "94109", "region": "CA"}, "name": "Another Cafe", "related_places": {}, "timezone": "America/Los_Angeles"}, {"fsq_id": "4528d60af964a5201f3b1fe3", "categories": [{"id": 13022, "name": "Sports Bar", "icon": {"prefix": "https://ss3.4sqi.net/img/categories_v2/nightlife/sportsbar_", "suffix": ".png"}}, {"id": 13026, "name": "BBQ Joint", "icon": {"prefix": "https://ss3.4sqi.net/img/categories_v2/food/bbqalt_", "suffix": ".png"}}], "chains": [], "distance": 344, "geocodes": {"main": {"latitude": 37.788301, "longitude": -122.416731}}, "link": "/v3/places/4528d60af964a5201f3b1fe3", "location": {"address": "998 Sutter St", "country": "US", "cross_street": "at Hyde St.", "dma": "San Francisco-Oakland-San Jose", "formatted_address": "998 Sutter St (at Hyde St.), San Francisco, CA 94109", "locality": "San Francisco", "neighborhood": ["Little Saigon"], "postcode": "94109", "region": "CA"}, "name": "Ace's", "related_places": {}, "timezone": "America/Los_Angeles"}, {"fsq_id": "42accc80f964a52040251fe3", "categories": [{"id": 13065, "name": "Restaurant", "icon": {"prefix": "https://ss3.4sqi.net/img/categories_v2/food/default_", "suffix": ".png"}}], "chains": [], "distance": 485, "geocodes": {"main": {"latitude": 37.794354, "longitude": -122.421295}, "roof": {"latitude": 37.794354, "longitude": -122.421295}}, "link": "/v3/places/42accc80f964a52040251fe3", "location": {"address": "1900 Polk St", "census_block": "060750110023001", "country": "US", "cross_street": "at Jackson St", "dma": "San Francisco-Oakland-San Jose", "formatted_address": "1900 Polk St (at Jackson St), San Francisco, CA 94109", "locality": "San Francisco", "neighborhood": ["Nob Hill"], "postcode": "94109", "region": "CA"}, "name": "The Bell Tower", "related_places": {}, "timezone": "America/Los_Angeles"}, {"fsq_id": "43680180f964a52077291fe3", "categories": [{"id": 13009, "name": "Cocktail Bar", "icon": {"prefix": "https://ss3.4sqi.net/img/categories_v2/nightlife/cocktails_", "suffix": ".png"}}, {"id": 13016, "name": "Lounge", "icon": {"prefix": "https://ss3.4sqi.net/img/categories_v2/nightlife/default_", "suffix": ".png"}}, {"id": 13031, "name": "Burger Joint", "icon": {"prefix": "https://ss3.4sqi.net/img/categories_v2/food/burger_", "suffix": ".png"}}], "chains": [], "distance": 358, "geocodes": {"main": {"latitude": 37.791018, "longitude": -122.416223}, "roof": {"latitude": 37.791018, "longitude": -122.416223}}, "link": "/v3/places/43680180f964a52077291fe3", "location": {"address": "1319 California St", "census_block": "060750111021000", "country": "US", "cross_street": "at Leavenworth", "dma": "San Francisco-Oakland-San Jose", "formatted_address": "1319 California St (at Leavenworth), San Francisco, CA 94109", "locality": "San Francisco", "neighborhood": ["Lower Nob Hill"], "postcode": "94109", "region": "CA"}, "name": "Zeki's Bar", "related_places": {}, "timezone": "America/Los_Angeles"}, {"fsq_id": "49e95478f964a520f1651fe3", "categories": [{"id": 13352, "name": "Thai Restaurant", "icon": {"prefix": "https://ss3.4sqi.net/img/categories_v2/food/thai_", "suffix": ".png"}}], "chains": [], "distance": 453, "geocodes": {"main": {"latitude": 37.786188, "longitude": -122.418303}, "roof": {"latitude": 37.786188, "longitude": -122.418303}}, "link": "/v3/places/49e95478f964a520f1651fe3", "location": {"address": "901 Larkin St", "census_block": "060750122021001", "country": "US", "cross_street": "at Geary St.", "dma": "San Francisco-Oakland-San Jose", "formatted_address": "901 Larkin St (at Geary St.), San Francisco, CA 94109", "locality": "San Francisco", "neighborhood": ["Little Saigon"], "postcode": "94109", "region": "CA"}, "name": "Thai House Express", "related_places": {}, "timezone": "America/Los_Angeles"}, {"fsq_id": "5bf380c9efa82a002c2ca7c0", "categories": [{"id": 13040, "name": "Dessert Shop", "icon": {"prefix": "https://ss3.4sqi.net/img/categories_v2/food/dessert_", "suffix": ".png"}}, {"id": 13352, "name": "Thai Restaurant", "icon": {"prefix": "https://ss3.4sqi.net/img/categories_v2/food/thai_", "suffix": ".png"}}], "chains": [], "distance": 369, "geocodes": {"main": {"latitude": 37.786763, "longitude": -122.41848}, "roof": {"latitude": 37.786763, "longitude": -122.41848}}, "link": "/v3/places/5bf380c9efa82a002c2ca7c0", "location": {"address": "955 Larkin St", "census_block": "060750122021000", "country": "US", "cross_street": "", "dma": "San Francisco-Oakland-San Jose", "formatted_address": "955 Larkin St, San Francisco, CA 94109", "locality": "San Francisco", "neighborhood": ["Little Saigon"], "postcode": "94109", "region": "CA"}, "name": "Ping Yang Thai Grill & Dessert", "related_places": {}, "timezone": "America/Los_Angeles"}, {"fsq_id": "544ae93e498ee155461cb6aa", "categories": [{"id": 13009, "name": "Cocktail Bar", "icon": {"prefix": "https://ss3.4sqi.net/img/categories_v2/nightlife/cocktails_", "suffix": ".png"}}, {"id": 13022, "name": "Sports Bar", "icon": {"prefix": "https://ss3.4sqi.net/img/categories_v2/nightlife/sportsbar_", "suffix": ".png"}}, {"id": 13065, "name": "Restaurant", "icon": {"prefix": "https://ss3.4sqi.net/img/categories_v2/food/default_", "suffix": ".png"}}], "chains": [], "distance": 340, "geocodes": {"main": {"latitude": 37.78699, "longitude": -122.419784}, "roof": {"latitude": 37.78699, "longitude": -122.419784}}, "link": "/v3/places/544ae93e498ee155461cb6aa", "location": {"address": "1092 Post St", "census_block": "060750120022005", "country": "US", "cross_street": "Polk St", "dma": "San Francisco-Oakland-San Jose", "formatted_address": "1092 Post St (Polk St), San Francisco, CA 94109", "locality": "San Francisco", "neighborhood": ["Little Saigon"], "postcode": "94109", "region": "CA"}, "name": "Jackalope", "related_places": {}, "timezone": "America/Los_Angeles"}, {"fsq_id": "4d361afdcea8b60cb1b715f8", "categories": [{"id": 10032, "name": "Night Club", "icon": {"prefix": "https://ss3.4sqi.net/img/categories_v2/nightlife/nightclub_", "suffix": ".png"}}, {"id": 13022, "name": "Sports Bar", "icon": {"prefix": "https://ss3.4sqi.net/img/categories_v2/nightlife/sportsbar_", "suffix": ".png"}}, {"id": 13065, "name": "Restaurant", "icon": {"prefix": "https://ss3.4sqi.net/img/categories_v2/food/default_", "suffix": ".png"}}], "chains": [], "distance": 266, "geocodes": {"main": {"latitude": 37.791186, "longitude": -122.417021}, "roof": {"latitude": 37.791186, "longitude": -122.417021}}, "link": "/v3/places/4d361afdcea8b60cb1b715f8", "location": {"address": "1390 California St", "census_block": "060750111013000", "country": "US", "cross_street": "at Hyde St", "dma": "San Francisco-Oakland-San Jose", "formatted_address": "1390 California St (at Hyde St), San Francisco, CA 94109", "locality": "San Francisco", "neighborhood": ["Lower Nob Hill"], "postcode": "94109", "region": "CA"}, "name": "The Wreck Room", "related_places": {}, "timezone": "America/Los_Angeles"}, {"fsq_id": "5bbacd3dfe3740002c7ec710", "categories": [{"id": 10039, "name": "Music Venue", "icon": {"prefix": "https://ss3.4sqi.net/img/categories_v2/arts_entertainment/musicvenue_", "suffix": ".png"}}, {"id": 10043, "name": "Theater", "icon": {"prefix": "https://ss3.4sqi.net/img/categories_v2/arts_entertainment/performingarts_theater_", "suffix": ".png"}}, {"id": 13010, "name": "Dive Bar", "icon": {"prefix": "https://ss3.4sqi.net/img/categories_v2/nightlife/divebar_", "suffix": ".png"}}], "chains": [], "distance": 484, "geocodes": {"main": {"latitude": 37.785771, "longitude": -122.418207}, "roof": {"latitude": 37.785771, "longitude": -122.418207}}, "link": "/v3/places/5bbacd3dfe3740002c7ec710", "location": {"address": "841 Larkin St", "census_block": "060750122021002", "country": "US", "cross_street": "Geary", "dma": "San Francisco-Oakland-San Jose", "formatted_address": "841 Larkin St (Geary), San Francisco, CA 94109", "locality": "San Francisco", "neighborhood": ["Little Saigon"], "postcode": "94109", "region": "CA"}, "name": "Young's Kung Fu Action Theatre & Laundry", "related_places": {}, "timezone": "America/Los_Angeles"}, {"fsq_id": "4a0f13d5f964a5201e761fe3", "categories": [{"id": 13065, "name": "Restaurant", "icon": {"prefix": "https://ss3.4sqi.net/img/categories_v2/food/default_", "suffix": ".png"}}], "chains": [], "distance": 54, "geocodes": {"main": {"latitude": 37.790027, "longitude": -122.420451}}, "link": "/v3/places/4a0f13d5f964a5201e761fe3", "location": {"address": "1426 Polk St", "country": "US", "cross_street": "", "dma": "San Francisco-Oakland-San Jose", "formatted_address": "1426 Polk St, San Francisco, CA 94109", "locality": "San Francisco", "neighborhood": ["Lower Nob Hill"], "postcode": "94109", "region": "CA"}, "name": "The Village Cafe", "related_places": {}, "timezone": "America/Los_Angeles"}, {"fsq_id": "589550c38ae3633850a21faf", "categories": [{"id": 13009, "name": "Cocktail Bar", "icon": {"prefix": "https://ss3.4sqi.net/img/categories_v2/nightlife/cocktails_", "suffix": ".png"}}, {"id": 13016, "name": "Lounge", "icon": {"prefix": "https://ss3.4sqi.net/img/categories_v2/nightlife/default_", "suffix": ".png"}}, {"id": 13347, "name": "Tapas Restaurant", "icon": {"prefix": "https://ss3.4sqi.net/img/categories_v2/food/tapas_", "suffix": ".png"}}], "chains": [], "distance": 273, "geocodes": {"main": {"latitude": 37.787504, "longitude": -122.420316}, "roof": {"latitude": 37.787504, "longitude": -122.420316}}, "link": "/v3/places/589550c38ae3633850a21faf", "location": {"address": "1217 Sutter St", "census_block": "060750120022001", "country": "US", "cross_street": "Polk", "dma": "San Francisco-Oakland-San Jose", "formatted_address": "1217 Sutter St (Polk), San Francisco, CA 94109", "locality": "San Francisco", "neighborhood": ["Cathedral Hill"], "postcode": "94109", "region": "CA"}, "name": "Rusted Mule", "related_places": {"children": [{"fsq_id": "5c1c8a1ff193c0002ca4aaf8", "name": "Deck The Halls Bar"}]}, "timezone": "America/Los_Angeles"}, {"fsq_id": "45abed88f964a52057411fe3", "categories": [{"id": 13309, "name": "Middle Eastern Restaurant", "icon": {"prefix": "https://ss3.4sqi.net/img/categories_v2/food/middleeastern_", "suffix": ".png"}}, {"id": 13317, "name": "Persian Restaurant", "icon": {"prefix": "https://ss3.4sqi.net/img/categories_v2/food/middleeastern_", "suffix": ".png"}}], "chains": [], "distance": 318, "geocodes": {"main": {"latitude": 37.787281, "longitude": -122.421952}, "roof": {"latitude": 37.787281, "longitude": -122.421952}}, "link": "/v3/places/45abed88f964a52057411fe3", "location": {"address": "1245 Van Ness Ave", "census_block": "060750151001000", "country": "US", "cross_street": "at Sutter St", "dma": "San Francisco-Oakland-San Jose", "formatted_address": "1245 Van Ness Ave (at Sutter St), San Francisco, CA 94109", "locality": "San Francisco", "neighborhood": ["Cathedral Hill"], "postcode": "94109", "region": "CA"}, "name": "Alborz", "related_places": {}, "timezone": "America/Los_Angeles"}, {"fsq_id": "4aab0069f964a5207c5820e3", "categories": [{"id": 13010, "name": "Dive Bar", "icon": {"prefix": "https://ss3.4sqi.net/img/categories_v2/nightlife/divebar_", "suffix": ".png"}}, {"id": 13016, "name": "Lounge", "icon": {"prefix": "https://ss3.4sqi.net/img/categories_v2/nightlife/default_", "suffix": ".png"}}], "chains": [], "distance": 166, "geocodes": {"main": {"latitude": 37.7912, "longitude": -122.420678}, "roof": {"latitude": 37.7912, "longitude": -122.420678}}, "link": "/v3/places/4aab0069f964a5207c5820e3", "location": {"address": "1548 Polk St", "census_block": "060750111011003", "country": "US", "cross_street": "at Sacramento St", "dma": "San Francisco-Oakland-San Jose", "formatted_address": "1548 Polk St (at Sacramento St), San Francisco, CA 94109", "locality": "San Francisco", "neighborhood": ["Lower Nob Hill"], "postcode": "94109", "region": "CA"}, "name": "Kozy Kar Bar", "related_places": {}, "timezone": "America/Los_Angeles"}, {"fsq_id": "4a345d92f964a520239c1fe3", "categories": [{"id": 13099, "name": "Chinese Restaurant", "icon": {"prefix": "https://ss3.4sqi.net/img/categories_v2/food/asian_", "suffix": ".png"}}], "chains": [], "distance": 347, "geocodes": {"main": {"latitude": 37.789025, "longitude": -122.423919}, "roof": {"latitude": 37.789025, "longitude": -122.423919}}, "link": "/v3/places/4a345d92f964a520239c1fe3", "location": {"address": "1559 Franklin St", "census_block": "060750151003002", "country": "US", "cross_street": "Pine", "dma": "San Francisco-Oakland-San Jose", "formatted_address": "1559 Franklin St (Pine), San Francisco, CA 94109", "locality": "San Francisco", "neighborhood": ["Cathedral Hill"], "postcode": "94109", "region": "CA"}, "name": "Gourmet Carousel", "related_places": {}, "timezone": "America/Los_Angeles"}, {"fsq_id": "4d40440baae1b1f7e84a85f5", "categories": [{"id": 13049, "name": "Diner", "icon": {"prefix": "https://ss3.4sqi.net/img/categories_v2/food/diner_", "suffix": ".png"}}, {"id": 13068, "name": "American Restaurant", "icon": {"prefix": "https://ss3.4sqi.net/img/categories_v2/food/default_", "suffix": ".png"}}], "chains": [], "distance": 196, "geocodes": {"main": {"latitude": 37.791596, "longitude": -122.42106}, "roof": {"latitude": 37.791596, "longitude": -122.42106}}, "link": "/v3/places/4d40440baae1b1f7e84a85f5", "location": {"address": "1601 Polk St", "census_block": "060750111011001", "country": "US", "cross_street": "at Sacramento St.", "dma": "San Francisco-Oakland-San Jose", "formatted_address": "1601 Polk St (at Sacramento St.), San Francisco, CA 94109", "locality": "San Francisco", "neighborhood": ["Nob Hill"], "postcode": "94109", "region": "CA"}, "name": "Toast Eatery", "related_places": {}, "timezone": "America/Los_Angeles"}, {"fsq_id": "4a1a47dff964a5208e7a1fe3", "categories": [{"id": 10032, "name": "Night Club", "icon": {"prefix": "https://ss3.4sqi.net/img/categories_v2/nightlife/nightclub_", "suffix": ".png"}}, {"id": 13022, "name": "Sports Bar", "icon": {"prefix": "https://ss3.4sqi.net/img/categories_v2/nightlife/sportsbar_", "suffix": ".png"}}], "chains": [], "distance": 181, "geocodes": {"main": {"latitude": 37.788312, "longitude": -122.420436}, "roof": {"latitude": 37.788312, "longitude": -122.420436}}, "link": "/v3/places/4a1a47dff964a5208e7a1fe3", "location": {"address": "1237 Polk St", "census_block": "060750120011002", "country": "US", "cross_street": "at Bush St", "dma": "San Francisco-Oakland-San Jose", "formatted_address": "1237 Polk St (at Bush St), San Francisco, CA 94109", "locality": "San Francisco", "neighborhood": ["Cathedral Hill"], "postcode": "94109", "region": "CA"}, "name": "McTeague's Saloon", "related_places": {}, "timezone": "America/Los_Angeles"}, {"fsq_id": "40a2ba80f964a520fcf21ee3", "categories": [{"id": 13003, "name": "Bar", "icon": {"prefix": "https://ss3.4sqi.net/img/categories_v2/nightlife/pub_", "suffix": ".png"}}, {"id": 13026, "name": "BBQ Joint", "icon": {"prefix": "https://ss3.4sqi.net/img/categories_v2/food/bbqalt_", "suffix": ".png"}}], "chains": [], "distance": 435, "geocodes": {"main": {"latitude": 37.786209, "longitude": -122.418878}, "roof": {"latitude": 37.786209, "longitude": -122.418878}}, "link": "/v3/places/40a2ba80f964a520fcf21ee3", "location": {"address": "950 Geary St", "census_block": "060750122021001", "country": "US", "cross_street": "at Polk St", "dma": "San Francisco-Oakland-San Jose", "formatted_address": "950 Geary St (at Polk St), San Francisco, CA 94109", "locality": "San Francisco", "neighborhood": ["Little Saigon"], "postcode": "94109", "region": "CA"}, "name": "Edinburgh Castle", "related_places": {}, "timezone": "America/Los_Angeles"}, {"fsq_id": "4192ab80f964a520041e1fe3", "categories": [{"id": 13035, "name": "Coffee Shop", "icon": {"prefix": "https://ss3.4sqi.net/img/categories_v2/food/coffeeshop_", "suffix": ".png"}}, {"id": 13303, "name": "Mexican Restaurant", "icon": {"prefix": "https://ss3.4sqi.net/img/categories_v2/food/mexican_", "suffix": ".png"}}, {"id": 13334, "name": "Sandwich Restaurant", "icon": {"prefix": "https://ss3.4sqi.net/img/categories_v2/food/deli_", "suffix": ".png"}}], "chains": [], "distance": 465, "geocodes": {"main": {"latitude": 37.788542, "longitude": -122.414858}, "roof": {"latitude": 37.788542, "longitude": -122.414858}}, "link": "/v3/places/4192ab80f964a520041e1fe3", "location": {"address": "896 Sutter St", "census_block": "060750121002001", "country": "US", "cross_street": "at Leavenworth St", "dma": "San Francisco-Oakland-San Jose", "formatted_address": "896 Sutter St (at Leavenworth St), San Francisco, CA 94109", "locality": "San Francisco", "neighborhood": ["Little Saigon"], "postcode": "94109", "region": "CA"}, "name": "Cup-A-Joe Coffee House", "related_places": {}, "timezone": "America/Los_Angeles"}, {"fsq_id": "4192ab80f964a520021e1fe3", "categories": [{"id": 13009, "name": "Cocktail Bar", "icon": {"prefix": "https://ss3.4sqi.net/img/categories_v2/nightlife/cocktails_", "suffix": ".png"}}, {"id": 13010, "name": "Dive Bar", "icon": {"prefix": "https://ss3.4sqi.net/img/categories_v2/nightlife/divebar_", "suffix": ".png"}}, {"id": 13026, "name": "BBQ Joint", "icon": {"prefix": "https://ss3.4sqi.net/img/categories_v2/food/bbqalt_", "suffix": ".png"}}], "chains": [], "distance": 234, "geocodes": {"main": {"latitude": 37.787938, "longitude": -122.419768}, "roof": {"latitude": 37.787938, "longitude": -122.419768}}, "link": "/v3/places/4192ab80f964a520021e1fe3", "location": {"address": "1176 Sutter St", "census_block": "060750120011006", "country": "US", "cross_street": "at Polk St", "dma": "San Francisco-Oakland-San Jose", "formatted_address": "1176 Sutter St (at Polk St), San Francisco, CA 94109", "locality": "San Francisco", "neighborhood": ["Little Saigon"], "postcode": "94109", "region": "CA"}, "name": "R Bar", "related_places": {}, "timezone": "America/Los_Angeles"}, {"fsq_id": "509a91f3e4b09409673fe51e", "categories": [{"id": 13035, "name": "Coffee Shop", "icon": {"prefix": "https://ss3.4sqi.net/img/categories_v2/food/coffeeshop_", "suffix": ".png"}}], "chains": [{"id": "ab4c54c0-d68a-012e-5619-003048cad9da", "name": "Starbucks"}], "distance": 183, "geocodes": {"main": {"latitude": 37.790219, "longitude": -122.421982}, "roof": {"latitude": 37.790219, "longitude": -122.421982}}, "link": "/v3/places/509a91f3e4b09409673fe51e", "location": {"address": "1560 Van Ness Ave", "census_block": "060750111021003", "country": "US", "cross_street": "at California St", "dma": "San Francisco-Oakland-San Jose", "formatted_address": "1560 Van Ness Ave (at California St), San Francisco, CA 94109", "locality": "San Francisco", "neighborhood": ["Cathedral Hill"], "postcode": "94109", "region": "CA"}, "name": "Starbucks", "related_places": {"parent": {"fsq_id": "4b6b5ae9f964a52012032ce3", "name": "Wells Fargo Bank"}}, "timezone": "America/Los_Angeles"}, {"fsq_id": "4b5e7112f964a520d78e29e3", "categories": [{"id": 13064, "name": "Pizzeria", "icon": {"prefix": "https://ss3.4sqi.net/img/categories_v2/food/pizza_", "suffix": ".png"}}], "chains": [], "distance": 434, "geocodes": {"main": {"latitude": 37.788477, "longitude": -122.415714}, "roof": {"latitude": 37.788477, "longitude": -122.415714}}, "link": "/v3/places/4b5e7112f964a520d78e29e3", "location": {"address": "920 Sutter St", "census_block": "060750120012000", "country": "US", "cross_street": "Leavenworth", "dma": "San Francisco-Oakland-San Jose", "formatted_address": "920 Sutter St (Leavenworth), San Francisco, CA 94109", "locality": "San Francisco", "neighborhood": ["Little Saigon"], "postcode": "94109", "region": "CA"}, "name": "Bellissimo Pizza", "related_places": {}, "timezone": "America/Los_Angeles"}, {"fsq_id": "40e5f700f964a520fe091fe3", "categories": [{"id": 13009, "name": "Cocktail Bar", "icon": {"prefix": "https://ss3.4sqi.net/img/categories_v2/nightlife/cocktails_", "suffix": ".png"}}, {"id": 13010, "name": "Dive Bar", "icon": {"prefix": "https://ss3.4sqi.net/img/categories_v2/nightlife/divebar_", "suffix": ".png"}}, {"id": 13031, "name": "Burger Joint", "icon": {"prefix": "https://ss3.4sqi.net/img/categories_v2/food/burger_", "suffix": ".png"}}], "chains": [], "distance": 478, "geocodes": {"main": {"latitude": 37.786037, "longitude": -122.417721}, "roof": {"latitude": 37.786037, "longitude": -122.417721}}, "link": "/v3/places/40e5f700f964a520fe091fe3", "location": {"address": "875 Geary St", "address_extended": "Ste 14", "census_block": "060750122032001", "country": "US", "cross_street": "at Larkin", "dma": "San Francisco-Oakland-San Jose", "formatted_address": "875 Geary St (at Larkin), San Francisco, CA 94109", "locality": "San Francisco", "neighborhood": ["Little Saigon"], "postcode": "94109", "region": "CA"}, "name": "Ha-Ra Club", "related_places": {}, "timezone": "America/Los_Angeles"}, {"fsq_id": "45ee004df964a520b0431fe3", "categories": [{"id": 13031, "name": "Burger Joint", "icon": {"prefix": "https://ss3.4sqi.net/img/categories_v2/food/burger_", "suffix": ".png"}}, {"id": 13049, "name": "Diner", "icon": {"prefix": "https://ss3.4sqi.net/img/categories_v2/food/diner_", "suffix": ".png"}}, {"id": 13145, "name": "Fast Food Restaurant", "icon": {"prefix": "https://ss3.4sqi.net/img/categories_v2/food/fastfood_", "suffix": ".png"}}], "chains": [], "distance": 249, "geocodes": {"main": {"latitude": 37.787894, "longitude": -122.420339}, "roof": {"latitude": 37.787894, "longitude": -122.420339}}, "link": "/v3/places/45ee004df964a520b0431fe3", "location": {"address": "1202 Sutter St", "census_block": "060750120011005", "country": "US", "cross_street": "at Polk St.", "dma": "San Francisco-Oakland-San Jose", "formatted_address": "1202 Sutter St (at Polk St.), San Francisco, CA 94109", "locality": "San Francisco", "neighborhood": ["Cathedral Hill"], "postcode": "94109", "region": "CA"}, "name": "Slider's Diner", "related_places": {}, "timezone": "America/Los_Angeles"}], "context": {"geo_bounds": {"circle": {"center": {"latitude": 37.79, "longitude": -122.42}, "radius": 500}}}}