{"results": [{"fsq_id": "49ee35c8f964a5203b681fe3", "categories": [{"id": 13046, "name": "Ice Cream Parlor", "icon": {"prefix": "https://ss3.4sqi.net/img/categories_v2/food/icecream_", "suffix": ".png"}}, {"id": 13065, "name": "Restaurant", "icon": {"prefix": "https://ss3.4sqi.net/img/categories_v2/food/default_", "suffix": ".png"}}], "chains": [], "distance": 347, "geocodes": {"main": {"latitude": 37.742678, "longitude": -122.481715}, "roof": {"latitude": 37.742678, "longitude": -122.481715}}, "link": "/v3/places/49ee35c8f964a5203b681fe3", "location": {"address": "1447 Taraval St", "address_extended": "# 2347", "census_block": "060750330021005", "country": "US", "cross_street": "at 25th Ave", "dma": "San Francisco-Oakland-San Jose", "formatted_address": "1447 Taraval St (at 25th Ave), San Francisco, CA 94116", "locality": "San Francisco", "neighborhood": ["Parkside"], "postcode": "94116", "region": "CA"}, "name": "Marco Polo Italian Ice Cream", "related_places": {}, "timezone": "America/Los_Angeles"}, {"fsq_id": "54d14561498ecb61eca88c0f", "categories": [{"id": 13065, "name": "Restaurant", "icon": {"prefix": "https://ss3.4sqi.net/img/categories_v2/food/default_", "suffix": ".png"}}], "chains": [], "distance": 374, "geocodes": {"main": {"latitude": 37.742883, "longitude": -122.482443}, "roof": {"latitude": 37.742883, "longitude": -122.482443}}, "link": "/v3/places/54d14561498ecb61eca88c0f", "location": {"address": "1508 Taraval St", "census_block": "060750328012005", "country": "US", "cross_street": "at 25th Ave", "dma": "San Francisco-Oakland-San Jose", "formatted_address": "1508 Taraval St (at 25th Ave), San Francisco, CA 94116", "locality": "San Francisco", "neighborhood": ["Parkside"], "postcode": "94116", "region": "CA"}, "name": "Lou's Cafe", "related_places": {}, "timezone": "America/Los_Angeles"}, {"fsq_id": "4b04b453f964a520385622e3", "categories": [{"id": 13068, "name": "American Restaurant", "icon": {"prefix": "https://ss3.4sqi.net/img/categories_v2/food/default_", "suffix": ".png"}}, {"id": 13072, "name": "Asian Restaurant", "icon": {"prefix": "https://ss3.4sqi.net/img/categories_v2/food/asian_", "suffix": ".png"}}, {"id": 13102, "name": "Cantonese Restaurant", "icon": {"prefix": "https://ss3.4sqi.net/img/categories_v2/food/asian_", "suffix": ".png"}}], "chains": [], "distance": 122, "geocodes": {"main": {"latitude": 37.738993, "longitude": -122.480349}, "roof": {"latitude": 37.738993, "longitude": -122.480349}}, "link": "/v3/places/4b04b453f964a520385622e3", "location": {"address": "1241 Vicente St", "census_block": "060750330023004", "country": "US", "cross_street": "", "dma": "San Francisco-Oakland-San Jose", "formatted_address": "1241 Vicente St, San Francisco, CA 94116", "locality": "San Francisco", "neighborhood": ["Merced Manor"], "postcode": "94116", "region": "CA"}, "name": "Just Won Ton", "related_places": {}, "timezone": "America/Los_Angeles"}, {"fsq_id": "5cba234d1ffe97002c0b7f00", "categories": [{"id": 13128, "name": "Taiwanese Restaurant", "icon": {"prefix": "https://ss3.4sqi.net/img/categories_v2/food/asian_", "suffix": ".png"}}], "chains": [], "distance": 347, "geocodes": {"main": {"latitude": 37.742746, "longitude": -122.478281}, "roof": {"latitude": 37.742746, "longitude": -122.478281}}, "link": "/v3/places/5cba234d1ffe97002c0b7f00", "location": {"address": "1123 Taraval St", "census_block": "060750330021002", "country": "US", "cross_street": "21st St", "dma": "San Francisco-Oakland-San Jose", "formatted_address": "1123 Taraval St (21st St), San Francisco, CA 94116", "locality": "San Francisco", "neighborhood": ["Inner Parkside"], "postcode": "94116", "region": "CA"}, "name": "Dumpling Specialist", "related_places": {}, "timezone": "America/Los_Angeles"}, {"fsq_id": "512831dae4b058a839d3cdac", "categories": [{"id": 13068, "name": "American Restaurant", "icon": {"prefix": "https://ss3.4sqi.net/img/categories_v2/food/default_", "suffix": ".png"}}, {"id": 13072, "name": "Asian Restaurant", "icon": {"prefix": "https://ss3.4sqi.net/img/categories_v2/food/asian_", "suffix": ".png"}}, {"id": 13128, "name": "Taiwanese Restaurant", "icon": {"prefix": "https://ss3.4sqi.net/img/categories_v2/food/asian_", "suffix": ".png"}}], "chains": [], "distance": 461, "geocodes": {"main": {"latitude": 37.742834, "longitude": -122.47628}, "roof": {"latitude": 37.742834, "longitude": -122.47628}}, "link": "/v3/places/512831dae4b058a839d3cdac", "location": {"address": "937 Taraval St", "census_block": "060750330021000", "country": "US", "cross_street": "btwn 19th & 20th Ave", "dma": "San Francisco-Oakland-San Jose", "formatted_address": "937 Taraval St (btwn 19th & 20th Ave), San Francisco, CA 94116", "locality": "San Francisco", "neighborhood": ["Inner Parkside"], "postcode": "94116", "region": "CA"}, "name": "House of Pancakes", "related_places": {}, "timezone": "America/Los_Angeles"}, {"fsq_id": "57b7af86498e3e263095efc9", "categories": [{"id": 13072, "name": "Asian Restaurant", "icon": {"prefix": "https://ss3.4sqi.net/img/categories_v2/food/asian_", "suffix": ".png"}}, {"id": 13099, "name": "Chinese Restaurant", "icon": {"prefix": "https://ss3.4sqi.net/img/categories_v2/food/asian_", "suffix": ".png"}}, {"id": 13196, "name": "Hotpot Restaurant", "icon": {"prefix": "https://ss3.4sqi.net/img/categories_v2/food/asian_", "suffix": ".png"}}], "chains": [], "distance": 457, "geocodes": {"main": {"latitude": 37.742812, "longitude": -122.4838}, "roof": {"latitude": 37.742812, "longitude": -122.4838}}, "link": "/v3/places/57b7af86498e3e263095efc9", "location": {"address": "1626 Taraval St", "census_block": "060750328012006", "country": "US", "cross_street": "btwn 26th & 27th Ave", "dma": "San Francisco-Oakland-San Jose", "formatted_address": "1626 Taraval St (btwn 26th & 27th Ave), San Francisco, CA 94116", "locality": "San Francisco", "neighborhood": ["Parkside"], "postcode": "94116", "region": "CA"}, "name": "Fiery Hot Pot Buffet", "related_places": {}, "timezone": "America/Los_Angeles"}, {"fsq_id": "56a52b02498e66937df2494d", "categories": [{"id": 13002, "name": "Bakery", "icon": {"prefix": "https://ss3.4sqi.net/img/categories_v2/food/bakery_", "suffix": ".png"}}, {"id": 13035, "name": "Coffee Shop", "icon": {"prefix": "https://ss3.4sqi.net/img/categories_v2/food/coffeeshop_", "suffix": ".png"}}, {"id": 13099, "name": "Chinese Restaurant", "icon": {"prefix": "https://ss3.4sqi.net/img/categories_v2/food/asian_", "suffix": ".png"}}], "chains": [], "distance": 418, "geocodes": {"main": {"latitude": 37.743121, "longitude": -122.477229}, "roof": {"latitude": 37.743121, "longitude": -122.477229}}, "link": "/v3/places/56a52b02498e66937df2494d", "location": {"address": "1018 Taraval St", "census_block": "060750328012001", "country": "US", "cross_street": "", "dma": "San Francisco-Oakland-San Jose", "formatted_address": "1018 Taraval St, San Francisco, CA 94116", "locality": "San Francisco", "neighborhood": ["Inner Parkside"], "postcode": "94116", "region": "CA"}, "name": "Mr. Bread Bakery", "related_places": {}, "timezone": "America/Los_Angeles"}, {"fsq_id": "4b78bc3ff964a520fddf2ee3", "categories": [{"id": 13276, "name": "Sushi Restaurant", "icon": {"prefix": "https://ss3.4sqi.net/img/categories_v2/food/sushi_", "suffix": ".png"}}], "chains": [], "distance": 395, "geocodes": {"main": {"latitude": 37.742823, "longitude": -122.477282}, "roof": {"latitude": 37.742823, "longitude": -122.477282}}, "link": "/v3/places/4b78bc3ff964a520fddf2ee3", "location": {"address": "1041 Taraval St", "census_block": "060750330021001", "country": "US", "cross_street": "", "dma": "San Francisco-Oakland-San Jose", "formatted_address": "1041 Taraval St, San Francisco, CA 94116", "locality": "San Francisco", "neighborhood": ["Inner Parkside"], "postcode": "94116", "region": "CA"}, "name": "Sushi Zen", "related_places": {}, "timezone": "America/Los_Angeles"}, {"fsq_id": "4a39a40bf964a520a69f1fe3", "categories": [{"id": 13099, "name": "Chinese Restaurant", "icon": {"prefix": "https://ss3.4sqi.net/img/categories_v2/food/asian_", "suffix": ".png"}}], "chains": [], "distance": 492, "geocodes": {"main": {"latitude": 37.742551, "longitude": -122.484644}, "roof": {"latitude": 37.742551, "longitude": -122.484644}}, "link": "/v3/places/4a39a40bf964a520a69f1fe3", "location": {"address": "1713 Taraval St", "census_block": "060750330021008", "country": "US", "cross_street": "btwn 27th & 28th Ave", "dma": "San Francisco-Oakland-San Jose", "formatted_address": "1713 Taraval St (btwn 27th & 28th Ave), San Francisco, CA 94116", "locality": "San Francisco", "neighborhood": ["Parkside"], "postcode": "94116", "region": "CA"}, "name": "Kingdom of Dumpling", "related_places": {}, "timezone": "America/Los_Angeles"}, {"fsq_id": "4a88f509f964a520c40720e3", "categories": [{"id": 13064, "name": "Pizzeria", "icon": {"prefix": "https://ss3.4sqi.net/img/categories_v2/food/pizza_", "suffix": ".png"}}], "chains": [], "distance": 492, "geocodes": {"main": {"latitude": 37.742737, "longitude": -122.475845}, "roof": {"latitude": 37.742737, "longitude": -122.475845}}, "link": "/v3/places/4a88f509f964a520c40720e3", "location": {"address": "2415 19th Ave", "census_block": "060750330021000", "country": "US", "cross_street": "at Taraval St", "dma": "San Francisco-Oakland-San Jose", "formatted_address": "2415 19th Ave (at Taraval St), San Francisco, CA 94116", "locality": "San Francisco", "neighborhood": ["Inner Parkside"], "postcode": "94116", "region": "CA"}, "name": "Seniores Pizza", "related_places": {}, "timezone": "America/Los_Angeles"}, {"fsq_id": "4ce76a9a595cb1f72caac214", "categories": [{"id": 13034, "name": "Caf\u00e9", "icon": {"prefix": "https://ss3.4sqi.net/img/categories_v2/food/cafe_", "suffix": ".png"}}, {"id": 13196, "name": "Hotpot Restaurant", "icon": {"prefix": "https://ss3.4sqi.net/img/categories_v2/food/asian_", "suffix": ".png"}}, {"id": 13276, "name": "Sushi Restaurant", "icon": {"prefix": "https://ss3.4sqi.net/img/categories_v2/food/sushi_", "suffix": ".png"}}], "chains": [], "distance": 464, "geocodes": {"main": {"latitude": 37.742823, "longitude": -122.483657}, "roof": {"latitude": 37.742823, "longitude": -122.483657}}, "link": "/v3/places/4ce76a9a595cb1f72caac214", "location": {"address": "1626 Taraval St", "census_block": "060750328012006", "country": "US", "cross_street": "btwn 26th & 27th", "dma": "San Francisco-Oakland-San Jose", "formatted_address": "1626 Taraval St (btwn 26th & 27th), San Francisco, CA 94116", "locality": "San Francisco", "neighborhood": ["Parkside"], "postcode": "94116", "region": "CA"}, "name": "G Cube Cafe", "related_places": {}, "timezone": "America/Los_Angeles"}, {"fsq_id": "51e60310498eca96abdd4a22", "categories": [{"id": 13033, "name": "Bubble Tea Shop", "icon": {"prefix": "https://ss3.4sqi.net/img/categories_v2/food/bubble_", "suffix": ".png"}}, {"id": 13040, "name": "Dessert Shop", "icon": {"prefix": "https://ss3.4sqi.net/img/categories_v2/food/dessert_", "suffix": ".png"}}, {"id": 13303, "name": "Mexican Restaurant", "icon": {"prefix": "https://ss3.4sqi.net/img/categories_v2/food/mexican_", "suffix": ".png"}}], "chains": [], "distance": 347, "geocodes": {"main": {"latitude": 37.742773, "longitude": -122.478354}, "roof": {"latitude": 37.742773, "longitude": -122.478354}}, "link": "/v3/places/51e60310498eca96abdd4a22", "location": {"address": "1139 Taraval St", "census_block": "060750330021002", "country": "US", "cross_street": "at 22nd Ave", "dma": "San Francisco-Oakland-San Jose", "formatted_address": "1139 Taraval St (at 22nd Ave), San Francisco, CA 94116", "locality": "San Francisco", "neighborhood": ["Inner Parkside"], "postcode": "94116", "region": "CA"}, "name": "Super Cue Cafe", "related_places": {"children": [{"fsq_id": "54b4c25f498e46128d5ead11", "name": "European Wax Center"}]}, "timezone": "America/Los_Angeles"}, {"fsq_id": "59c0054f603d2a17e378089a", "categories": [{"id": 13099, "name": "Chinese Restaurant", "icon": {"prefix": "https://ss3.4sqi.net/img/categories_v2/food/asian_", "suffix": ".png"}}, {"id": 13196, "name": "Hotpot Restaurant", "icon": {"prefix": "https://ss3.4sqi.net/img/categories_v2/food/asian_", "suffix": ".png"}}], "chains": [], "distance": 376, "geocodes": {"main": {"latitude": 37.742839, "longitude": -122.477498}, "roof": {"latitude": 37.742839, "longitude": -122.477498}}, "link": "/v3/places/59c0054f603d2a17e378089a", "location": {"address": "1055 Taraval St", "census_block": "060750330021001", "country": "US", "cross_street": "at 21st Ave", "dma": "San Francisco-Oakland-San Jose", "formatted_address": "1055 Taraval St (at 21st Ave), San Francisco, CA 94116", "locality": "San Francisco", "neighborhood": ["Inner Parkside"], "postcode": "94116", "region": "CA"}, "name": "Simmer", "related_places": {}, "timezone": "America/Los_Angeles"}, {"fsq_id": "4ab96dc7f964a520587f20e3", "categories": [{"id": 13297, "name": "Latin American Restaurant", "icon": {"prefix": "https://ss3.4sqi.net/img/categories_v2/food/latinamerican_", "suffix": ".png"}}, {"id": 13305, "name": "Burrito Restaurant", "icon": {"prefix": "https://ss3.4sqi.net/img/categories_v2/food/burrito_", "suffix": ".png"}}], "chains": [], "distance": 411, "geocodes": {"main": {"latitude": 37.742519, "longitude": -122.483353}, "roof": {"latitude": 37.742519, "longitude": -122.483353}}, "link": "/v3/places/4ab96dc7f964a520587f20e3", "location": {"address": "1601 Taraval St", "census_block": "060750330021007", "country": "US", "cross_street": "at 26th Ave", "dma": "San Francisco-Oakland-San Jose", "formatted_address": "1601 Taraval St (at 26th Ave), San Francisco, CA 94116", "locality": "San Francisco", "neighborhood": ["Parkside"], "postcode": "94116", "region": "CA"}, "name": "El Burrito Express 1", "related_places": {}, "timezone": "America/Los_Angeles"}, {"fsq_id": "4b7f07e2f964a520881130e3", "categories": [{"id": 13072, "name": "Asian Restaurant", "icon": {"prefix": "https://ss3.4sqi.net/img/categories_v2/food/asian_", "suffix": ".png"}}, {"id": 13334, "name": "Sandwich Restaurant", "icon": {"prefix": "https://ss3.4sqi.net/img/categories_v2/food/deli_", "suffix": ".png"}}, {"id": 13379, "name": "Vietnamese Restaurant", "icon": {"prefix": "https://ss3.4sqi.net/img/categories_v2/food/vietnamese_", "suffix": ".png"}}], "chains": [], "distance": 363, "geocodes": {"main": {"latitude": 37.742784, "longitude": -122.478211}, "roof": {"latitude": 37.742784, "longitude": -122.478211}}, "link": "/v3/places/4b7f07e2f964a520881130e3", "location": {"address": "1105 Taraval St", "census_block": "060750330021002", "country": "US", "cross_street": "21st. Ave.", "dma": "San Francisco-Oakland-San Jose", "formatted_address": "1105 Taraval St (21st. Ave.), San Francisco, CA 94116", "locality": "San Francisco", "neighborhood": ["Inner Parkside"], "postcode": "94116", "region": "CA"}, "name": "Banhwich", "related_places": {}, "timezone": "America/Los_Angeles"}, {"fsq_id": "4a997d40f964a5209d2e20e3", "categories": [{"id": 13034, "name": "Caf\u00e9", "icon": {"prefix": "https://ss3.4sqi.net/img/categories_v2/food/cafe_", "suffix": ".png"}}, {"id": 13049, "name": "Diner", "icon": {"prefix": "https://ss3.4sqi.net/img/categories_v2/food/diner_", "suffix": ".png"}}, {"id": 13068, "name": "American Restaurant", "icon": {"prefix": "https://ss3.4sqi.net/img/categories_v2/food/default_", "suffix": ".png"}}], "chains": [], "distance": 389, "geocodes": {"main": {"latitude": 37.743126, "longitude": -122.477587}, "roof": {"latitude": 37.743126, "longitude": -122.477587}}, "link": "/v3/places/4a997d40f964a5209d2e20e3", "location": {"address": "1054 Taraval St", "census_block": "060750328012001", "country": "US", "cross_street": "21st ave.", "dma": "San Francisco-Oakland-San Jose", "formatted_address": "1054 Taraval St (21st ave.), San Francisco, CA 94116", "locality": "San Francisco", "neighborhood": ["Inner Parkside"], "postcode": "94116", "region": "CA"}, "name": "New Taraval Cafe", "related_places": {"children": [{"fsq_id": "5ca8e6f967e5f2002c572265", "name": "Automat Sf"}]}, "timezone": "America/Los_Angeles"}, {"fsq_id": "5324e01311d2e9f6a055d52b", "categories": [{"id": 13145, "name": "Fast Food Restaurant", "icon": {"prefix": "https://ss3.4sqi.net/img/categories_v2/food/fastfood_", "suffix": ".png"}}, {"id": 13334, "name": "Sandwich Restaurant", "icon": {"prefix": "https://ss3.4sqi.net/img/categories_v2/food/deli_", "suffix": ".png"}}], "chains": [], "distance": 335, "geocodes": {"main": {"latitude": 37.742933, "longitude": -122.481372}, "roof": {"latitude": 37.742933, "longitude": -122.481372}}, "link": "/v3/places/5324e01311d2e9f6a055d52b", "location": {"address": "1404 Taraval St", "census_block": "060750328012004", "country": "US", "cross_street": "at 24th Ave", "dma": "San Francisco-Oakland-San Jose", "formatted_address": "1404 Taraval St (at 24th Ave), San Francisco, CA 94116", "locality": "San Francisco", "neighborhood": ["Parkside"], "postcode": "94116", "region": "CA"}, "name": "Grubbin", "related_places": {}, "timezone": "America/Los_Angeles"}, {"fsq_id": "5071ee68e4b0e156bb2c599e", "categories": [{"id": 13099, "name": "Chinese Restaurant", "icon": {"prefix": "https://ss3.4sqi.net/img/categories_v2/food/asian_", "suffix": ".png"}}], "chains": [], "distance": 409, "geocodes": {"main": {"latitude": 37.74311, "longitude": -122.477371}, "roof": {"latitude": 37.74311, "longitude": -122.477371}}, "link": "/v3/places/5071ee68e4b0e156bb2c599e", "location": {"address": "1042 Taraval St", "census_block": "060750328012001", "country": "US", "cross_street": "btwn 20th & 21st Ave", "dma": "San Francisco-Oakland-San Jose", "formatted_address": "1042 Taraval St (btwn 20th & 21st Ave), San Francisco, CA 94116", "locality": "San Francisco", "neighborhood": ["Inner Parkside"], "postcode": "94116", "region": "CA"}, "name": "Shandong Deluxe", "related_places": {}, "timezone": "America/Los_Angeles"}, {"fsq_id": "4b08ee17f964a520681323e3", "categories": [{"id": 13009, "name": "Cocktail Bar", "icon": {"prefix": "https://ss3.4sqi.net/img/categories_v2/nightlife/cocktails_", "suffix": ".png"}}, {"id": 13010, "name": "Dive Bar", "icon": {"prefix": "https://ss3.4sqi.net/img/categories_v2/nightlife/divebar_", "suffix": ".png"}}, {"id": 13031, "name": "Burger Joint", "icon": {"prefix": "https://ss3.4sqi.net/img/categories_v2/food/burger_", "suffix": ".png"}}], "chains": [], "distance": 426, "geocodes": {"main": {"latitude": 37.743143, "longitude": -122.476943}, "roof": {"latitude": 37.743143, "longitude": -122.476943}}, "link": "/v3/places/4b08ee17f964a520681323e3", "location": {"address": "1016 Taraval St", "census_block": "060750328012001", "country": "US", "cross_street": "at 21st Ave", "dma": "San Francisco-Oakland-San Jose", "formatted_address": "1016 Taraval St (at 21st Ave), San Francisco, CA 94116", "locality": "San Francisco", "neighborhood": ["Inner Parkside"], "postcode": "94116", "region": "CA"}, "name": "Grandma's Saloon", "related_places": {}, "timezone": "America/Los_Angeles"}, {"fsq_id": "50fc842fe4b0687ce2adc8de", "categories": [{"id": 13034, "name": "Caf\u00e9", "icon": {"prefix": "https://ss3.4sqi.net/img/categories_v2/food/cafe_", "suffix": ".png"}}, {"id": 13035, "name": "Coffee Shop", "icon": {"prefix": "https://ss3.4sqi.net/img/categories_v2/food/coffeeshop_", "suffix": ".png"}}, {"id": 13334, "name": "Sandwich Restaurant", "icon": {"prefix": "https://ss3.4sqi.net/img/categories_v2/food/deli_", "suffix": ".png"}}], "chains": [], "distance": 350, "geocodes": {"main": {"latitude": 37.742773, "longitude": -122.478354}, "roof": {"latitude": 37.742773, "longitude": -122.478354}}, "link": "/v3/places/50fc842fe4b0687ce2adc8de", "location": {"address": "1131 Taraval St", "census_block": "060750330021002", "country": "US", "cross_street": "btwn 21st & 22nd", "dma": "San Francisco-Oakland-San Jose", "formatted_address": "1131 Taraval St (btwn 21st & 22nd), San Francisco, CA 94116", "locality": "San Francisco", "neighborhood": ["Inner Parkside"], "postcode": "94116", "region": "CA"}, "name": "Antigua Coffee Shop", "related_places": {}, "timezone": "America/Los_Angeles"}, {"fsq_id": "5aad60a0d41bb7468e32c645", "categories": [{"id": 13034, "name": "Caf\u00e9", "icon": {"prefix": "https://ss3.4sqi.net/img/categories_v2/food/cafe_", "suffix": ".png"}}, {"id": 13035, "name": "Coffee Shop", "icon": {"prefix": "https://ss3.4sqi.net/img/categories_v2/food/coffeeshop_", "suffix": ".png"}}, {"id": 13334, "name": "Sandwich Restaurant", "icon": {"prefix": "https://ss3.4sqi.net/img/categories_v2/food/deli_", "suffix": ".png"}}], "chains": [], "distance": 357, "geocodes": {"main": {"latitude": 37.742933, "longitude": -122.481372}, "roof": {"latitude": 37.742933, "longitude": -122.481372}}, "link": "/v3/places/5aad60a0d41bb7468e32c645", "location": {"address": "1400 Taraval St", "census_block": "060750328012004", "country": "US", "cross_street": "24th Ave", "dma": "San Francisco-Oakland-San Jose", "formatted_address": "1400 Taraval St (24th Ave), San Francisco, CA 94116", "locality": "San Francisco", "neighborhood": ["Parkside"], "postcode": "94116", "region": "CA"}, "name": "Mellow's Cafe", "related_places": {}, "timezone": "America/Los_Angeles"}, {"fsq_id": "4c1afcbdb9f876b054a37946", "categories": [{"id": 13276, "name": "Sushi Restaurant", "icon": {"prefix": "https://ss3.4sqi.net/img/categories_v2/food/sushi_", "suffix": ".png"}}], "chains": [], "distance": 501, "geocodes": {"main": {"latitude": 37.742894, "longitude": -122.475926}, "roof": {"latitude": 37.742894, "longitude": -122.475926}}, "link": "/v3/places/4c1afcbdb9f876b054a37946", "location": {"address": "901 Taraval St", "census_block": "060750330021000", "country": "US", "cross_street": "19th Ave", "dma": "San Francisco-Oakland-San Jose", "formatted_address": "901 Taraval St (19th Ave), San Francisco, CA 94116", "locality": "San Francisco", "neighborhood": ["Inner Parkside"], "postcode": "94116", "region": "CA"}, "name": "Sushi Raw", "related_places": {}, "timezone": "America/Los_Angeles"}, {"fsq_id": "4a60bfa1f964a52022c11fe3", "categories": [{"id": 13009, "name": "Cocktail Bar", "icon": {"prefix": "https://ss3.4sqi.net/img/categories_v2/nightlife/cocktails_", "suffix": ".png"}}, {"id": 13016, "name": "Lounge", "icon": {"prefix": "https://ss3.4sqi.net/img/categories_v2/nightlife/default_", "suffix": ".png"}}, {"id": 13065, "name": "Restaurant", "icon": {"prefix": "https://ss3.4sqi.net/img/categories_v2/food/default_", "suffix": ".png"}}], "chains": [], "distance": 487, "geocodes": {"main": {"latitude": 37.742932, "longitude": -122.475856}, "roof": {"latitude": 37.742932, "longitude": -122.475856}}, "link": "/v3/places/4a60bfa1f964a52022c11fe3", "location": {"address": "915 Taraval St", "census_block": "060750330021000", "country": "US", "cross_street": "19th Ave & 20th Ave", "dma": "San Francisco-Oakland-San Jose", "formatted_address": "915 Taraval St (19th Ave & 20th Ave), San Francisco, CA 94116", "locality": "San Francisco", "neighborhood": ["Inner Parkside"], "postcode": "94116", "region": "CA"}, "name": "Shannon Arms Irish Pub", "related_places": {}, "timezone": "America/Los_Angeles"}, {"fsq_id": "55b1a8d8498e289c85186506", "categories": [{"id": 13031, "name": "Burger Joint", "icon": {"prefix": "https://ss3.4sqi.net/img/categories_v2/food/burger_", "suffix": ".png"}}, {"id": 13072, "name": "Asian Restaurant", "icon": {"prefix": "https://ss3.4sqi.net/img/categories_v2/food/asian_", "suffix": ".png"}}, {"id": 13099, "name": "Chinese Restaurant", "icon": {"prefix": "https://ss3.4sqi.net/img/categories_v2/food/asian_", "suffix": ".png"}}], "chains": [], "distance": 337, "geocodes": {"main": {"latitude": 37.742751, "longitude": -122.478639}, "roof": {"latitude": 37.742751, "longitude": -122.478639}}, "link": "/v3/places/55b1a8d8498e289c85186506", "location": {"address": "1155 Taraval St", "census_block": "060750330021002", "country": "US", "cross_street": "at 22nd Ave", "dma": "San Francisco-Oakland-San Jose", "formatted_address": "1155 Taraval St (at 22nd Ave), San Francisco, CA 94116", "locality": "San Francisco", "neighborhood": ["Inner Parkside"], "postcode": "94116", "region": "CA"}, "name": "One Boiling Pot Mixian Noodles", "related_places": {}, "timezone": "America/Los_Angeles"}, {"fsq_id": "4a918d27f964a520a81a20e3", "categories": [{"id": 13102, "name": "Cantonese Restaurant", "icon": {"prefix": "https://ss3.4sqi.net/img/categories_v2/food/asian_", "suffix": ".png"}}, {"id": 13106, "name": "Dim Sum Restaurant", "icon": {"prefix": "https://ss3.4sqi.net/img/categories_v2/food/dimsum_", "suffix": ".png"}}, {"id": 13338, "name": "Seafood Restaurant", "icon": {"prefix": "https://ss3.4sqi.net/img/categories_v2/food/seafood_", "suffix": ".png"}}], "chains": [], "distance": 107, "geocodes": {"main": {"latitude": 37.738988, "longitude": -122.47999}, "roof": {"latitude": 37.738988, "longitude": -122.47999}}, "link": "/v3/places/4a918d27f964a520a81a20e3", "location": {"address": "1201 Vicente St", "census_block": "060750330023004", "country": "US", "cross_street": "btw 23rd Ave & 24th Ave", "dma": "San Francisco-Oakland-San Jose", "formatted_address": "1201 Vicente St (btw 23rd Ave & 24th Ave), San Francisco, CA 94116", "locality": "San Francisco", "neighborhood": ["Merced Manor"], "postcode": "94116", "region": "CA"}, "name": "Riverside Seafood Restaurant", "related_places": {}, "timezone": "America/Los_Angeles"}, {"fsq_id": "5ca18c5579f6c7002c1c090e", "categories": [{"id": 10039, "name": "Music Venue", "icon": {"prefix": "https://ss3.4sqi.net/img/categories_v2/arts_entertainment/musicvenue_", "suffix": ".png"}}, {"id": 13009, "name": "Cocktail Bar", "icon": {"prefix": "https://ss3.4sqi.net/img/categories_v2/nightlife/cocktails_", "suffix": ".png"}}], "chains": [], "distance": 327, "geocodes": {"main": {"latitude": 37.742472, "longitude": -122.481846}, "roof": {"latitude": 37.742472, "longitude": -122.481846}}, "link": "/v3/places/5ca18c5579f6c7002c1c090e", "location": {"address": "1439 Taraval St", "census_block": "060750330021005", "country": "US", "cross_street": "at 25th Ave", "dma": "San Francisco-Oakland-San Jose", "formatted_address": "1439 Taraval St (at 25th Ave), San Francisco, CA 94116", "locality": "San Francisco", "neighborhood": ["Parkside"], "postcode": "94116", "region": "CA"}, "name": "Lost And Found Bar SF", "related_places": {}, "timezone": "America/Los_Angeles"}, {"fsq_id": "4b53f6f0f964a520a3af27e3", "categories": [{"id": 13352, "name": "Thai Restaurant", "icon": {"prefix": "https://ss3.4sqi.net/img/categories_v2/food/thai_", "suffix": ".png"}}], "chains": [], "distance": 382, "geocodes": {"main": {"latitude": 37.742601, "longitude": -122.482713}, "roof": {"latitude": 37.742601, "longitude": -122.482713}}, "link": "/v3/places/4b53f6f0f964a520a3af27e3", "location": {"address": "1541 Taraval St", "census_block": "060750330021006", "country": "US", "cross_street": "at 24th Ave", "dma": "San Francisco-Oakland-San Jose", "formatted_address": "1541 Taraval St (at 24th Ave), San Francisco, CA 94116", "locality": "San Francisco", "neighborhood": ["Parkside"], "postcode": "94116", "region": "CA"}, "name": "King of Thai Noodle Cafe", "related_places": {}, "timezone": "America/Los_Angeles"}, {"fsq_id": "531e7ae0498ede40de77f72c", "categories": [{"id": 13102, "name": "Cantonese Restaurant", "icon": {"prefix": "https://ss3.4sqi.net/img/categories_v2/food/asian_", "suffix": ".png"}}], "chains": [], "distance": 391, "geocodes": {"main": {"latitude": 37.742823, "longitude": -122.477282}, "roof": {"latitude": 37.742823, "longitude": -122.477282}}, "link": "/v3/places/531e7ae0498ede40de77f72c", "location": {"address": "1033 Taraval St", "census_block": "060750330021001", "country": "US", "cross_street": "", "dma": "San Francisco-Oakland-San Jose", "formatted_address": "1033 Taraval St, San Francisco, CA 94116", "locality": "San Francisco", "neighborhood": ["Inner Parkside"], "postcode": "94116", "region": "CA"}, "name": "Made In China Restaurant", "related_places": {}, "timezone": "America/Los_Angeles"}, {"fsq_id": "4a770f7cf964a52076e31fe3", "categories": [{"id": 13026, "name": "BBQ Joint", "icon": {"prefix": "https://ss3.4sqi.net/img/categories_v2/food/bbqalt_", "suffix": ".png"}}, {"id": 13049, "name": "Diner", "icon": {"prefix": "https://ss3.4sqi.net/img/categories_v2/food/diner_", "suffix": ".png"}}, {"id": 13068, "name": "American Restaurant", "icon": {"prefix": "https://ss3.4sqi.net/img/categories_v2/food/default_", "suffix": ".png"}}], "chains": [], "distance": 365, "geocodes": {"main": {"latitude": 37.743109, "longitude": -122.478231}, "roof": {"latitude": 37.743109, "longitude": -122.478231}}, "link": "/v3/places/4a770f7cf964a52076e31fe3", "location": {"address": "1128 Taraval St", "census_block": "060750328012002", "country": "US", "dma": "San Francisco-Oakland-San Jose", "formatted_address": "1128 Taraval St, San Francisco, CA 94116", "locality": "San Francisco", "neighborhood": ["Inner Parkside"], "postcode": "94116", "region": "CA"}, "name": "Tennessee Grill", "related_places": {}, "timezone": "America/Los_Angeles"}, {"fsq_id": "4ad57a2ff964a5200c0321e3", "categories": [{"id": 13064, "name": "Pizzeria", "icon": {"prefix": "https://ss3.4sqi.net/img/categories_v2/food/pizza_", "suffix": ".png"}}, {"id": 13236, "name": "Italian Restaurant", "icon": {"prefix": "https://ss3.4sqi.net/img/categories_v2/food/italian_", "suffix": ".png"}}], "chains": [], "distance": 356, "geocodes": {"main": {"latitude": 37.742848, "longitude": -122.478156}}, "link": "/v3/places/4ad57a2ff964a5200c0321e3", "location": {"address": "1115 Taraval St", "country": "US", "cross_street": "", "dma": "San Francisco-Oakland-San Jose", "formatted_address": "1115 Taraval St, San Francisco, CA 94116", "locality": "San Francisco", "neighborhood": ["Inner Parkside"], "postcode": "94116", "region": "CA"}, "name": "Taraval Pizza", "related_places": {}, "timezone": "America/Los_Angeles"}, {"fsq_id": "4e696b5ba80929026792cdb5", "categories": [{"id": 13039, "name": "Deli", "icon": {"prefix": "https://ss3.4sqi.net/img/categories_v2/food/deli_", "suffix": ".png"}}, {"id": 13334, "name": "Sandwich Restaurant", "icon": {"prefix": "https://ss3.4sqi.net/img/categories_v2/food/deli_", "suffix": ".png"}}], "chains": [], "distance": 330, "geocodes": {"main": {"latitude": 37.742773, "longitude": -122.478354}, "roof": {"latitude": 37.742773, "longitude": -122.478354}}, "link": "/v3/places/4e696b5ba80929026792cdb5", "location": {"address": "1143 Taraval St", "census_block": "060750330021002", "country": "US", "cross_street": "at 22nd Ave", "dma": "San Francisco-Oakland-San Jose", "formatted_address": "1143 Taraval St (at 22nd Ave), San Francisco, CA 94116", "locality": "San Francisco", "neighborhood": ["Inner Parkside"], "postcode": "94116", "region": "CA"}, "name": "Deli King", "related_places": {}, "timezone": "America/Los_Angeles"}, {"fsq_id": "4c709e86d274b60c9075da0d", "categories": [{"id": 13099, "name": "Chinese Restaurant", "icon": {"prefix": "https://ss3.4sqi.net/img/categories_v2/food/asian_", "suffix": ".png"}}], "chains": [], "distance": 323, "geocodes": {"main": {"latitude": 37.742651, "longitude": -122.481641}, "roof": {"latitude": 37.742651, "longitude": -122.481641}}, "link": "/v3/places/4c709e86d274b60c9075da0d", "location": {"address": "1433 Taraval St", "census_block": "060750330021005", "country": "US", "cross_street": "btwn 24th & 25th Ave", "dma": "San Francisco-Oakland-San Jose", "formatted_address": "1433 Taraval St (btwn 24th & 25th Ave), San Francisco, CA 94116", "locality": "San Francisco", "neighborhood": ["Parkside"], "postcode": "94116", "region": "CA"}, "name": "Eight Immortals Restaurant", "related_places": {}, "timezone": "America/Los_Angeles"}, {"fsq_id": "5e2a3d076c9e1c0008968189", "categories": [{"id": 13022, "name": "Sports Bar", "icon": {"prefix": "https://ss3.4sqi.net/img/categories_v2/nightlife/sportsbar_", "suffix": ".png"}}], "chains": [], "distance": 295, "geocodes": {"main": {"latitude": 37.742679, "longitude": -122.480855}, "roof": {"latitude": 37.742679, "longitude": -122.480855}}, "link": "/v3/places/5e2a3d076c9e1c0008968189", "location": {"address": "1355 Taraval St", "census_block": "060750330021004", "country": "US", "cross_street": "", "dma": "San Francisco-Oakland-San Jose", "formatted_address": "1355 Taraval St, San Francisco, CA 94116", "locality": "San Francisco", "neighborhood": ["Parkside"], "postcode": "94116", "region": "CA"}, "name": "Karl\u2019s Beacon", "related_places": {}, "timezone": "America/Los_Angeles"}, {"fsq_id": "5de2c278db954c00081c5b34", "categories": [{"id": 13033, "name": "Bubble Tea Shop", "icon": {"prefix": "https://ss3.4sqi.net/img/categories_v2/food/bubble_", "suffix": ".png"}}, {"id": 13058, "name": "Hot Dog Joint", "icon": {"prefix": "https://ss3.4sqi.net/img/categories_v2/food/hotdog_", "suffix": ".png"}}, {"id": 13289, "name": "Korean Restaurant", "icon": {"prefix": "https://ss3.4sqi.net/img/categories_v2/food/korean_", "suffix": ".png"}}], "chains": [], "distance": 300, "geocodes": {"main": {"latitude": 37.742652, "longitude": -122.480782}, "roof": {"latitude": 37.742652, "longitude": -122.480782}}, "link": "/v3/places/5de2c278db954c00081c5b34", "location": {"address": "1353 Taraval St", "census_block": "060750330021004", "country": "US", "cross_street": "24th", "dma": "San Francisco-Oakland-San Jose", "formatted_address": "1353 Taraval St (24th), San Francisco, CA 94116", "locality": "San Francisco", "neighborhood": ["Parkside"], "postcode": "94116", "region": "CA"}, "name": "Stix", "related_places": {}, "timezone": "America/Los_Angeles"}, {"fsq_id": "4dbf49f10cb6f21c127021f4", "categories": [{"id": 13065, "name": "Restaurant", "icon": {"prefix": "https://ss3.4sqi.net/img/categories_v2/food/default_", "suffix": ".png"}}], "chains": [], "distance": 301, "geocodes": {"main": {"latitude": 37.742745, "longitude": -122.47914}, "roof": {"latitude": 37.742745, "longitude": -122.47914}}, "link": "/v3/places/4dbf49f10cb6f21c127021f4", "location": {"address": "1215 Taraval St", "census_block": "060750330021003", "country": "US", "cross_street": "22nd", "dma": "San Francisco-Oakland-San Jose", "formatted_address": "1215 Taraval St (22nd), San Francisco, CA 94116", "locality": "San Francisco", "neighborhood": ["Inner Parkside"], "postcode": "94116", "region": "CA"}, "name": "Good Luck Market", "related_places": {}, "timezone": "America/Los_Angeles"}, {"fsq_id": "4b5fca25f964a520cecc29e3", "categories": [{"id": 13145, "name": "Fast Food Restaurant", "icon": {"prefix": "https://ss3.4sqi.net/img/categories_v2/food/fastfood_", "suffix": ".png"}}], "chains": [{"id": "ab4beec0-d68a-012e-5619-003048cad9da", "name": "KFC"}], "distance": 349, "geocodes": {"main": {"latitude": 37.743029, "longitude": -122.478817}, "roof": {"latitude": 37.743065, "longitude": -122.478801}}, "link": "/v3/places/4b5fca25f964a520cecc29e3", "location": {"address": "1150 Taraval St", "address_extended": "# 236", "census_block": "060750328012002", "country": "US", "cross_street": "at 22nd Ave", "dma": "San Francisco-Oakland-San Jose", "formatted_address": "1150 Taraval St (at 22nd Ave), San Francisco, CA 94116", "locality": "San Francisco", "neighborhood": ["Inner Parkside"], "postcode": "94116", "region": "CA"}, "name": "KFC", "related_places": {}, "timezone": "America/Los_Angeles"}, {"fsq_id": "5f2cbf6be71d621e031d2791", "categories": [{"id": 13040, "name": "Dessert Shop", "icon": {"prefix": "https://ss3.4sqi.net/img/categories_v2/food/dessert_", "suffix": ".png"}}], "chains": [], "distance": 330, "geocodes": {"main": {"latitude": 37.742724, "longitude": -122.478566}, "roof": {"latitude": 37.742724, "longitude": -122.478566}}, "link": "/v3/places/5f2cbf6be71d621e031d2791", "location": {"address": "1155 Taraval St", "census_block": "060750330021002", "country": "US", "cross_street": "", "dma": "San Francisco-Oakland-San Jose", "formatted_address": "1155 Taraval St, San Francisco, CA 94116", "locality": "San Francisco", "neighborhood": ["Inner Parkside"], "postcode": "94116", "region": "CA"}, "name": "Sugar & Water Cafe", "related_places": {}, "timezone": "America/Los_Angeles"}, {"fsq_id": "4e4cc833bd413c4cc66c1f94", "categories": [{"id": 13072, "name": "Asian Restaurant", "icon": {"prefix": "https://ss3.4sqi.net/img/categories_v2/food/asian_", "suffix": ".png"}}, {"id": 13099, "name": "Chinese Restaurant", "icon": {"prefix": "https://ss3.4sqi.net/img/categories_v2/food/asian_", "suffix": ".png"}}, {"id": 13145, "name": "Fast Food Restaurant", "icon": {"prefix": "https://ss3.4sqi.net/img/categories_v2/food/fastfood_", "suffix": ".png"}}], "chains": [], "distance": 330, "geocodes": {"main": {"latitude": 37.742773, "longitude": -122.478354}, "roof": {"latitude": 37.742773, "longitude": -122.478354}}, "link": "/v3/places/4e4cc833bd413c4cc66c1f94", "location": {"address": "1155 Taraval St", "census_block": "060750330021002", "country": "US", "dma": "San Francisco-Oakland-San Jose", "formatted_address": "1155 Taraval St, San Francisco, CA 94116", "locality": "San Francisco", "neighborhood": ["Inner Parkside"], "postcode": "94116", "region": "CA"}, "name": "One Hundred Percent Healthy Desert", "related_places": {}, "timezone": "America/Los_Angeles"}, {"fsq_id": "4dd43a6a45ddd7035511de4c", "categories": [{"id": 13039, "name": "Deli", "icon": {"prefix": "https://ss3.4sqi.net/img/categories_v2/food/deli_", "suffix": ".png"}}, {"id": 13058, "name": "Hot Dog Joint", "icon": {"prefix": "https://ss3.4sqi.net/img/categories_v2/food/hotdog_", "suffix": ".png"}}, {"id": 13145, "name": "Fast Food Restaurant", "icon": {"prefix": "https://ss3.4sqi.net/img/categories_v2/food/fastfood_", "suffix": ".png"}}], "chains": [], "distance": 335, "geocodes": {"main": {"latitude": 37.742933, "longitude": -122.481372}, "roof": {"latitude": 37.742933, "longitude": -122.481372}}, "link": "/v3/places/4dd43a6a45ddd7035511de4c", "location": {"address": "1404 Taraval St", "census_block": "060750328012004", "country": "US", "cross_street": "at 24th Ave.", "dma": "San Francisco-Oakland-San Jose", "formatted_address": "1404 Taraval St (at 24th Ave.), San Francisco, CA 94116", "locality": "San Francisco", "neighborhood": ["Parkside"], "postcode": "94116", "region": "CA"}, "name": "The Dog Pit", "related_places": {}, "timezone": "America/Los_Angeles"}, {"fsq_id": "4a663632f964a52037c81fe3", "categories": [{"id": 13034, "name": "Caf\u00e9", "icon": {"prefix": "https://ss3.4sqi.net/img/categories_v2/food/cafe_", "suffix": ".png"}}, {"id": 13035, "name": "Coffee Shop", "icon": {"prefix": "https://ss3.4sqi.net/img/categories_v2/food/coffeeshop_", "suffix": ".png"}}, {"id": 13334, "name": "Sandwich Restaurant", "icon": {"prefix": "https://ss3.4sqi.net/img/categories_v2/food/deli_", "suffix": ".png"}}], "chains": [], "distance": 339, "geocodes": {"main": {"latitude": 37.742933, "longitude": -122.481372}, "roof": {"latitude": 37.742933, "longitude": -122.481372}}, "link": "/v3/places/4a663632f964a52037c81fe3", "location": {"address": "1400 Taraval St", "census_block": "060750328012004", "country": "US", "cross_street": "at 24th Ave.", "dma": "San Francisco-Oakland-San Jose", "formatted_address": "1400 Taraval St (at 24th Ave.), San Francisco, CA 94116", "locality": "San Francisco", "neighborhood": ["Parkside"], "postcode": "94116", "region": "CA"}, "name": "Trolley Caffe", "related_places": {}, "timezone": "America/Los_Angeles"}, {"fsq_id": "525229ce11d22c571735bc85", "categories": [{"id": 13072, "name": "Asian Restaurant", "icon": {"prefix": "https://ss3.4sqi.net/img/categories_v2/food/asian_", "suffix": ".png"}}], "chains": [], "distance": 421, "geocodes": {"main": {"latitude": 37.743121, "longitude": -122.477229}, "roof": {"latitude": 37.743121, "longitude": -122.477229}}, "link": "/v3/places/525229ce11d22c571735bc85", "location": {"address": "1030 Taraval St", "census_block": "060750328012001", "country": "US", "cross_street": "btwn 20th & 21st Ave", "dma": "San Francisco-Oakland-San Jose", "formatted_address": "1030 Taraval St (btwn 20th & 21st Ave), San Francisco, CA 94116", "locality": "San Francisco", "neighborhood": ["Inner Parkside"], "postcode": "94116", "region": "CA"}, "name": "Smile House Cafe \u7b11\u81c9\u5e9c", "related_places": {}, "timezone": "America/Los_Angeles"}, {"fsq_id": "4bb12578f964a520537e3ce3", "categories": [{"id": 13044, "name": "Frozen Yogurt Shop", "icon": {"prefix": "https://ss3.4sqi.net/img/categories_v2/food/frozenyogurt_", "suffix": ".png"}}, {"id": 13046, "name": "Ice Cream Parlor", "icon": {"prefix": "https://ss3.4sqi.net/img/categories_v2/food/icecream_", "suffix": ".png"}}, {"id": 13145, "name": "Fast Food Restaurant", "icon": {"prefix": "https://ss3.4sqi.net/img/categories_v2/food/fastfood_", "suffix": ".png"}}], "chains": [], "distance": 349, "geocodes": {"main": {"latitude": 37.742773, "longitude": -122.478354}, "roof": {"latitude": 37.742773, "longitude": -122.478354}}, "link": "/v3/places/4bb12578f964a520537e3ce3", "location": {"address": "1119 Taraval St", "census_block": "060750330021002", "country": "US", "cross_street": "btw 21st and 22nd", "dma": "San Francisco-Oakland-San Jose", "formatted_address": "1119 Taraval St (btw 21st and 22nd), San Francisco, CA 94116", "locality": "San Francisco", "neighborhood": ["Inner Parkside"], "postcode": "94116", "region": "CA"}, "name": "Yogurt GoGo", "related_places": {}, "timezone": "America/Los_Angeles"}, {"fsq_id": "617c26b06aa49453aa2c145d", "categories": [{"id": 13383, "name": "Steakhouse", "icon": {"prefix": "https://ss3.4sqi.net/img/categories_v2/food/steakhouse_", "suffix": ".png"}}], "chains": [], "distance": 375, "geocodes": {"main": {"latitude": 37.742801, "longitude": -122.477647}}, "link": "/v3/places/617c26b06aa49453aa2c145d", "location": {"address": "1055 Taraval St", "country": "US", "cross_street": "21st Ave", "dma": "San Francisco-Oakland-San Jose", "formatted_address": "1055 Taraval St (21st Ave), San Francisco, CA 94116", "locality": "San Francisco", "neighborhood": ["Inner Parkside"], "postcode": "94116", "region": "CA"}, "name": "Prime Steakhouse", "related_places": {}, "timezone": "America/Los_Angeles"}, {"fsq_id": "61253fec9f34cd09bf9d45c1", "categories": [{"id": 13099, "name": "Chinese Restaurant", "icon": {"prefix": "https://ss3.4sqi.net/img/categories_v2/food/asian_", "suffix": ".png"}}], "chains": [], "distance": 383, "geocodes": {"main": {"latitude": 37.74279, "longitude": -122.477359}}, "link": "/v3/places/61253fec9f34cd09bf9d45c1", "location": {"address": "1033 Taraval St", "country": "US", "cross_street": "", "dma": "San Francisco-Oakland-San Jose", "formatted_address": "1033 Taraval St, San Francisco, CA 94116", "locality": "San Francisco", "neighborhood": ["Inner Parkside"], "postcode": "94116", "region": "CA"}, "name": "Old Pier Hong Kong BBQ & Hot Pot", "related_places": {}, "timezone": "America/Los_Angeles"}, {"fsq_id": "58423840876ade32f7faa72a", "categories": [{"id": 13072, "name": "Asian Restaurant", "icon": {"prefix": "https://ss3.4sqi.net/img/categories_v2/food/asian_", "suffix": ".png"}}, {"id": 13127, "name": "Szechuan Restaurant", "icon": {"prefix": "https://ss3.4sqi.net/img/categories_v2/food/asian_", "suffix": ".png"}}], "chains": [], "distance": 388, "geocodes": {"main": {"latitude": 37.742823, "longitude": -122.477282}, "roof": {"latitude": 37.742823, "longitude": -122.477282}}, "link": "/v3/places/58423840876ade32f7faa72a", "location": {"address": "1033 Taraval St", "census_block": "060750330021001", "country": "US", "cross_street": "21st Ave", "dma": "San Francisco-Oakland-San Jose", "formatted_address": "1033 Taraval St (21st Ave), San Francisco, CA 94116", "locality": "San Francisco", "neighborhood": ["Inner Parkside"], "postcode": "94116", "region": "CA"}, "name": "Tang Collection", "related_places": {}, "timezone": "America/Los_Angeles"}, {"fsq_id": "4b6798dcf964a520e9562be3", "categories": [{"id": 13039, "name": "Deli", "icon": {"prefix": "https://ss3.4sqi.net/img/categories_v2/food/deli_", "suffix": ".png"}}], "chains": [], "distance": 395, "geocodes": {"main": {"latitude": 37.742923, "longitude": -122.482346}}, "link": "/v3/places/4b6798dcf964a520e9562be3", "location": {"address": "1508 Taraval St", "country": "US", "cross_street": "at 25th Ave", "dma": "San Francisco-Oakland-San Jose", "formatted_address": "1508 Taraval St (at 25th Ave), San Francisco, CA 94116", "locality": "San Francisco", "neighborhood": ["Parkside"], "postcode": "94116", "region": "CA"}, "name": "Sevan Liquor & Deli", "related_places": {}, "timezone": "America/Los_Angeles"}, {"fsq_id": "5e0f9e84f5b2e900094848a5", "categories": [{"id": 13033, "name": "Bubble Tea Shop", "icon": {"prefix": "https://ss3.4sqi.net/img/categories_v2/food/bubble_", "suffix": ".png"}}, {"id": 13034, "name": "Caf\u00e9", "icon": {"prefix": "https://ss3.4sqi.net/img/categories_v2/food/cafe_", "suffix": ".png"}}, {"id": 13145, "name": "Fast Food Restaurant", "icon": {"prefix": "https://ss3.4sqi.net/img/categories_v2/food/fastfood_", "suffix": ".png"}}], "chains": [], "distance": 403, "geocodes": {"main": {"latitude": 37.743164, "longitude": -122.477518}, "roof": {"latitude": 37.743164, "longitude": -122.477518}}, "link": "/v3/places/5e0f9e84f5b2e900094848a5", "location": {"address": "1050 Taraval St", "census_block": "060750328012001", "country": "US", "cross_street": "", "dma": "San Francisco-Oakland-San Jose", "formatted_address": "1050 Taraval St, San Francisco, CA 94116", "locality": "San Francisco", "neighborhood": ["Inner Parkside"], "postcode": "94116", "region": "CA"}, "name": "Teazo", "related_places": {}, "timezone": "America/Los_Angeles"}, {"fsq_id": "5b6351e5c824ae002c0e0986", "categories": [{"id": 13099, "name": "Chinese Restaurant", "icon": {"prefix": "https://ss3.4sqi.net/img/categories_v2/food/asian_", "suffix": ".png"}}], "chains": [], "distance": 417, "geocodes": {"main": {"latitude": 37.743126, "longitude": -122.477587}, "roof": {"latitude": 37.743126, "longitude": -122.477587}}, "link": "/v3/places/5b6351e5c824ae002c0e0986", "location": {"address": "1042 Taraval St", "census_block": "060750328012001", "country": "US", "cross_street": "", "dma": "San Francisco-Oakland-San Jose", "formatted_address": "1042 Taraval St, San Francisco, CA 94116", "locality": "San Francisco", "neighborhood": ["Inner Parkside"], "postcode": "94116", "region": "CA"}, "name": "Bao Cheng Delicious Food", "related_places": {}, "timezone": "America/Los_Angeles"}, {"fsq_id": "5e098801b052a20008090eac", "categories": [{"id": 13099, "name": "Chinese Restaurant", "icon": {"prefix": "https://ss3.4sqi.net/img/categories_v2/food/asian_", "suffix": ".png"}}], "chains": [], "distance": 424, "geocodes": {"main": {"latitude": 37.74311, "longitude": -122.477371}, "roof": {"latitude": 37.74311, "longitude": -122.477371}}, "link": "/v3/places/5e098801b052a20008090eac", "location": {"address": "1042 Taraval St", "census_block": "060750328012001", "country": "US", "cross_street": "", "dma": "San Francisco-Oakland-San Jose", "formatted_address": "1042 Taraval St, San Francisco, CA 94116", "locality": "San Francisco", "neighborhood": ["Inner Parkside"], "postcode": "94116", "region": "CA"}, "name": "Happy Family Gourmet", "related_places": {}, "timezone": "America/Los_Angeles"}, {"fsq_id": "4cb8ad3ba33bb1f7e01083fd", "categories": [{"id": 13002, "name": "Bakery", "icon": {"prefix": "https://ss3.4sqi.net/img/categories_v2/food/bakery_", "suffix": ".png"}}, {"id": 13072, "name": "Asian Restaurant", "icon": {"prefix": "https://ss3.4sqi.net/img/categories_v2/food/asian_", "suffix": ".png"}}, {"id": 13106, "name": "Dim Sum Restaurant", "icon": {"prefix": "https://ss3.4sqi.net/img/categories_v2/food/dimsum_", "suffix": ".png"}}], "chains": [], "distance": 429, "geocodes": {"main": {"latitude": 37.743121, "longitude": -122.477229}, "roof": {"latitude": 37.743121, "longitude": -122.477229}}, "link": "/v3/places/4cb8ad3ba33bb1f7e01083fd", "location": {"address": "1018 Taraval St", "census_block": "060750328012001", "country": "US", "cross_street": "", "dma": "San Francisco-Oakland-San Jose", "formatted_address": "1018 Taraval St, San Francisco, CA 94116", "locality": "San Francisco", "neighborhood": ["Inner Parkside"], "postcode": "94116", "region": "CA"}, "name": "Bay Pastries", "related_places": {}, "timezone": "America/Los_Angeles"}], "context": {"geo_bounds": {"circle": {"center": {"latitude": 37.74, "longitude": -122.48}, "radius": 500}}}}