{"results": [{"fsq_id": "56fef705498ed9078efe13ac", "categories": [{"id": 13199, "name": "Indian Restaurant", "icon": {"prefix": "https://ss3.4sqi.net/img/categories_v2/food/indian_", "suffix": ".png"}}, {"id": 13316, "name": "Pakistani Restaurant", "icon": {"prefix": "https://ss3.4sqi.net/img/categories_v2/food/default_", "suffix": ".png"}}], "chains": [], "distance": 141, "geocodes": {"main": {"latitude": 37.779822, "longitude": -122.432205}}, "link": "/v3/places/56fef705498ed9078efe13ac", "location": {"address": "1109 Fillmore St", "country": "US", "cross_street": "", "dma": "San Francisco-Oakland-San Jose", "formatted_address": "1109 Fillmore St, San Francisco, CA 94115", "locality": "San Francisco", "neighborhood": ["Martin Luther King Square"], "postcode": "94115", "region": "CA"}, "name": "Kebab King", "related_places": {}, "timezone": "America/Los_Angeles"}, {"fsq_id": "5f81021fe6cb390c32c52b98", "categories": [{"id": 13003, "name": "Bar", "icon": {"prefix": "https://ss3.4sqi.net/img/categories_v2/nightlife/pub_", "suffix": ".png"}}, {"id": 13338, "name": "Seafood Restaurant", "icon": {"prefix": "https://ss3.4sqi.net/img/categories_v2/food/seafood_", "suffix": ".png"}}], "chains": [], "distance": 460, "geocodes": {"main": {"latitude": 37.78334, "longitude": -122.433331}, "roof": {"latitude": 37.78334, "longitude": -122.433331}}, "link": "/v3/places/5f81021fe6cb390c32c52b98", "location": {"address": "1740 Ofarrell St", "census_block": "060750159004002", "country": "US", "cross_street": "Fillmore St", "dma": "San Francisco-Oakland-San Jose", "formatted_address": "1740 Ofarrell St (Fillmore St), San Francisco, CA 94115", "locality": "San Francisco", "neighborhood": ["Japantown"], "postcode": "94115", "region": "CA"}, "name": "The Anchovy Bar", "related_places": {}, "timezone": "America/Los_Angeles"}, {"fsq_id": "4ef52a378231b0d6238dd471", "categories": [{"id": 13068, "name": "American Restaurant", "icon": {"prefix": "https://ss3.4sqi.net/img/categories_v2/food/default_", "suffix": ".png"}}, {"id": 13314, "name": "New American Restaurant", "icon": {"prefix": "https://ss3.4sqi.net/img/categories_v2/food/newamerican_", "suffix": ".png"}}], "chains": [], "distance": 486, "geocodes": {"main": {"latitude": 37.783633, "longitude": -122.432918}, "roof": {"latitude": 37.783633, "longitude": -122.432918}}, "link": "/v3/places/4ef52a378231b0d6238dd471", "location": {"address": "1529 Fillmore St", "census_block": "060750159004002", "country": "US", "cross_street": "btwn Geary & O'Farrell St", "dma": "San Francisco-Oakland-San Jose", "formatted_address": "1529 Fillmore St (btwn Geary & O'Farrell St), San Francisco, CA 94115", "locality": "San Francisco", "neighborhood": ["Japantown"], "postcode": "94115", "region": "CA"}, "name": "State Bird Provisions", "related_places": {}, "timezone": "America/Los_Angeles"}, {"fsq_id": "5877d2fb8cb34e044d035deb", "categories": [{"id": 13033, "name": "Bubble Tea Shop", "icon": {"prefix": "https://ss3.4sqi.net/img/categories_v2/food/bubble_", "suffix": ".png"}}, {"id": 13034, "name": "Caf\u00e9", "icon": {"prefix": "https://ss3.4sqi.net/img/categories_v2/food/cafe_", "suffix": ".png"}}, {"id": 13036, "name": "Tea Room", "icon": {"prefix": "https://ss3.4sqi.net/img/categories_v2/food/tearoom_", "suffix": ".png"}}], "chains": [], "distance": 468, "geocodes": {"main": {"latitude": 37.783758, "longitude": -122.432567}, "roof": {"latitude": 37.783758, "longitude": -122.432567}}, "link": "/v3/places/5877d2fb8cb34e044d035deb", "location": {"address": "1522 Fillmore St", "census_block": "060750159004001", "country": "US", "cross_street": "btwn O'Farrell St & Geary Blvd", "dma": "San Francisco-Oakland-San Jose", "formatted_address": "1522 Fillmore St (btwn O'Farrell St & Geary Blvd), San Francisco, CA 94115", "locality": "San Francisco", "neighborhood": ["Japantown"], "postcode": "94115", "region": "CA"}, "name": "Boba Guys", "related_places": {"children": [{"fsq_id": "58964bfe0b56565043551fdb", "name": "Sunday Bird"}]}, "timezone": "America/Los_Angeles"}, {"fsq_id": "548b976b498e8beca9ac6641", "categories": [{"id": 13068, "name": "American Restaurant", "icon": {"prefix": "https://ss3.4sqi.net/img/categories_v2/food/default_", "suffix": ".png"}}, {"id": 13314, "name": "New American Restaurant", "icon": {"prefix": "https://ss3.4sqi.net/img/categories_v2/food/newamerican_", "suffix": ".png"}}], "chains": [], "distance": 491, "geocodes": {"main": {"latitude": 37.783714, "longitude": -122.433138}, "roof": {"latitude": 37.783714, "longitude": -122.433138}}, "link": "/v3/places/548b976b498e8beca9ac6641", "location": {"address": "1525 Fillmore St", "census_block": "060750159004002", "country": "US", "cross_street": "btwn O'Farrell St & Geary Blvd", "dma": "San Francisco-Oakland-San Jose", "formatted_address": "1525 Fillmore St (btwn O'Farrell St & Geary Blvd), San Francisco, CA 94115", "locality": "San Francisco", "neighborhood": ["Japantown"], "postcode": "94115", "region": "CA"}, "name": "The Progress", "related_places": {}, "timezone": "America/Los_Angeles"}, {"fsq_id": "4ff74efee8895184a82bb234", "categories": [{"id": 13382, "name": "Snack Place", "icon": {"prefix": "https://ss3.4sqi.net/img/categories_v2/food/snacks_", "suffix": ".png"}}], "chains": [], "distance": 445, "geocodes": {"main": {"latitude": 37.776584, "longitude": -122.427268}, "roof": {"latitude": 37.776584, "longitude": -122.427268}}, "link": "/v3/places/4ff74efee8895184a82bb234", "location": {"address": "IVY St", "census_block": "060750163001004", "country": "US", "cross_street": "btwn Laguna and Buchanan", "dma": "San Francisco-Oakland-San Jose", "formatted_address": "IVY St (btwn Laguna and Buchanan), San Francisco, CA 94117", "locality": "San Francisco", "neighborhood": ["Alamo Square"], "postcode": "94117", "region": "CA"}, "name": "Queso Castle", "related_places": {}, "timezone": "America/Los_Angeles"}, {"fsq_id": "5acd6b6f829b0c0d5b523ece", "categories": [{"id": 13068, "name": "American Restaurant", "icon": {"prefix": "https://ss3.4sqi.net/img/categories_v2/food/default_", "suffix": ".png"}}, {"id": 13072, "name": "Asian Restaurant", "icon": {"prefix": "https://ss3.4sqi.net/img/categories_v2/food/asian_", "suffix": ".png"}}, {"id": 13314, "name": "New American Restaurant", "icon": {"prefix": "https://ss3.4sqi.net/img/categories_v2/food/newamerican_", "suffix": ".png"}}], "chains": [], "distance": 515, "geocodes": {"main": {"latitude": 37.78398, "longitude": -122.432652}, "roof": {"latitude": 37.78398, "longitude": -122.432652}}, "link": "/v3/places/5acd6b6f829b0c0d5b523ece", "location": {"address": "1552 Fillmore St", "census_block": "060750159004001", "country": "US", "cross_street": "Geary St", "dma": "San Francisco-Oakland-San Jose", "formatted_address": "1552 Fillmore St (Geary St), San Francisco, CA 94115", "locality": "San Francisco", "neighborhood": ["Japantown"], "postcode": "94115", "region": "CA"}, "name": "Avery", "related_places": {}, "timezone": "America/Los_Angeles"}, {"fsq_id": "4a6bda5df964a5201ad01fe3", "categories": [{"id": 10032, "name": "Night Club", "icon": {"prefix": "https://ss3.4sqi.net/img/categories_v2/nightlife/nightclub_", "suffix": ".png"}}, {"id": 13015, "name": "Karaoke Bar", "icon": {"prefix": "https://ss3.4sqi.net/img/categories_v2/nightlife/karaoke_", "suffix": ".png"}}], "chains": [], "distance": 363, "geocodes": {"main": {"latitude": 37.782538, "longitude": -122.43271}, "roof": {"latitude": 37.782538, "longitude": -122.43271}}, "link": "/v3/places/4a6bda5df964a5201ad01fe3", "location": {"address": "1410 Fillmore St", "census_block": "060750159003000", "country": "US", "dma": "San Francisco-Oakland-San Jose", "formatted_address": "1410 Fillmore St, San Francisco, CA 94115", "locality": "San Francisco", "neighborhood": ["Japantown"], "postcode": "94115", "region": "CA"}, "name": "Fillmore Karaoke Corporation", "related_places": {}, "timezone": "America/Los_Angeles"}, {"fsq_id": "55e92469498e3ae48508731c", "categories": [{"id": 13001, "name": "Bagel Shop", "icon": {"prefix": "https://ss3.4sqi.net/img/categories_v2/food/bagels_", "suffix": ".png"}}, {"id": 13068, "name": "American Restaurant", "icon": {"prefix": "https://ss3.4sqi.net/img/categories_v2/food/default_", "suffix": ".png"}}, {"id": 13334, "name": "Sandwich Restaurant", "icon": {"prefix": "https://ss3.4sqi.net/img/categories_v2/food/deli_", "suffix": ".png"}}], "chains": [], "distance": 462, "geocodes": {"main": {"latitude": 37.78359, "longitude": -122.432629}, "roof": {"latitude": 37.78359, "longitude": -122.432629}}, "link": "/v3/places/55e92469498e3ae48508731c", "location": {"address": "1520 Fillmore St", "census_block": "060750159004001", "country": "US", "cross_street": "at O'Farrell St", "dma": "San Francisco-Oakland-San Jose", "formatted_address": "1520 Fillmore St (at O'Farrell St), San Francisco, CA 94115", "locality": "San Francisco", "neighborhood": ["Japantown"], "postcode": "94115", "region": "CA"}, "name": "Wise Sons Bagel & Bakery", "related_places": {}, "timezone": "America/Los_Angeles"}, {"fsq_id": "4ae35463f964a520849321e3", "categories": [{"id": 13046, "name": "Ice Cream Parlor", "icon": {"prefix": "https://ss3.4sqi.net/img/categories_v2/food/icecream_", "suffix": ".png"}}, {"id": 13145, "name": "Fast Food Restaurant", "icon": {"prefix": "https://ss3.4sqi.net/img/categories_v2/food/fastfood_", "suffix": ".png"}}, {"id": 13334, "name": "Sandwich Restaurant", "icon": {"prefix": "https://ss3.4sqi.net/img/categories_v2/food/deli_", "suffix": ".png"}}], "chains": [], "distance": 425, "geocodes": {"main": {"latitude": 37.783107, "longitude": -122.432528}, "roof": {"latitude": 37.783107, "longitude": -122.432528}}, "link": "/v3/places/4ae35463f964a520849321e3", "location": {"address": "1460 Fillmore St", "census_block": "060750159004003", "country": "US", "cross_street": "O'Farrell", "dma": "San Francisco-Oakland-San Jose", "formatted_address": "1460 Fillmore St (O'Farrell), San Francisco, CA 94115", "locality": "San Francisco", "neighborhood": ["Japantown"], "postcode": "94115", "region": "CA"}, "name": "Miyako Old Fashion Ice Cream Shop", "related_places": {}, "timezone": "America/Los_Angeles"}, {"fsq_id": "4a051992f964a52059721fe3", "categories": [{"id": 10040, "name": "Jazz and Blues Venue", "icon": {"prefix": "https://ss3.4sqi.net/img/categories_v2/arts_entertainment/musicvenue_jazzclub_", "suffix": ".png"}}, {"id": 13067, "name": "African Restaurant", "icon": {"prefix": "https://ss3.4sqi.net/img/categories_v2/food/african_", "suffix": ".png"}}, {"id": 13143, "name": "Ethiopian Restaurant", "icon": {"prefix": "https://ss3.4sqi.net/img/categories_v2/food/ethiopian_", "suffix": ".png"}}], "chains": [], "distance": 425, "geocodes": {"main": {"latitude": 37.782917, "longitude": -122.432876}, "roof": {"latitude": 37.782917, "longitude": -122.432876}}, "link": "/v3/places/4a051992f964a52059721fe3", "location": {"address": "1419 Fillmore St", "census_block": "060750159003000", "country": "US", "cross_street": "at O'Farrell", "dma": "San Francisco-Oakland-San Jose", "formatted_address": "1419 Fillmore St (at O'Farrell), San Francisco, CA 94115", "locality": "San Francisco", "neighborhood": ["Japantown"], "postcode": "94115", "region": "CA"}, "name": "Sheba Piano Lounge", "related_places": {}, "timezone": "America/Los_Angeles"}, {"fsq_id": "438f3f3bf964a5203e2b1fe3", "categories": [{"id": 13072, "name": "Asian Restaurant", "icon": {"prefix": "https://ss3.4sqi.net/img/categories_v2/food/asian_", "suffix": ".png"}}, {"id": 13273, "name": "Shabu-Shabu Restaurant", "icon": {"prefix": "https://ss3.4sqi.net/img/categories_v2/food/japanese_", "suffix": ".png"}}, {"id": 13289, "name": "Korean Restaurant", "icon": {"prefix": "https://ss3.4sqi.net/img/categories_v2/food/korean_", "suffix": ".png"}}], "chains": [], "distance": 349, "geocodes": {"main": {"latitude": 37.782538, "longitude": -122.43271}, "roof": {"latitude": 37.782538, "longitude": -122.43271}}, "link": "/v3/places/438f3f3bf964a5203e2b1fe3", "location": {"address": "1401 Fillmore St", "census_block": "060750159003000", "country": "US", "cross_street": "at Ellis", "dma": "San Francisco-Oakland-San Jose", "formatted_address": "1401 Fillmore St (at Ellis), San Francisco, CA 94115", "locality": "San Francisco", "neighborhood": ["Japantown"], "postcode": "94115", "region": "CA"}, "name": "Happy Shabu Shabu", "related_places": {}, "timezone": "America/Los_Angeles"}, {"fsq_id": "5ad8c686a0215b2e0c00df53", "categories": [{"id": 13035, "name": "Coffee Shop", "icon": {"prefix": "https://ss3.4sqi.net/img/categories_v2/food/coffeeshop_", "suffix": ".png"}}], "chains": [], "distance": 268, "geocodes": {"main": {"latitude": 37.77882, "longitude": -122.432633}, "roof": {"latitude": 37.77882, "longitude": -122.432633}}, "link": "/v3/places/5ad8c686a0215b2e0c00df53", "location": {"address": "1035 Fillmore St", "census_block": "060750161011001", "country": "US", "cross_street": "", "dma": "San Francisco-Oakland-San Jose", "formatted_address": "1035 Fillmore St, San Francisco, CA 94115", "locality": "San Francisco", "neighborhood": ["Alamo Square"], "postcode": "94115", "region": "CA"}, "name": "Folklores Coffee Roastery & Cafe", "related_places": {}, "timezone": "America/Los_Angeles"}, {"fsq_id": "454b5351f964a520b43c1fe3", "categories": [{"id": 13338, "name": "Seafood Restaurant", "icon": {"prefix": "https://ss3.4sqi.net/img/categories_v2/food/seafood_", "suffix": ".png"}}], "chains": [], "distance": 357, "geocodes": {"main": {"latitude": 37.776869, "longitude": -122.431657}, "roof": {"latitude": 37.776869, "longitude": -122.431657}}, "link": "/v3/places/454b5351f964a520b43c1fe3", "location": {"address": "803 Fillmore St", "census_block": "060750163003000", "country": "US", "cross_street": "Grove St", "dma": "San Francisco-Oakland-San Jose", "formatted_address": "803 Fillmore St (Grove St), San Francisco, CA 94117", "locality": "San Francisco", "neighborhood": ["Alamo Square"], "postcode": "94117", "region": "CA"}, "name": "Alamo Square Seafood Grill", "related_places": {}, "timezone": "America/Los_Angeles"}, {"fsq_id": "4c672955f7a80f471560a07a", "categories": [{"id": 13002, "name": "Bakery", "icon": {"prefix": "https://ss3.4sqi.net/img/categories_v2/food/bakery_", "suffix": ".png"}}, {"id": 13040, "name": "Dessert Shop", "icon": {"prefix": "https://ss3.4sqi.net/img/categories_v2/food/dessert_", "suffix": ".png"}}, {"id": 13065, "name": "Restaurant", "icon": {"prefix": "https://ss3.4sqi.net/img/categories_v2/food/default_", "suffix": ".png"}}], "chains": [], "distance": 418, "geocodes": {"main": {"latitude": 37.783118, "longitude": -122.432386}, "roof": {"latitude": 37.783118, "longitude": -122.432386}}, "link": "/v3/places/4c672955f7a80f471560a07a", "location": {"address": "1460 Fillmore St", "census_block": "060750159004003", "country": "US", "cross_street": "", "dma": "San Francisco-Oakland-San Jose", "formatted_address": "1460 Fillmore St, San Francisco, CA 94115", "locality": "San Francisco", "neighborhood": ["Japantown"], "postcode": "94115", "region": "CA"}, "name": "Bumzy's Chocolate Chip Cookies", "related_places": {}, "timezone": "America/Los_Angeles"}, {"fsq_id": "4ae7c8f2f964a520a5ad21e3", "categories": [{"id": 13289, "name": "Korean Restaurant", "icon": {"prefix": "https://ss3.4sqi.net/img/categories_v2/food/korean_", "suffix": ".png"}}], "chains": [], "distance": 429, "geocodes": {"main": {"latitude": 37.783525, "longitude": -122.432625}, "roof": {"latitude": 37.783525, "longitude": -122.432625}}, "link": "/v3/places/4ae7c8f2f964a520a5ad21e3", "location": {"address": "1506 Fillmore St", "census_block": "060750159004001", "country": "US", "cross_street": "", "dma": "San Francisco-Oakland-San Jose", "formatted_address": "1506 Fillmore St, San Francisco, CA 94115", "locality": "San Francisco", "neighborhood": ["Japantown"], "postcode": "94115", "region": "CA"}, "name": "Arang Restaurant", "related_places": {}, "timezone": "America/Los_Angeles"}, {"fsq_id": "49e4c955f964a52043631fe3", "categories": [{"id": 13034, "name": "Caf\u00e9", "icon": {"prefix": "https://ss3.4sqi.net/img/categories_v2/food/cafe_", "suffix": ".png"}}, {"id": 13039, "name": "Deli", "icon": {"prefix": "https://ss3.4sqi.net/img/categories_v2/food/deli_", "suffix": ".png"}}, {"id": 13334, "name": "Sandwich Restaurant", "icon": {"prefix": "https://ss3.4sqi.net/img/categories_v2/food/deli_", "suffix": ".png"}}], "chains": [], "distance": 270, "geocodes": {"main": {"latitude": 37.781562, "longitude": -122.432652}, "roof": {"latitude": 37.781562, "longitude": -122.432652}}, "link": "/v3/places/49e4c955f964a52043631fe3", "location": {"address": "1301 Fillmore St", "census_block": "060750159003000", "country": "US", "cross_street": "at Eddy St", "dma": "San Francisco-Oakland-San Jose", "formatted_address": "1301 Fillmore St (at Eddy St), San Francisco, CA 94115", "locality": "San Francisco", "neighborhood": ["Marcus Garvey Square"], "postcode": "94115", "region": "CA"}, "name": "Fillmore Street Cafe", "related_places": {}, "timezone": "America/Los_Angeles"}, {"fsq_id": "4bc8897915a7ef3bd83f7bda", "categories": [{"id": 13034, "name": "Caf\u00e9", "icon": {"prefix": "https://ss3.4sqi.net/img/categories_v2/food/cafe_", "suffix": ".png"}}, {"id": 13068, "name": "American Restaurant", "icon": {"prefix": "https://ss3.4sqi.net/img/categories_v2/food/default_", "suffix": ".png"}}, {"id": 13334, "name": "Sandwich Restaurant", "icon": {"prefix": "https://ss3.4sqi.net/img/categories_v2/food/deli_", "suffix": ".png"}}], "chains": [], "distance": 459, "geocodes": {"main": {"latitude": 37.775942, "longitude": -122.431387}, "roof": {"latitude": 37.775942, "longitude": -122.431387}}, "link": "/v3/places/4bc8897915a7ef3bd83f7bda", "location": {"address": "711 Fillmore St", "census_block": "060750163003001", "country": "US", "cross_street": "at Hayes St.", "dma": "San Francisco-Oakland-San Jose", "formatted_address": "711 Fillmore St (at Hayes St.), San Francisco, CA 94117", "locality": "San Francisco", "neighborhood": ["Alamo Square"], "postcode": "94117", "region": "CA"}, "name": "Alamo Square Cafe", "related_places": {}, "timezone": "America/Los_Angeles"}, {"fsq_id": "49e6c8d6f964a5206d641fe3", "categories": [{"id": 13145, "name": "Fast Food Restaurant", "icon": {"prefix": "https://ss3.4sqi.net/img/categories_v2/food/fastfood_", "suffix": ".png"}}, {"id": 13068, "name": "American Restaurant", "icon": {"prefix": "https://ss3.4sqi.net/img/categories_v2/food/default_", "suffix": ".png"}}], "chains": [{"id": "16e41ab0-992b-0132-fd75-7a163eb2a6fc", "name": "Popeyes Louisiana Kitchen"}], "distance": 405, "geocodes": {"main": {"latitude": 37.783118, "longitude": -122.432386}, "roof": {"latitude": 37.783118, "longitude": -122.432386}}, "link": "/v3/places/49e6c8d6f964a5206d641fe3", "location": {"address": "1426 Fillmore St", "census_block": "060750159004003", "country": "US", "cross_street": "at Ellis St.", "dma": "San Francisco-Oakland-San Jose", "formatted_address": "1426 Fillmore St (at Ellis St.), San Francisco, CA 94115", "locality": "San Francisco", "neighborhood": ["Japantown"], "postcode": "94115", "region": "CA"}, "name": "Popeyes Louisiana Kitchen", "related_places": {}, "timezone": "America/Los_Angeles"}, {"fsq_id": "4aa5d63bf964a520894920e3", "categories": [{"id": 13099, "name": "Chinese Restaurant", "icon": {"prefix": "https://ss3.4sqi.net/img/categories_v2/food/asian_", "suffix": ".png"}}], "chains": [], "distance": 173, "geocodes": {"main": {"latitude": 37.779866, "longitude": -122.432193}, "roof": {"latitude": 37.779866, "longitude": -122.432193}}, "link": "/v3/places/4aa5d63bf964a520894920e3", "location": {"address": "1117 Fillmore St", "census_block": "060750161012002", "country": "US", "cross_street": "btwn Turk St. & Golden Gate Ave.", "dma": "San Francisco-Oakland-San Jose", "formatted_address": "1117 Fillmore St (btwn Turk St. & Golden Gate Ave.), San Francisco, CA 94115", "locality": "San Francisco", "neighborhood": ["Martin Luther King Square"], "postcode": "94115", "region": "CA"}, "name": "Tsing Tao", "related_places": {}, "timezone": "America/Los_Angeles"}, {"fsq_id": "4f97007fe4b0dc878e04571e", "categories": [{"id": 13064, "name": "Pizzeria", "icon": {"prefix": "https://ss3.4sqi.net/img/categories_v2/food/pizza_", "suffix": ".png"}}, {"id": 13199, "name": "Indian Restaurant", "icon": {"prefix": "https://ss3.4sqi.net/img/categories_v2/food/indian_", "suffix": ".png"}}], "chains": [], "distance": 178, "geocodes": {"main": {"latitude": 37.779671, "longitude": -122.432182}, "roof": {"latitude": 37.779671, "longitude": -122.432182}}, "link": "/v3/places/4f97007fe4b0dc878e04571e", "location": {"address": "1109 Fillmore St", "census_block": "060750161012002", "country": "US", "cross_street": "at Golden Gate Ave", "dma": "San Francisco-Oakland-San Jose", "formatted_address": "1109 Fillmore St (at Golden Gate Ave), San Francisco, CA 94115", "locality": "San Francisco", "neighborhood": ["Martin Luther King Square"], "postcode": "94115", "region": "CA"}, "name": "Preet Palace", "related_places": {}, "timezone": "America/Los_Angeles"}, {"fsq_id": "4a97729ff964a520932920e3", "categories": [{"id": 13015, "name": "Karaoke Bar", "icon": {"prefix": "https://ss3.4sqi.net/img/categories_v2/nightlife/karaoke_", "suffix": ".png"}}], "chains": [], "distance": 181, "geocodes": {"main": {"latitude": 37.780061, "longitude": -122.432205}, "roof": {"latitude": 37.780061, "longitude": -122.432205}}, "link": "/v3/places/4a97729ff964a520932920e3", "location": {"address": "Fillmore street", "census_block": "060750161012002", "country": "US", "dma": "San Francisco-Oakland-San Jose", "formatted_address": "Fillmore street, San Francisco, CA 94115", "locality": "San Francisco", "neighborhood": ["Martin Luther King Square"], "postcode": "94115", "region": "CA"}, "name": "Fillmore Karoake", "related_places": {}, "timezone": "America/Los_Angeles"}, {"fsq_id": "4ac66e63f964a52052b420e3", "categories": [{"id": 13035, "name": "Coffee Shop", "icon": {"prefix": "https://ss3.4sqi.net/img/categories_v2/food/coffeeshop_", "suffix": ".png"}}], "chains": [{"id": "ab4c54c0-d68a-012e-5619-003048cad9da", "name": "Starbucks"}], "distance": 332, "geocodes": {"main": {"latitude": 37.782897, "longitude": -122.431441}, "roof": {"latitude": 37.782897, "longitude": -122.431441}}, "link": "/v3/places/4ac66e63f964a52052b420e3", "location": {"address": "1335 Webster St", "address_extended": "Ste 1", "census_block": "060750159004004", "country": "US", "cross_street": "at Safeway", "dma": "San Francisco-Oakland-San Jose", "formatted_address": "1335 Webster St (at Safeway), San Francisco, CA 94115", "locality": "San Francisco", "neighborhood": ["Thomas Paine Square"], "postcode": "94115", "region": "CA"}, "name": "Starbucks", "related_places": {"parent": {"fsq_id": "49e29460f964a5203d621fe3", "name": "Safeway"}}, "timezone": "America/Los_Angeles"}, {"fsq_id": "4a74a676f964a52006df1fe3", "categories": [{"id": 13026, "name": "BBQ Joint", "icon": {"prefix": "https://ss3.4sqi.net/img/categories_v2/food/bbqalt_", "suffix": ".png"}}], "chains": [], "distance": 199, "geocodes": {"main": {"latitude": 37.779801, "longitude": -122.432189}, "roof": {"latitude": 37.779801, "longitude": -122.432189}}, "link": "/v3/places/4a74a676f964a52006df1fe3", "location": {"address": "1109 Fillmore St", "census_block": "060750161012002", "country": "US", "cross_street": "Golden Gate", "dma": "San Francisco-Oakland-San Jose", "formatted_address": "1109 Fillmore St (Golden Gate), San Francisco, CA 94115", "locality": "San Francisco", "neighborhood": ["Martin Luther King Square"], "postcode": "94115", "region": "CA"}, "name": "Dibbs BBQ & Grill", "related_places": {}, "timezone": "America/Los_Angeles"}, {"fsq_id": "5bfeb21154b7a90025b6467a", "categories": [{"id": 13031, "name": "Burger Joint", "icon": {"prefix": "https://ss3.4sqi.net/img/categories_v2/food/burger_", "suffix": ".png"}}, {"id": 13068, "name": "American Restaurant", "icon": {"prefix": "https://ss3.4sqi.net/img/categories_v2/food/default_", "suffix": ".png"}}], "chains": [], "distance": 503, "geocodes": {"main": {"latitude": 37.776677, "longitude": -122.426486}, "roof": {"latitude": 37.776677, "longitude": -122.426486}}, "link": "/v3/places/5bfeb21154b7a90025b6467a", "location": {"address": "602 Hayes St", "census_block": "060750163001004", "country": "US", "cross_street": "Laguna St", "dma": "San Francisco-Oakland-San Jose", "formatted_address": "602 Hayes St (Laguna St), San Francisco, CA 94102", "locality": "San Francisco", "neighborhood": ["Alamo Square"], "postcode": "94102", "region": "CA"}, "name": "Laguna Restaurant", "related_places": {}, "timezone": "America/Los_Angeles"}, {"fsq_id": "4ad3c458f964a52037e620e3", "categories": [{"id": 13145, "name": "Fast Food Restaurant", "icon": {"prefix": "https://ss3.4sqi.net/img/categories_v2/food/fastfood_", "suffix": ".png"}}, {"id": 13031, "name": "Burger Joint", "icon": {"prefix": "https://ss3.4sqi.net/img/categories_v2/food/burger_", "suffix": ".png"}}], "chains": [{"id": "ab4a3530-d68a-012e-5619-003048cad9da", "name": "McDonald's"}], "distance": 151, "geocodes": {"main": {"latitude": 37.779769, "longitude": -122.431757}, "roof": {"latitude": 37.779769, "longitude": -122.431757}}, "link": "/v3/places/4ad3c458f964a52037e620e3", "location": {"address": "1100 Fillmore St", "census_block": "060750161012003", "country": "US", "cross_street": "at Golden Gate Ave", "dma": "San Francisco-Oakland-San Jose", "formatted_address": "1100 Fillmore St (at Golden Gate Ave), San Francisco, CA 94115", "locality": "San Francisco", "neighborhood": ["Martin Luther King Square"], "postcode": "94115", "region": "CA"}, "name": "McDonald's", "related_places": {}, "timezone": "America/Los_Angeles"}, {"fsq_id": "4aff22e2f964a520c03422e3", "categories": [{"id": 13145, "name": "Fast Food Restaurant", "icon": {"prefix": "https://ss3.4sqi.net/img/categories_v2/food/fastfood_", "suffix": ".png"}}, {"id": 13039, "name": "Deli", "icon": {"prefix": "https://ss3.4sqi.net/img/categories_v2/food/deli_", "suffix": ".png"}}], "chains": [{"id": "ab4bee40-d68a-012e-5619-003048cad9da", "name": "Subway"}], "distance": 450, "geocodes": {"main": {"latitude": 37.783527, "longitude": -122.432656}, "roof": {"latitude": 37.783497, "longitude": -122.432552}}, "link": "/v3/places/4aff22e2f964a520c03422e3", "location": {"address": "1500 Fillmore St", "census_block": "060750159004001", "country": "US", "cross_street": "at O'Farrell St.", "dma": "San Francisco-Oakland-San Jose", "formatted_address": "1500 Fillmore St (at O'Farrell St.), San Francisco, CA 94115", "locality": "San Francisco", "neighborhood": ["Japantown"], "postcode": "94115", "region": "CA"}, "name": "Subway", "related_places": {}, "timezone": "America/Los_Angeles"}, {"fsq_id": "50fbd1cfe4b04512a334e37d", "categories": [{"id": 13106, "name": "Dim Sum Restaurant", "icon": {"prefix": "https://ss3.4sqi.net/img/categories_v2/food/dimsum_", "suffix": ".png"}}], "chains": [], "distance": 323, "geocodes": {"main": {"latitude": 37.777222, "longitude": -122.43003}, "roof": {"latitude": 37.777222, "longitude": -122.43003}}, "link": "/v3/places/50fbd1cfe4b04512a334e37d", "location": {"address": "701 Webster St", "census_block": "060750163004000", "country": "US", "cross_street": "", "dma": "San Francisco-Oakland-San Jose", "formatted_address": "701 Webster St, San Francisco, CA 94117", "locality": "San Francisco", "neighborhood": ["Alamo Square"], "postcode": "94117", "region": "CA"}, "name": "Flight Of The Chinese Biplane", "related_places": {}, "timezone": "America/Los_Angeles"}, {"fsq_id": "47f1994cf964a520904e1fe3", "categories": [{"id": 13145, "name": "Fast Food Restaurant", "icon": {"prefix": "https://ss3.4sqi.net/img/categories_v2/food/fastfood_", "suffix": ".png"}}, {"id": 13099, "name": "Chinese Restaurant", "icon": {"prefix": "https://ss3.4sqi.net/img/categories_v2/food/asian_", "suffix": ".png"}}], "chains": [{"id": "16e2ce50-992b-0132-fd75-7a163eb2a6fc", "name": "Panda Express"}], "distance": 422, "geocodes": {"main": {"latitude": 37.783172, "longitude": -122.432532}, "roof": {"latitude": 37.783172, "longitude": -122.432532}}, "link": "/v3/places/47f1994cf964a520904e1fe3", "location": {"address": "1480 Fillmore St", "census_block": "060750159004003", "country": "US", "cross_street": "at O'Farrell St", "dma": "San Francisco-Oakland-San Jose", "formatted_address": "1480 Fillmore St (at O'Farrell St), San Francisco, CA 94115", "locality": "San Francisco", "neighborhood": ["Japantown"], "postcode": "94115", "region": "CA"}, "name": "Panda Express", "related_places": {}, "timezone": "America/Los_Angeles"}, {"fsq_id": "4a642a2bf964a52023c61fe3", "categories": [{"id": 13021, "name": "Speakeasy", "icon": {"prefix": "https://ss3.4sqi.net/img/categories_v2/nightlife/secretbar_", "suffix": ".png"}}], "chains": [], "distance": 375, "geocodes": {"main": {"latitude": 37.778196, "longitude": -122.433528}, "roof": {"latitude": 37.778196, "longitude": -122.433528}}, "link": "/v3/places/4a642a2bf964a52023c61fe3", "location": {"address": "995 Steiner St", "census_block": "060750158022000", "country": "US", "cross_street": "Mcallister", "dma": "San Francisco-Oakland-San Jose", "formatted_address": "995 Steiner St (Mcallister), San Francisco, CA 94117", "locality": "San Francisco", "neighborhood": ["Alamo Square"], "postcode": "94117", "region": "CA"}, "name": "Alamo Square Hideout", "related_places": {}, "timezone": "America/Los_Angeles"}, {"fsq_id": "4bf5eddb9abec9b6e00d25e8", "categories": [{"id": 13049, "name": "Diner", "icon": {"prefix": "https://ss3.4sqi.net/img/categories_v2/food/diner_", "suffix": ".png"}}, {"id": 13068, "name": "American Restaurant", "icon": {"prefix": "https://ss3.4sqi.net/img/categories_v2/food/default_", "suffix": ".png"}}, {"id": 13102, "name": "Cantonese Restaurant", "icon": {"prefix": "https://ss3.4sqi.net/img/categories_v2/food/asian_", "suffix": ".png"}}], "chains": [], "distance": 380, "geocodes": {"main": {"latitude": 37.783118, "longitude": -122.432386}, "roof": {"latitude": 37.783118, "longitude": -122.432386}}, "link": "/v3/places/4bf5eddb9abec9b6e00d25e8", "location": {"address": "1426 Fillmore St", "census_block": "060750159004003", "country": "US", "cross_street": "at Ellis St.", "dma": "San Francisco-Oakland-San Jose", "formatted_address": "1426 Fillmore St (at Ellis St.), San Francisco, CA 94115", "locality": "San Francisco", "neighborhood": ["Japantown"], "postcode": "94115", "region": "CA"}, "name": "King Lees Restaurant", "related_places": {}, "timezone": "America/Los_Angeles"}, {"fsq_id": "579b97a138fae1665bdfe912", "categories": [{"id": 13035, "name": "Coffee Shop", "icon": {"prefix": "https://ss3.4sqi.net/img/categories_v2/food/coffeeshop_", "suffix": ".png"}}], "chains": [{"id": "ab4c54c0-d68a-012e-5619-003048cad9da", "name": "Starbucks"}], "distance": 443, "geocodes": {"main": {"latitude": 37.783427, "longitude": -122.433049}, "roof": {"latitude": 37.783427, "longitude": -122.433049}}, "link": "/v3/places/579b97a138fae1665bdfe912", "location": {"address": "1501 Fillmore St", "census_block": "060750159004002", "country": "US", "cross_street": "O'Farrell", "dma": "San Francisco-Oakland-San Jose", "formatted_address": "1501 Fillmore St (O'Farrell), San Francisco, CA 94115", "locality": "San Francisco", "neighborhood": ["Japantown"], "postcode": "94115", "region": "CA"}, "name": "Starbucks", "related_places": {}, "timezone": "America/Los_Angeles"}, {"fsq_id": "4e24db32aeb760cf4943befd", "categories": [{"id": 13016, "name": "Lounge", "icon": {"prefix": "https://ss3.4sqi.net/img/categories_v2/nightlife/default_", "suffix": ".png"}}], "chains": [], "distance": 444, "geocodes": {"main": {"latitude": 37.776133, "longitude": -122.43018}, "roof": {"latitude": 37.776133, "longitude": -122.43018}}, "link": "/v3/places/4e24db32aeb760cf4943befd", "location": {"address": "830 Hayes St", "census_block": "060750163004001", "country": "US", "cross_street": "Webster", "dma": "San Francisco-Oakland-San Jose", "formatted_address": "830 Hayes St (Webster), San Francisco, CA 94117", "locality": "San Francisco", "neighborhood": ["Alamo Square"], "postcode": "94117", "region": "CA"}, "name": "Nosh This Kitchen", "related_places": {}, "timezone": "America/Los_Angeles"}, {"fsq_id": "49c6db38f964a52086571fe3", "categories": [{"id": 13072, "name": "Asian Restaurant", "icon": {"prefix": "https://ss3.4sqi.net/img/categories_v2/food/asian_", "suffix": ".png"}}], "chains": [], "distance": 460, "geocodes": {"main": {"latitude": 37.78359, "longitude": -122.432629}, "roof": {"latitude": 37.78359, "longitude": -122.432629}}, "link": "/v3/places/49c6db38f964a52086571fe3", "location": {"address": "1522 Fillmore St", "census_block": "060750159004001", "country": "US", "cross_street": "at Geary Blvd", "dma": "San Francisco-Oakland-San Jose", "formatted_address": "1522 Fillmore St (at Geary Blvd), San Francisco, CA 94115", "locality": "San Francisco", "neighborhood": ["Japantown"], "postcode": "94115", "region": "CA"}, "name": "Tapioca Express", "related_places": {}, "timezone": "America/Los_Angeles"}, {"fsq_id": "53334cef498e11c4dfc1c08e", "categories": [{"id": 13034, "name": "Caf\u00e9", "icon": {"prefix": "https://ss3.4sqi.net/img/categories_v2/food/cafe_", "suffix": ".png"}}, {"id": 13035, "name": "Coffee Shop", "icon": {"prefix": "https://ss3.4sqi.net/img/categories_v2/food/coffeeshop_", "suffix": ".png"}}, {"id": 13065, "name": "Restaurant", "icon": {"prefix": "https://ss3.4sqi.net/img/categories_v2/food/default_", "suffix": ".png"}}], "chains": [], "distance": 483, "geocodes": {"main": {"latitude": 37.776639, "longitude": -122.426555}, "roof": {"latitude": 37.776639, "longitude": -122.426555}}, "link": "/v3/places/53334cef498e11c4dfc1c08e", "location": {"address": "602 Hayes St", "census_block": "060750163001004", "country": "US", "cross_street": "", "dma": "San Francisco-Oakland-San Jose", "formatted_address": "602 Hayes St, San Francisco, CA 94102", "locality": "San Francisco", "neighborhood": ["Alamo Square"], "postcode": "94102", "region": "CA"}, "name": "Agesong Forget Me Not Cafe", "related_places": {}, "timezone": "America/Los_Angeles"}, {"fsq_id": "53506e91498e69acd2cf973d", "categories": [{"id": 10032, "name": "Night Club", "icon": {"prefix": "https://ss3.4sqi.net/img/categories_v2/nightlife/nightclub_", "suffix": ".png"}}, {"id": 13003, "name": "Bar", "icon": {"prefix": "https://ss3.4sqi.net/img/categories_v2/nightlife/pub_", "suffix": ".png"}}], "chains": [], "distance": 494, "geocodes": {"main": {"latitude": 37.783758, "longitude": -122.432567}, "roof": {"latitude": 37.783758, "longitude": -122.432567}}, "link": "/v3/places/53506e91498e69acd2cf973d", "location": {"address": "1538 Fillmore St", "census_block": "060750159004001", "country": "US", "cross_street": "", "dma": "San Francisco-Oakland-San Jose", "formatted_address": "1538 Fillmore St, San Francisco, CA 94115", "locality": "San Francisco", "neighborhood": ["Japantown"], "postcode": "94115", "region": "CA"}, "name": "Origin", "related_places": {}, "timezone": "America/Los_Angeles"}, {"fsq_id": "4bda93f23904a593c7d0469e", "categories": [{"id": 10000, "name": "Arts and Entertainment", "icon": {"prefix": "https://ss3.4sqi.net/img/categories_v2/arts_entertainment/default_", "suffix": ".png"}}, {"id": 13015, "name": "Karaoke Bar", "icon": {"prefix": "https://ss3.4sqi.net/img/categories_v2/nightlife/karaoke_", "suffix": ".png"}}], "chains": [], "distance": 433, "geocodes": {"main": {"latitude": 37.783508, "longitude": -122.432409}, "roof": {"latitude": 37.783508, "longitude": -122.432409}}, "link": "/v3/places/4bda93f23904a593c7d0469e", "location": {"address": "1504 Fillmore St", "address_extended": "# B", "census_block": "060750159004001", "country": "US", "cross_street": "at O'Farrell St", "dma": "San Francisco-Oakland-San Jose", "formatted_address": "1504 Fillmore St (at O'Farrell St), San Francisco, CA 94115", "locality": "San Francisco", "neighborhood": ["Japantown"], "postcode": "94115", "region": "CA"}, "name": "L2", "related_places": {}, "timezone": "America/Los_Angeles"}, {"fsq_id": "547a945a498e5ae4c4a2a5a5", "categories": [{"id": 13386, "name": "Vineyard", "icon": {"prefix": "https://ss3.4sqi.net/img/categories_v2/parks_outdoors/vineyard_", "suffix": ".png"}}], "chains": [], "distance": 72365, "geocodes": {"main": {"latitude": 37.778386, "longitude": -122.432321}, "roof": {"latitude": 37.778386, "longitude": -122.432321}}, "link": "/v3/places/547a945a498e5ae4c4a2a5a5", "location": {"address": "8555 Sonoma Hwy", "census_block": "060750161011004", "country": "US", "cross_street": "", "dma": "San Francisco-Oakland-San Jose", "formatted_address": "8555 Sonoma Hwy, Kenwood, CA 95452", "locality": "Kenwood", "neighborhood": ["Alamo Square"], "postcode": "95452", "region": "CA"}, "name": "Chateau St John", "related_places": {}, "timezone": "America/Los_Angeles"}, {"fsq_id": "380b776e3a6342d731d35626", "categories": [{"id": 10039, "name": "Music Venue", "icon": {"prefix": "https://ss3.4sqi.net/img/categories_v2/arts_entertainment/musicvenue_", "suffix": ".png"}}, {"id": 13065, "name": "Restaurant", "icon": {"prefix": "https://ss3.4sqi.net/img/categories_v2/food/default_", "suffix": ".png"}}], "chains": [], "distance": 266, "geocodes": {"main": {"latitude": 37.781736, "longitude": -122.432089}, "roof": {"latitude": 37.781736, "longitude": -122.432089}}, "link": "/v3/places/380b776e3a6342d731d35626", "location": {"address": "1310 Fillmore St", "census_block": "060750159004004", "country": "US", "dma": "San Francisco-Oakland-San Jose", "formatted_address": "1310 Fillmore St, San Francisco, CA 94115", "locality": "San Francisco", "neighborhood": ["Marcus Garvey Square"], "postcode": "94115", "region": "CA"}, "name": "Fillmore Heritage Center Owners Association", "related_places": {}}, {"fsq_id": "0b95d288d6944c30f67dd762", "categories": [{"id": 13145, "name": "Fast Food Restaurant", "icon": {"prefix": "https://ss3.4sqi.net/img/categories_v2/food/fastfood_", "suffix": ".png"}}], "chains": [], "distance": 302, "geocodes": {"main": {"latitude": 37.781796, "longitude": -122.432594}, "roof": {"latitude": 37.781796, "longitude": -122.432594}}, "link": "/v3/places/0b95d288d6944c30f67dd762", "location": {"address": "1325 Fillmore St", "census_block": "060750159003000", "country": "US", "dma": "San Francisco-Oakland-San Jose", "formatted_address": "1325 Fillmore St, San Francisco, CA 94115", "locality": "San Francisco", "neighborhood": ["Lower Pacific Heights"], "postcode": "94115", "region": "CA"}, "name": "Louisiana Fried Chicken", "related_places": {}}, {"fsq_id": "77c3dabd3cdf4e6a3138bd39", "categories": [{"id": 13067, "name": "African Restaurant", "icon": {"prefix": "https://ss3.4sqi.net/img/categories_v2/food/african_", "suffix": ".png"}}, {"id": 13143, "name": "Ethiopian Restaurant", "icon": {"prefix": "https://ss3.4sqi.net/img/categories_v2/food/ethiopian_", "suffix": ".png"}}], "chains": [], "distance": 316, "geocodes": {"main": {"latitude": 37.778118, "longitude": -122.427288}, "roof": {"latitude": 37.778118, "longitude": -122.427288}}, "link": "/v3/places/77c3dabd3cdf4e6a3138bd39", "location": {"address": "629 Fulton St", "census_block": "060750163001000", "country": "US", "dma": "San Francisco-Oakland-San Jose", "formatted_address": "629 Fulton St, San Francisco, CA 94102", "locality": "San Francisco", "neighborhood": ["Hayes Valley"], "postcode": "94102", "region": "CA"}, "name": "Shoulder Dancing Ethiopian Restaurant", "related_places": {}}, {"fsq_id": "60317922ee3f4d19de0bfc07", "categories": [{"id": 13068, "name": "American Restaurant", "icon": {"prefix": "https://ss3.4sqi.net/img/categories_v2/food/default_", "suffix": ".png"}}], "chains": [], "distance": 326, "geocodes": {"main": {"latitude": 37.779197, "longitude": -122.42642}, "roof": {"latitude": 37.779197, "longitude": -122.42642}}, "link": "/v3/places/60317922ee3f4d19de0bfc07", "location": {"address": "887 McAllister St", "census_block": "060750161021003", "country": "US", "dma": "San Francisco-Oakland-San Jose", "formatted_address": "887 McAllister St, San Francisco, CA 94102", "locality": "San Francisco", "neighborhood": ["Thomas Paine Square"], "postcode": "94102", "region": "CA"}, "name": "To Hyang", "related_places": {}}, {"fsq_id": "02678793ef7c484126b21cce", "categories": [{"id": 13064, "name": "Pizzeria", "icon": {"prefix": "https://ss3.4sqi.net/img/categories_v2/food/pizza_", "suffix": ".png"}}, {"id": 13236, "name": "Italian Restaurant", "icon": {"prefix": "https://ss3.4sqi.net/img/categories_v2/food/italian_", "suffix": ".png"}}], "chains": [], "distance": 331, "geocodes": {"main": {"latitude": 37.782045, "longitude": -122.432752}, "roof": {"latitude": 37.782045, "longitude": -122.432752}}, "link": "/v3/places/02678793ef7c484126b21cce", "location": {"address": "1375 Fillmore St", "census_block": "060750159003000", "country": "US", "dma": "San Francisco-Oakland-San Jose", "formatted_address": "1375 Fillmore St, San Francisco, CA 94115", "locality": "San Francisco", "neighborhood": ["Lower Pacific Heights"], "postcode": "94115", "region": "CA"}, "name": "Bruno's Pizza & Restaurant", "related_places": {}}, {"fsq_id": "9bf62272b84a433a319e474c", "categories": [{"id": 13035, "name": "Coffee Shop", "icon": {"prefix": "https://ss3.4sqi.net/img/categories_v2/food/coffeeshop_", "suffix": ".png"}}], "chains": [], "distance": 339, "geocodes": {"main": {"latitude": 37.779513, "longitude": -122.433821}, "roof": {"latitude": 37.779513, "longitude": -122.433821}}, "link": "/v3/places/9bf62272b84a433a319e474c", "location": {"address": "1111 Steiner St", "census_block": "060750158013003", "country": "US", "dma": "San Francisco-Oakland-San Jose", "formatted_address": "1111 Steiner St, San Francisco, CA 94115", "locality": "San Francisco", "neighborhood": ["Marcus Garvey Square"], "postcode": "94115", "region": "CA"}, "name": "Colognia Watercafe", "related_places": {}}, {"fsq_id": "f8e5958227a74c01ead25dbf", "categories": [{"id": 13236, "name": "Italian Restaurant", "icon": {"prefix": "https://ss3.4sqi.net/img/categories_v2/food/italian_", "suffix": ".png"}}], "chains": [], "distance": 341, "geocodes": {"main": {"latitude": 37.782213, "longitude": -122.43269}, "roof": {"latitude": 37.782213, "longitude": -122.43269}}, "link": "/v3/places/f8e5958227a74c01ead25dbf", "location": {"address": "1375 Fillmore St", "census_block": "060750159003000", "country": "US", "dma": "San Francisco-Oakland-San Jose", "formatted_address": "1375 Fillmore St, San Francisco, CA 94115", "locality": "San Francisco", "neighborhood": ["Lower Pacific Heights"], "postcode": "94115", "region": "CA"}, "name": "Golden State Grill", "related_places": {}}, {"fsq_id": "6d4a8e5b51574f0bc055e609", "categories": [{"id": 13032, "name": "Cafes, Coffee, and Tea Houses", "icon": {"prefix": "https://ss3.4sqi.net/img/categories_v2/food/default_", "suffix": ".png"}}], "chains": [], "distance": 369, "geocodes": {"main": {"latitude": 37.782538, "longitude": -122.43271}, "roof": {"latitude": 37.782538, "longitude": -122.43271}}, "link": "/v3/places/6d4a8e5b51574f0bc055e609", "location": {"address": "1406 Fillmore St", "census_block": "060750159003000", "country": "US", "dma": "San Francisco-Oakland-San Jose", "formatted_address": "1406 Fillmore St, San Francisco, CA 94115", "locality": "San Francisco", "neighborhood": ["Japantown"], "postcode": "94115", "region": "CA"}, "name": "Muddy Swirl", "related_places": {}}, {"fsq_id": "7cab9d15f8fb492c8c3f33e7", "categories": [{"id": 10032, "name": "Night Club", "icon": {"prefix": "https://ss3.4sqi.net/img/categories_v2/nightlife/nightclub_", "suffix": ".png"}}, {"id": 13003, "name": "Bar", "icon": {"prefix": "https://ss3.4sqi.net/img/categories_v2/nightlife/pub_", "suffix": ".png"}}, {"id": 13039, "name": "Deli", "icon": {"prefix": "https://ss3.4sqi.net/img/categories_v2/food/deli_", "suffix": ".png"}}], "chains": [], "distance": 442, "geocodes": {"main": {"latitude": 37.77641, "longitude": -122.427832}, "roof": {"latitude": 37.77641, "longitude": -122.427832}}, "link": "/v3/places/7cab9d15f8fb492c8c3f33e7", "location": {"address": "698 Hayes St", "census_block": "060750163001004", "country": "US", "dma": "San Francisco-Oakland-San Jose", "formatted_address": "698 Hayes St, San Francisco, CA 94102", "locality": "San Francisco", "neighborhood": ["Alamo Square"], "postcode": "94102", "region": "CA"}, "name": "Silver Twin Hydrant Hayes", "related_places": {}}, {"fsq_id": "d1eb7367fe5c4d40f33f7446", "categories": [{"id": 13031, "name": "Burger Joint", "icon": {"prefix": "https://ss3.4sqi.net/img/categories_v2/food/burger_", "suffix": ".png"}}, {"id": 13303, "name": "Mexican Restaurant", "icon": {"prefix": "https://ss3.4sqi.net/img/categories_v2/food/mexican_", "suffix": ".png"}}], "chains": [], "distance": 442, "geocodes": {"main": {"latitude": 37.776725, "longitude": -122.427133}, "roof": {"latitude": 37.776725, "longitude": -122.427133}}, "link": "/v3/places/d1eb7367fe5c4d40f33f7446", "location": {"address": "553 Ivy St", "census_block": "060750163001004", "country": "US", "dma": "San Francisco-Oakland-San Jose", "formatted_address": "553 Ivy St, San Francisco, CA 94102", "locality": "San Francisco", "neighborhood": ["Alamo Square"], "postcode": "94102", "region": "CA"}, "name": "Aaron Jonas Catering", "related_places": {}}, {"fsq_id": "bf5750811bef4914117e8c7a", "categories": [{"id": 10032, "name": "Night Club", "icon": {"prefix": "https://ss3.4sqi.net/img/categories_v2/nightlife/nightclub_", "suffix": ".png"}}, {"id": 13015, "name": "Karaoke Bar", "icon": {"prefix": "https://ss3.4sqi.net/img/categories_v2/nightlife/karaoke_", "suffix": ".png"}}], "chains": [], "distance": 454, "geocodes": {"main": {"latitude": 37.783525, "longitude": -122.432625}, "roof": {"latitude": 37.783525, "longitude": -122.432625}}, "link": "/v3/places/bf5750811bef4914117e8c7a", "location": {"address": "1504 Fillmore St", "address_extended": "# B", "census_block": "060750159004001", "country": "US", "dma": "San Francisco-Oakland-San Jose", "formatted_address": "1504 Fillmore St, San Francisco, CA 94115", "locality": "San Francisco", "neighborhood": ["Japantown"], "postcode": "94115", "region": "CA"}, "name": "Level2 Karaoke", "related_places": {}}, {"fsq_id": "a81f023045b4406fd9bed133", "categories": [{"id": 13015, "name": "Karaoke Bar", "icon": {"prefix": "https://ss3.4sqi.net/img/categories_v2/nightlife/karaoke_", "suffix": ".png"}}], "chains": [], "distance": 461, "geocodes": {"main": {"latitude": 37.783628, "longitude": -122.432559}, "roof": {"latitude": 37.783628, "longitude": -122.432559}}, "link": "/v3/places/a81f023045b4406fd9bed133", "location": {"address": "1504 Fillmore St", "address_extended": "# B", "census_block": "060750159004001", "country": "US", "dma": "San Francisco-Oakland-San Jose", "formatted_address": "1504 Fillmore St, San Francisco, CA 94115", "locality": "San Francisco", "neighborhood": ["Japantown"], "postcode": "94115", "region": "CA"}, "name": "Safety Zone Karaoke Box", "related_places": {}}], "context": {"geo_bounds": {"circle": {"center": {"latitude": 37.78, "longitude": -122.43}, "radius": 500}}}}