{"results": [{"fsq_id": "56eb4e0a498e5769545c1843", "categories": [{"id": 13003, "name": "Bar", "icon": {"prefix": "https://ss3.4sqi.net/img/categories_v2/nightlife/pub_", "suffix": ".png"}}, {"id": 13029, "name": "Brewery", "icon": {"prefix": "https://ss3.4sqi.net/img/categories_v2/food/brewery_", "suffix": ".png"}}, {"id": 13035, "name": "Coffee Shop", "icon": {"prefix": "https://ss3.4sqi.net/img/categories_v2/food/coffeeshop_", "suffix": ".png"}}], "chains": [], "distance": 91, "geocodes": {"main": {"latitude": 37.739981, "longitude": -122.408982}, "roof": {"latitude": 37.739981, "longitude": -122.408982}}, "link": "/v3/places/56eb4e0a498e5769545c1843", "location": {"address": "1525 Cortland Ave", "census_block": "060750251003001", "country": "US", "cross_street": "", "dma": "San Francisco-Oakland-San Jose", "formatted_address": "1525 Cortland Ave, San Francisco, CA 94110", "locality": "San Francisco", "neighborhood": ["Bayshore"], "postcode": "94110", "region": "CA"}, "name": "Barebottle Brewing Company", "related_places": {"children": []}, "timezone": "America/Los_Angeles"}, {"fsq_id": "5407c3ee498e743eaa28f797", "categories": [{"id": 13072, "name": "Asian Restaurant", "icon": {"prefix": "https://ss3.4sqi.net/img/categories_v2/food/asian_", "suffix": ".png"}}, {"id": 13272, "name": "Ramen Restaurant", "icon": {"prefix": "https://ss3.4sqi.net/img/categories_v2/food/ramen_", "suffix": ".png"}}, {"id": 13352, "name": "Thai Restaurant", "icon": {"prefix": "https://ss3.4sqi.net/img/categories_v2/food/thai_", "suffix": ".png"}}], "chains": [], "distance": 361, "geocodes": {"main": {"latitude": 37.739183, "longitude": -122.413879}, "roof": {"latitude": 37.739183, "longitude": -122.413879}}, "link": "/v3/places/5407c3ee498e743eaa28f797", "location": {"address": "903 Cortland Ave", "census_block": "060750252003014", "country": "US", "cross_street": "", "dma": "San Francisco-Oakland-San Jose", "formatted_address": "903 Cortland Ave, San Francisco, CA 94110", "locality": "San Francisco", "neighborhood": ["Bayshore"], "postcode": "94110", "region": "CA"}, "name": "Nute's", "related_places": {}, "timezone": "America/Los_Angeles"}, {"fsq_id": "509a7fffe4b071145b03eb76", "categories": [{"id": 13306, "name": "Taco Restaurant", "icon": {"prefix": "https://ss3.4sqi.net/img/categories_v2/food/taco_", "suffix": ".png"}}], "chains": [], "distance": 73, "geocodes": {"main": {"latitude": 37.739336, "longitude": -122.406723}, "roof": {"latitude": 37.739336, "longitude": -122.406723}}, "link": "/v3/places/509a7fffe4b071145b03eb76", "location": {"address": "491 Bay Shore Blvd", "census_block": "060759809001037", "country": "US", "cross_street": "", "dma": "San Francisco-Oakland-San Jose", "formatted_address": "491 Bay Shore Blvd, San Francisco, CA 94124", "locality": "San Francisco", "neighborhood": ["Bayshore"], "postcode": "94124", "region": "CA"}, "name": "San Pancho's Tacos", "related_places": {}, "timezone": "America/Los_Angeles"}, {"fsq_id": "58f0edddb1ec1319da00dd2c", "categories": [{"id": 13002, "name": "Bakery", "icon": {"prefix": "https://ss3.4sqi.net/img/categories_v2/food/bakery_", "suffix": ".png"}}, {"id": 13042, "name": "Cupcake Shop", "icon": {"prefix": "https://ss3.4sqi.net/img/categories_v2/food/cupcakes_", "suffix": ".png"}}, {"id": 13065, "name": "Restaurant", "icon": {"prefix": "https://ss3.4sqi.net/img/categories_v2/food/default_", "suffix": ".png"}}], "chains": [], "distance": 381, "geocodes": {"main": {"latitude": 37.73902, "longitude": -122.4143}, "roof": {"latitude": 37.73902, "longitude": -122.4143}}, "link": "/v3/places/58f0edddb1ec1319da00dd2c", "location": {"address": "833 Cortland Ave", "census_block": "060750252003012", "country": "US", "cross_street": "Gates St", "dma": "San Francisco-Oakland-San Jose", "formatted_address": "833 Cortland Ave (Gates St), San Francisco, CA 94110", "locality": "San Francisco", "neighborhood": ["Bayshore"], "postcode": "94110", "region": "CA"}, "name": "Black Jet Baking Company", "related_places": {}, "timezone": "America/Los_Angeles"}, {"fsq_id": "4ae4ff0cf964a520f49f21e3", "categories": [{"id": 13025, "name": "Wine Bar", "icon": {"prefix": "https://ss3.4sqi.net/img/categories_v2/food/winery_", "suffix": ".png"}}, {"id": 13236, "name": "Italian Restaurant", "icon": {"prefix": "https://ss3.4sqi.net/img/categories_v2/food/italian_", "suffix": ".png"}}], "chains": [], "distance": 482, "geocodes": {"main": {"latitude": 37.73909, "longitude": -122.415522}, "roof": {"latitude": 37.73909, "longitude": -122.415522}}, "link": "/v3/places/4ae4ff0cf964a520f49f21e3", "location": {"address": "629 Cortland Ave", "census_block": "060750252004006", "country": "US", "cross_street": "at Anderson Street", "dma": "San Francisco-Oakland-San Jose", "formatted_address": "629 Cortland Ave (at Anderson Street), San Francisco, CA 94110", "locality": "San Francisco", "neighborhood": ["Bayshore"], "postcode": "94110", "region": "CA"}, "name": "VinoRosso", "related_places": {}, "timezone": "America/Los_Angeles"}, {"fsq_id": "54505245498e78f30aadd37c", "categories": [{"id": 13065, "name": "Restaurant", "icon": {"prefix": "https://ss3.4sqi.net/img/categories_v2/food/default_", "suffix": ".png"}}], "chains": [], "distance": 347, "geocodes": {"main": {"latitude": 37.73909, "longitude": -122.413802}, "roof": {"latitude": 37.73909, "longitude": -122.413802}}, "link": "/v3/places/54505245498e78f30aadd37c", "location": {"address": "919 Cortland Ave", "census_block": "060750252003014", "country": "US", "cross_street": "", "dma": "San Francisco-Oakland-San Jose", "formatted_address": "919 Cortland Ave, San Francisco, CA 94110", "locality": "San Francisco", "neighborhood": ["Bayshore"], "postcode": "94110", "region": "CA"}, "name": "3rd Cousin", "related_places": {}, "timezone": "America/Los_Angeles"}, {"fsq_id": "4a2debe9f964a52008981fe3", "categories": [{"id": 13068, "name": "American Restaurant", "icon": {"prefix": "https://ss3.4sqi.net/img/categories_v2/food/default_", "suffix": ".png"}}, {"id": 13297, "name": "Latin American Restaurant", "icon": {"prefix": "https://ss3.4sqi.net/img/categories_v2/food/latinamerican_", "suffix": ".png"}}, {"id": 13322, "name": "Peruvian Restaurant", "icon": {"prefix": "https://ss3.4sqi.net/img/categories_v2/food/peruvian_", "suffix": ".png"}}], "chains": [], "distance": 359, "geocodes": {"main": {"latitude": 37.738797, "longitude": -122.414215}, "roof": {"latitude": 37.738797, "longitude": -122.414215}}, "link": "/v3/places/4a2debe9f964a52008981fe3", "location": {"address": "830 Cortland Ave", "census_block": "060750254021000", "country": "US", "cross_street": "at Ellsworth St", "dma": "San Francisco-Oakland-San Jose", "formatted_address": "830 Cortland Ave (at Ellsworth St), San Francisco, CA 94110", "locality": "San Francisco", "neighborhood": ["Bayshore"], "postcode": "94110", "region": "CA"}, "name": "Piqueo's", "related_places": {}, "timezone": "America/Los_Angeles"}, {"fsq_id": "45206674f964a520b43a1fe3", "categories": [{"id": 10032, "name": "Night Club", "icon": {"prefix": "https://ss3.4sqi.net/img/categories_v2/nightlife/nightclub_", "suffix": ".png"}}, {"id": 13003, "name": "Bar", "icon": {"prefix": "https://ss3.4sqi.net/img/categories_v2/nightlife/pub_", "suffix": ".png"}}], "chains": [], "distance": 480, "geocodes": {"main": {"latitude": 37.739852, "longitude": -122.404675}, "roof": {"latitude": 37.739852, "longitude": -122.404675}}, "link": "/v3/places/45206674f964a520b43a1fe3", "location": {"address": "550 Barneveld Ave", "census_block": "060759809001039", "country": "US", "cross_street": "", "dma": "San Francisco-Oakland-San Jose", "formatted_address": "550 Barneveld Ave, San Francisco, CA 94124", "locality": "San Francisco", "neighborhood": ["Bayshore"], "postcode": "94124", "region": "CA"}, "name": "Sundance Saloon", "related_places": {}, "timezone": "America/Los_Angeles"}, {"fsq_id": "4a832ca5f964a52047fa1fe3", "categories": [{"id": 13065, "name": "Restaurant", "icon": {"prefix": "https://ss3.4sqi.net/img/categories_v2/food/default_", "suffix": ".png"}}], "chains": [], "distance": 481, "geocodes": {"main": {"latitude": 37.738802, "longitude": -122.415433}, "roof": {"latitude": 37.738802, "longitude": -122.415433}}, "link": "/v3/places/4a832ca5f964a52047fa1fe3", "location": {"address": "634 Cortland Ave", "census_block": "060750254021002", "country": "US", "cross_street": "at Anderson St", "dma": "San Francisco-Oakland-San Jose", "formatted_address": "634 Cortland Ave (at Anderson St), San Francisco, CA 94110", "locality": "San Francisco", "neighborhood": ["Bayshore"], "postcode": "94110", "region": "CA"}, "name": "Moonlight Cafe", "related_places": {}, "timezone": "America/Los_Angeles"}, {"fsq_id": "4a862f58f964a520b40020e3", "categories": [{"id": 13065, "name": "Restaurant", "icon": {"prefix": "https://ss3.4sqi.net/img/categories_v2/food/default_", "suffix": ".png"}}], "chains": [], "distance": 343, "geocodes": {"main": {"latitude": 37.739063, "longitude": -122.413729}, "roof": {"latitude": 37.739063, "longitude": -122.413729}}, "link": "/v3/places/4a862f58f964a520b40020e3", "location": {"address": "925 Cortland Ave", "census_block": "060750252003014", "country": "US", "cross_street": "btwn Gates & Folsom", "dma": "San Francisco-Oakland-San Jose", "formatted_address": "925 Cortland Ave (btwn Gates & Folsom), San Francisco, CA 94110", "locality": "San Francisco", "neighborhood": ["Bayshore"], "postcode": "94110", "region": "CA"}, "name": "Little Nepal", "related_places": {}, "timezone": "America/Los_Angeles"}, {"fsq_id": "49fc89c3f964a520b36e1fe3", "categories": [{"id": 13297, "name": "Latin American Restaurant", "icon": {"prefix": "https://ss3.4sqi.net/img/categories_v2/food/latinamerican_", "suffix": ".png"}}, {"id": 13303, "name": "Mexican Restaurant", "icon": {"prefix": "https://ss3.4sqi.net/img/categories_v2/food/mexican_", "suffix": ".png"}}], "chains": [], "distance": 449, "geocodes": {"main": {"latitude": 37.735795, "longitude": -122.409882}, "roof": {"latitude": 37.735795, "longitude": -122.409882}}, "link": "/v3/places/49fc89c3f964a520b36e1fe3", "location": {"address": "100 Alemany Blvd", "census_block": "060750254023006", "country": "US", "cross_street": "at Peralta Ave", "dma": "San Francisco-Oakland-San Jose", "formatted_address": "100 Alemany Blvd (at Peralta Ave), San Francisco, CA 94110", "locality": "San Francisco", "neighborhood": ["Bayshore"], "postcode": "94110", "region": "CA"}, "name": "El Huarache Loco", "related_places": {"parent": {"fsq_id": "49f61293f964a520fe6b1fe3", "name": "Alemany Farmers Market"}}, "timezone": "America/Los_Angeles"}, {"fsq_id": "4a57fd7ef964a52031b71fe3", "categories": [{"id": 13039, "name": "Deli", "icon": {"prefix": "https://ss3.4sqi.net/img/categories_v2/food/deli_", "suffix": ".png"}}, {"id": 13303, "name": "Mexican Restaurant", "icon": {"prefix": "https://ss3.4sqi.net/img/categories_v2/food/mexican_", "suffix": ".png"}}], "chains": [], "distance": 454, "geocodes": {"main": {"latitude": 37.739014, "longitude": -122.414801}, "roof": {"latitude": 37.739014, "longitude": -122.414801}}, "link": "/v3/places/4a57fd7ef964a52031b71fe3", "location": {"address": "737 Cortland Ave", "census_block": "060750252003013", "country": "US", "cross_street": "btw Anderson St. & Ellsworth St.", "dma": "San Francisco-Oakland-San Jose", "formatted_address": "737 Cortland Ave (btw Anderson St. & Ellsworth St.), San Francisco, CA 94110", "locality": "San Francisco", "neighborhood": ["Bayshore"], "postcode": "94110", "region": "CA"}, "name": "Tacos Los Altos", "related_places": {}, "timezone": "America/Los_Angeles"}, {"fsq_id": "4a64c6d0f964a520a9c61fe3", "categories": [{"id": 13035, "name": "Coffee Shop", "icon": {"prefix": "https://ss3.4sqi.net/img/categories_v2/food/coffeeshop_", "suffix": ".png"}}, {"id": 13036, "name": "Tea Room", "icon": {"prefix": "https://ss3.4sqi.net/img/categories_v2/food/tearoom_", "suffix": ".png"}}, {"id": 13334, "name": "Sandwich Restaurant", "icon": {"prefix": "https://ss3.4sqi.net/img/categories_v2/food/deli_", "suffix": ".png"}}], "chains": [], "distance": 431, "geocodes": {"main": {"latitude": 37.739041, "longitude": -122.414874}, "roof": {"latitude": 37.739041, "longitude": -122.414874}}, "link": "/v3/places/4a64c6d0f964a520a9c61fe3", "location": {"address": "745 Cortland Ave", "census_block": "060750252003013", "country": "US", "cross_street": "btwn Anderson & Ellsworth St", "dma": "San Francisco-Oakland-San Jose", "formatted_address": "745 Cortland Ave (btwn Anderson & Ellsworth St), San Francisco, CA 94110", "locality": "San Francisco", "neighborhood": ["Bayshore"], "postcode": "94110", "region": "CA"}, "name": "Martha & Bros Coffee Co.", "related_places": {}, "timezone": "America/Los_Angeles"}, {"fsq_id": "5275d62611d26c4de46e06d6", "categories": [{"id": 13068, "name": "American Restaurant", "icon": {"prefix": "https://ss3.4sqi.net/img/categories_v2/food/default_", "suffix": ".png"}}, {"id": 13314, "name": "New American Restaurant", "icon": {"prefix": "https://ss3.4sqi.net/img/categories_v2/food/newamerican_", "suffix": ".png"}}], "chains": [], "distance": 356, "geocodes": {"main": {"latitude": 37.739063, "longitude": -122.413729}, "roof": {"latitude": 37.739063, "longitude": -122.413729}}, "link": "/v3/places/5275d62611d26c4de46e06d6", "location": {"address": "903 Cortland Ave", "census_block": "060750252003014", "country": "US", "cross_street": "", "dma": "San Francisco-Oakland-San Jose", "formatted_address": "903 Cortland Ave, San Francisco, CA 94110", "locality": "San Francisco", "neighborhood": ["Bayshore"], "postcode": "94110", "region": "CA"}, "name": "Kinfolk", "related_places": {}, "timezone": "America/Los_Angeles"}, {"fsq_id": "4b8761faf964a520d4bd31e3", "categories": [{"id": 13276, "name": "Sushi Restaurant", "icon": {"prefix": "https://ss3.4sqi.net/img/categories_v2/food/sushi_", "suffix": ".png"}}], "chains": [], "distance": 505, "geocodes": {"main": {"latitude": 37.739128, "longitude": -122.415452}, "roof": {"latitude": 37.739128, "longitude": -122.415452}}, "link": "/v3/places/4b8761faf964a520d4bd31e3", "location": {"address": "615 Cortland Ave", "census_block": "060750252004006", "country": "US", "cross_street": "Anderson St", "dma": "San Francisco-Oakland-San Jose", "formatted_address": "615 Cortland Ave (Anderson St), San Francisco, CA 94110", "locality": "San Francisco", "neighborhood": ["Bayshore"], "postcode": "94110", "region": "CA"}, "name": "Moki's Sushi & Pacific Grill", "related_places": {}, "timezone": "America/Los_Angeles"}, {"fsq_id": "4e5955ccc65bcd7cbe33820b", "categories": [{"id": 13000, "name": "Dining and Drinking", "icon": {"prefix": "https://ss3.4sqi.net/img/categories_v2/food/default_", "suffix": ".png"}}], "chains": [], "distance": 4648, "geocodes": {"main": {"latitude": 37.736982, "longitude": -122.409307}, "roof": {"latitude": 37.736982, "longitude": -122.409307}}, "link": "/v3/places/4e5955ccc65bcd7cbe33820b", "location": {"address": "100 Alemany Blvd", "census_block": "060750251003006", "country": "US", "cross_street": "at Crescent Ave.", "dma": "San Francisco-Oakland-San Jose", "formatted_address": "100 Alemany Blvd (at Crescent Ave.), San Francisco, CA 94110", "locality": "San Francisco", "neighborhood": ["Bayshore"], "postcode": "94110", "region": "CA"}, "name": "Rita's Catering Truck", "related_places": {}, "timezone": "America/Los_Angeles"}, {"fsq_id": "41b3a100f964a520771e1fe3", "categories": [{"id": 10032, "name": "Night Club", "icon": {"prefix": "https://ss3.4sqi.net/img/categories_v2/nightlife/nightclub_", "suffix": ".png"}}, {"id": 13011, "name": "Gay Bar", "icon": {"prefix": "https://ss3.4sqi.net/img/categories_v2/nightlife/gaybar_", "suffix": ".png"}}], "chains": [], "distance": 472, "geocodes": {"main": {"latitude": 37.739852, "longitude": -122.404675}, "roof": {"latitude": 37.739852, "longitude": -122.404675}}, "link": "/v3/places/41b3a100f964a520771e1fe3", "location": {"address": "550 Barneveld Ave", "census_block": "060759809001039", "country": "US", "cross_street": "at Industrial St", "dma": "San Francisco-Oakland-San Jose", "formatted_address": "550 Barneveld Ave (at Industrial St), San Francisco, CA 94124", "locality": "San Francisco", "neighborhood": ["Bayshore"], "postcode": "94124", "region": "CA"}, "name": "Space 550", "related_places": {}, "timezone": "America/Los_Angeles"}, {"fsq_id": "4e83dce29a52bd4693d0f614", "categories": [{"id": 13002, "name": "Bakery", "icon": {"prefix": "https://ss3.4sqi.net/img/categories_v2/food/bakery_", "suffix": ".png"}}, {"id": 13040, "name": "Dessert Shop", "icon": {"prefix": "https://ss3.4sqi.net/img/categories_v2/food/dessert_", "suffix": ".png"}}, {"id": 13065, "name": "Restaurant", "icon": {"prefix": "https://ss3.4sqi.net/img/categories_v2/food/default_", "suffix": ".png"}}], "chains": [], "distance": 46, "geocodes": {"main": {"latitude": 37.739894, "longitude": -122.409264}, "roof": {"latitude": 37.739894, "longitude": -122.409264}}, "link": "/v3/places/4e83dce29a52bd4693d0f614", "location": {"address": "1501 Cortland Ave", "census_block": "060750251003001", "country": "US", "cross_street": "at Bradford St", "dma": "San Francisco-Oakland-San Jose", "formatted_address": "1501 Cortland Ave (at Bradford St), San Francisco, CA 94110", "locality": "San Francisco", "neighborhood": ["Bayshore"], "postcode": "94110", "region": "CA"}, "name": "Sweet Lauren Cakes", "related_places": {}, "timezone": "America/Los_Angeles"}, {"fsq_id": "4f199887e4b0674e00e39eba", "categories": [{"id": 13059, "name": "Juice Bar", "icon": {"prefix": "https://ss3.4sqi.net/img/categories_v2/food/juicebar_", "suffix": ".png"}}], "chains": [], "distance": 54, "geocodes": {"main": {"latitude": 37.739869, "longitude": -122.409424}}, "link": "/v3/places/4f199887e4b0674e00e39eba", "location": {"address": "1501 Cortland Ave", "country": "US", "cross_street": "", "dma": "San Francisco-Oakland-San Jose", "formatted_address": "1501 Cortland Ave, San Francisco, CA 94110", "locality": "San Francisco", "neighborhood": ["Bayshore"], "postcode": "94110", "region": "CA"}, "name": "Living Greens", "related_places": {}, "timezone": "America/Los_Angeles"}, {"fsq_id": "4f6e1e86e4b0600332ffad64", "categories": [{"id": 13002, "name": "Bakery", "icon": {"prefix": "https://ss3.4sqi.net/img/categories_v2/food/bakery_", "suffix": ".png"}}, {"id": 13040, "name": "Dessert Shop", "icon": {"prefix": "https://ss3.4sqi.net/img/categories_v2/food/dessert_", "suffix": ".png"}}], "chains": [], "distance": 56, "geocodes": {"main": {"latitude": 37.739856, "longitude": -122.409333}, "roof": {"latitude": 37.739856, "longitude": -122.409333}}, "link": "/v3/places/4f6e1e86e4b0600332ffad64", "location": {"address": "1501 Cortland Ave", "census_block": "060750251003001", "country": "US", "cross_street": "", "dma": "San Francisco-Oakland-San Jose", "formatted_address": "1501 Cortland Ave, San Francisco, CA 94110", "locality": "San Francisco", "neighborhood": ["Bayshore"], "postcode": "94110", "region": "CA"}, "name": "Cake Coquette", "related_places": {}, "timezone": "America/Los_Angeles"}, {"fsq_id": "503f7b27e4b0703e74305611", "categories": [{"id": 13054, "name": "Food Truck", "icon": {"prefix": "https://ss3.4sqi.net/img/categories_v2/food/streetfood_", "suffix": ".png"}}], "chains": [], "distance": 81, "geocodes": {"main": {"latitude": 37.741592, "longitude": -122.405423}, "roof": {"latitude": 37.741592, "longitude": -122.405423}}, "link": "/v3/places/503f7b27e4b0703e74305611", "location": {"address": "353 Bay Shore Blvd", "census_block": "060759809001037", "country": "US", "cross_street": "", "dma": "San Francisco-Oakland-San Jose", "formatted_address": "353 Bay Shore Blvd, San Francisco, CA 94124", "locality": "San Francisco", "neighborhood": ["Bayshore"], "postcode": "94124", "region": "CA"}, "name": "Giant Burrito", "related_places": {}, "timezone": "America/Los_Angeles"}, {"fsq_id": "49dc45b2f964a5206b5f1fe3", "categories": [{"id": 13001, "name": "Bagel Shop", "icon": {"prefix": "https://ss3.4sqi.net/img/categories_v2/food/bagels_", "suffix": ".png"}}, {"id": 13043, "name": "Donut Shop", "icon": {"prefix": "https://ss3.4sqi.net/img/categories_v2/food/donuts_", "suffix": ".png"}}, {"id": 13049, "name": "Diner", "icon": {"prefix": "https://ss3.4sqi.net/img/categories_v2/food/diner_", "suffix": ".png"}}], "chains": [], "distance": 434, "geocodes": {"main": {"latitude": 37.742346, "longitude": -122.406046}}, "link": "/v3/places/49dc45b2f964a5206b5f1fe3", "location": {"address": "340 Bay Shore Blvd", "country": "US", "cross_street": "at Flower St", "dma": "San Francisco-Oakland-San Jose", "formatted_address": "340 Bay Shore Blvd (at Flower St), San Francisco, CA 94124", "locality": "San Francisco", "neighborhood": ["Bernal Heights"], "postcode": "94124", "region": "CA"}, "name": "Silver Crest Donut Shop", "related_places": {}, "timezone": "America/Los_Angeles"}, {"fsq_id": "4b79b5d6f964a520bd0c2fe3", "categories": [{"id": 13064, "name": "Pizzeria", "icon": {"prefix": "https://ss3.4sqi.net/img/categories_v2/food/pizza_", "suffix": ".png"}}], "chains": [], "distance": 401, "geocodes": {"main": {"latitude": 37.739052, "longitude": -122.413872}, "roof": {"latitude": 37.739052, "longitude": -122.413872}}, "link": "/v3/places/4b79b5d6f964a520bd0c2fe3", "location": {"address": "919 Cortland Ave", "census_block": "060750252003014", "country": "US", "dma": "San Francisco-Oakland-San Jose", "formatted_address": "919 Cortland Ave, San Francisco, CA 94110", "locality": "San Francisco", "neighborhood": ["Bayshore"], "postcode": "94110", "region": "CA"}, "name": "Pizza Express", "related_places": {}, "timezone": "America/Los_Angeles"}, {"fsq_id": "4af08d73f964a52029dd21e3", "categories": [{"id": 13145, "name": "Fast Food Restaurant", "icon": {"prefix": "https://ss3.4sqi.net/img/categories_v2/food/fastfood_", "suffix": ".png"}}, {"id": 13031, "name": "Burger Joint", "icon": {"prefix": "https://ss3.4sqi.net/img/categories_v2/food/burger_", "suffix": ".png"}}], "chains": [{"id": "ab4a3530-d68a-012e-5619-003048cad9da", "name": "McDonald's"}], "distance": 494, "geocodes": {"main": {"latitude": 37.742107, "longitude": -122.405095}, "roof": {"latitude": 37.742107, "longitude": -122.405095}}, "link": "/v3/places/4af08d73f964a52029dd21e3", "location": {"address": "345 Bay Shore Blvd", "census_block": "060759809001037", "country": "US", "cross_street": "Flower St", "dma": "San Francisco-Oakland-San Jose", "formatted_address": "345 Bay Shore Blvd (Flower St), San Francisco, CA 94124", "locality": "San Francisco", "neighborhood": ["Bayshore"], "postcode": "94124", "region": "CA"}, "name": "McDonald's", "related_places": {}, "timezone": "America/Los_Angeles"}, {"fsq_id": "608e198ffd12f559b7c2d152", "categories": [{"id": 13263, "name": "Japanese Restaurant", "icon": {"prefix": "https://ss3.4sqi.net/img/categories_v2/food/japanese_", "suffix": ".png"}}], "chains": [], "distance": 319, "geocodes": {"main": {"latitude": 37.738874, "longitude": -122.413198}}, "link": "/v3/places/608e198ffd12f559b7c2d152", "location": {"address": "1000 Cortland Ave", "country": "US", "cross_street": "", "dma": "San Francisco-Oakland-San Jose", "formatted_address": "1000 Cortland Ave, San Francisco, CA 94110", "locality": "San Francisco", "neighborhood": ["Bayshore"], "postcode": "94110", "region": "CA"}, "name": "Shokudou", "related_places": {}, "timezone": "America/Los_Angeles"}, {"fsq_id": "4fc32e60e4b07ac9fd462097", "categories": [{"id": 13145, "name": "Fast Food Restaurant", "icon": {"prefix": "https://ss3.4sqi.net/img/categories_v2/food/fastfood_", "suffix": ".png"}}], "chains": [], "distance": 320, "geocodes": {"main": {"latitude": 37.741538, "longitude": -122.406996}, "roof": {"latitude": 37.741538, "longitude": -122.406996}}, "link": "/v3/places/4fc32e60e4b07ac9fd462097", "location": {"address": "Bayshore Blvd", "census_block": "060750251003001", "country": "US", "cross_street": "", "dma": "San Francisco-Oakland-San Jose", "formatted_address": "Bayshore Blvd, San Francisco, CA 94124", "locality": "San Francisco", "neighborhood": ["Bayshore"], "postcode": "94124", "region": "CA"}, "name": "Bayshore Boulevard - Fast Food Row", "related_places": {}, "timezone": "America/Los_Angeles"}, {"fsq_id": "4e6fb9931f6e4bc055b905ef", "categories": [{"id": 13053, "name": "Food Stand", "icon": {"prefix": "https://ss3.4sqi.net/img/categories_v2/travel/movingtarget_", "suffix": ".png"}}], "chains": [], "distance": 334, "geocodes": {}, "link": "/v3/places/4e6fb9931f6e4bc055b905ef", "location": {"address": "1635 Rollins Rd", "census_block": "060759809001037", "country": "US", "cross_street": "", "dma": "San Francisco-Oakland-San Jose", "formatted_address": "1635 Rollins Rd, Burlingame, CA 94010", "locality": "Burlingame", "postcode": "94010", "region": "CA"}, "name": "Conchita Taco Truck", "related_places": {}, "timezone": "America/Los_Angeles"}, {"fsq_id": "4b738e4ef964a520d9b32de3", "categories": [{"id": 13064, "name": "Pizzeria", "icon": {"prefix": "https://ss3.4sqi.net/img/categories_v2/food/pizza_", "suffix": ".png"}}, {"id": 13145, "name": "Fast Food Restaurant", "icon": {"prefix": "https://ss3.4sqi.net/img/categories_v2/food/fastfood_", "suffix": ".png"}}], "chains": [{"id": "ab4afc60-d68a-012e-5619-003048cad9da", "name": "Domino's Pizza"}], "distance": 487, "geocodes": {"main": {"latitude": 37.742845, "longitude": -122.405711}, "roof": {"latitude": 37.742845, "longitude": -122.405711}}, "link": "/v3/places/4b738e4ef964a520d9b32de3", "location": {"address": "320 Bay Shore Blvd", "address_extended": "# B", "census_block": "060750251003001", "country": "US", "cross_street": "btwn Oakdale Ave & Flower St", "dma": "San Francisco-Oakland-San Jose", "formatted_address": "320 Bay Shore Blvd (btwn Oakdale Ave & Flower St), San Francisco, CA 94124", "locality": "San Francisco", "neighborhood": ["Bernal Heights"], "postcode": "94124", "region": "CA"}, "name": "Domino's Pizza", "related_places": {}, "timezone": "America/Los_Angeles"}, {"fsq_id": "4f11e4f1e4b067f6701faaa9", "categories": [{"id": 13002, "name": "Bakery", "icon": {"prefix": "https://ss3.4sqi.net/img/categories_v2/food/bakery_", "suffix": ".png"}}], "chains": [], "distance": 353, "geocodes": {"main": {"latitude": 37.737069, "longitude": -122.409026}, "roof": {"latitude": 37.737069, "longitude": -122.409026}}, "link": "/v3/places/4f11e4f1e4b067f6701faaa9", "location": {"address": "100 Alemany Blvd", "census_block": "060750251003006", "country": "US", "cross_street": "", "dma": "San Francisco-Oakland-San Jose", "formatted_address": "100 Alemany Blvd, San Francisco, CA 94110", "locality": "San Francisco", "neighborhood": ["Bayshore"], "postcode": "94110", "region": "CA"}, "name": "Panorama Baking", "related_places": {}, "timezone": "America/Los_Angeles"}, {"fsq_id": "4dc3d568c65b89d3ca442965", "categories": [{"id": 13064, "name": "Pizzeria", "icon": {"prefix": "https://ss3.4sqi.net/img/categories_v2/food/pizza_", "suffix": ".png"}}, {"id": 13145, "name": "Fast Food Restaurant", "icon": {"prefix": "https://ss3.4sqi.net/img/categories_v2/food/fastfood_", "suffix": ".png"}}], "chains": [], "distance": 353, "geocodes": {"main": {"latitude": 37.735849, "longitude": -122.410028}, "roof": {"latitude": 37.735849, "longitude": -122.410028}}, "link": "/v3/places/4dc3d568c65b89d3ca442965", "location": {"address": "100 Alemany Blvd", "census_block": "060750254023006", "country": "US", "cross_street": "", "dma": "San Francisco-Oakland-San Jose", "formatted_address": "100 Alemany Blvd, San Francisco, CA 94110", "locality": "San Francisco", "neighborhood": ["Bayshore"], "postcode": "94110", "region": "CA"}, "name": "Copper Top Ovens", "related_places": {}, "timezone": "America/Los_Angeles"}, {"fsq_id": "5ea23a66d941b00008718de9", "categories": [{"id": 13095, "name": "Cajun / Creole Restaurant", "icon": {"prefix": "https://ss3.4sqi.net/img/categories_v2/food/cajun_", "suffix": ".png"}}, {"id": 13338, "name": "Seafood Restaurant", "icon": {"prefix": "https://ss3.4sqi.net/img/categories_v2/food/seafood_", "suffix": ".png"}}], "chains": [], "distance": 409, "geocodes": {"main": {"latitude": 37.739085, "longitude": -122.414303}, "roof": {"latitude": 37.739085, "longitude": -122.414303}}, "link": "/v3/places/5ea23a66d941b00008718de9", "location": {"address": "803 Cortland Ave", "census_block": "060750252003012", "country": "US", "cross_street": "", "dma": "San Francisco-Oakland-San Jose", "formatted_address": "803 Cortland Ave, San Francisco, CA 94110", "locality": "San Francisco", "neighborhood": ["Bayshore"], "postcode": "94110", "region": "CA"}, "name": "Seafood Station", "related_places": {}, "timezone": "America/Los_Angeles"}, {"fsq_id": "4af1eff3f964a52088e421e3", "categories": [{"id": 13145, "name": "Fast Food Restaurant", "icon": {"prefix": "https://ss3.4sqi.net/img/categories_v2/food/fastfood_", "suffix": ".png"}}], "chains": [{"id": "53ec9922-69f9-4ee4-9c4e-b7e2fd4461ce", "name": "Jack In The Box"}], "distance": 339, "geocodes": {"main": {"latitude": 37.741619, "longitude": -122.406664}}, "link": "/v3/places/4af1eff3f964a52088e421e3", "location": {"address": "366 Bay Shore Blvd", "country": "US", "cross_street": "", "dma": "San Francisco-Oakland-San Jose", "formatted_address": "366 Bay Shore Blvd, San Francisco, CA 94124", "locality": "San Francisco", "neighborhood": ["Bayshore"], "postcode": "94124", "region": "CA"}, "name": "Jack In The Box", "related_places": {}, "timezone": "America/Los_Angeles"}, {"fsq_id": "5c2bb6ad1cf2e1002c77d8f9", "categories": [{"id": 13068, "name": "American Restaurant", "icon": {"prefix": "https://ss3.4sqi.net/img/categories_v2/food/default_", "suffix": ".png"}}, {"id": 13303, "name": "Mexican Restaurant", "icon": {"prefix": "https://ss3.4sqi.net/img/categories_v2/food/mexican_", "suffix": ".png"}}], "chains": [], "distance": 417, "geocodes": {"main": {"latitude": 37.738656, "longitude": -122.41435}, "roof": {"latitude": 37.738656, "longitude": -122.41435}}, "link": "/v3/places/5c2bb6ad1cf2e1002c77d8f9", "location": {"address": "800 Cortland Ave", "census_block": "060750254021000", "country": "US", "cross_street": "", "dma": "San Francisco-Oakland-San Jose", "formatted_address": "800 Cortland Ave, San Francisco, CA 94110", "locality": "San Francisco", "neighborhood": ["Bayshore"], "postcode": "94110", "region": "CA"}, "name": "Mix Traditions", "related_places": {}, "timezone": "America/Los_Angeles"}, {"fsq_id": "56b9559b498e903b985e9f35", "categories": [{"id": 13046, "name": "Ice Cream Parlor", "icon": {"prefix": "https://ss3.4sqi.net/img/categories_v2/food/icecream_", "suffix": ".png"}}], "chains": [], "distance": 418, "geocodes": {"main": {"latitude": 37.738656, "longitude": -122.41435}, "roof": {"latitude": 37.738656, "longitude": -122.41435}}, "link": "/v3/places/56b9559b498e903b985e9f35", "location": {"address": "800 Cortland Ave", "census_block": "060750254021000", "country": "US", "cross_street": "at Ellsworth St", "dma": "San Francisco-Oakland-San Jose", "formatted_address": "800 Cortland Ave (at Ellsworth St), San Francisco, CA 94110", "locality": "San Francisco", "neighborhood": ["Bayshore"], "postcode": "94110", "region": "CA"}, "name": "San Francisco Organic Cafe and Creamery", "related_places": {}, "timezone": "America/Los_Angeles"}, {"fsq_id": "4e444a4c18a8bafc6292ad54", "categories": [{"id": 13338, "name": "Seafood Restaurant", "icon": {"prefix": "https://ss3.4sqi.net/img/categories_v2/food/seafood_", "suffix": ".png"}}], "chains": [], "distance": 487, "geocodes": {"main": {"latitude": 37.742866, "longitude": -122.405707}}, "link": "/v3/places/4e444a4c18a8bafc6292ad54", "location": {"address": "310 Bay Shore Blvd", "country": "US", "cross_street": "", "dma": "San Francisco-Oakland-San Jose", "formatted_address": "310 Bay Shore Blvd, San Francisco, CA 94124", "locality": "San Francisco", "neighborhood": ["Bernal Heights"], "postcode": "94124", "region": "CA"}, "name": "Jr Seafood", "related_places": {}, "timezone": "America/Los_Angeles"}, {"fsq_id": "50a92ed9e4b0f07660855257", "categories": [{"id": 13059, "name": "Juice Bar", "icon": {"prefix": "https://ss3.4sqi.net/img/categories_v2/food/juicebar_", "suffix": ".png"}}], "chains": [], "distance": 489, "geocodes": {"main": {"latitude": 37.740448, "longitude": -122.404567}, "roof": {"latitude": 37.740448, "longitude": -122.404567}}, "link": "/v3/places/50a92ed9e4b0f07660855257", "location": {"address": "540 Barneveld Ave", "address_extended": "Ste C", "census_block": "060759809001039", "country": "US", "cross_street": "Apparel", "dma": "San Francisco-Oakland-San Jose", "formatted_address": "540 Barneveld Ave (Apparel), San Francisco, CA 94124", "locality": "San Francisco", "neighborhood": ["Bayshore"], "postcode": "94124", "region": "CA"}, "name": "Juice Shop Pickup Location", "related_places": {}, "timezone": "America/Los_Angeles"}, {"fsq_id": "4bf818f74a67c9285cbe24cf", "categories": [{"id": 13054, "name": "Food Truck", "icon": {"prefix": "https://ss3.4sqi.net/img/categories_v2/food/streetfood_", "suffix": ".png"}}], "chains": [], "distance": 498, "geocodes": {"main": {"latitude": 37.735632, "longitude": -122.410302}, "roof": {"latitude": 37.735632, "longitude": -122.410302}}, "link": "/v3/places/4bf818f74a67c9285cbe24cf", "location": {"address": "100 Alemany Blvd", "census_block": "060750254023006", "country": "US", "cross_street": "Alemany Farmers' Market", "dma": "San Francisco-Oakland-San Jose", "formatted_address": "100 Alemany Blvd (Alemany Farmers' Market), San Francisco, CA 94110", "locality": "San Francisco", "neighborhood": ["Bayshore"], "postcode": "94110", "region": "CA"}, "name": "Good Foods BBQ", "related_places": {}, "timezone": "America/Los_Angeles"}, {"fsq_id": "4ef258da991151406c6c8953", "categories": [{"id": 13387, "name": "Winery", "icon": {"prefix": "https://ss3.4sqi.net/img/categories_v2/food/winery_", "suffix": ".png"}}], "chains": [], "distance": 687, "geocodes": {"main": {"latitude": 37.740643, "longitude": -122.404579}, "roof": {"latitude": 37.740643, "longitude": -122.404579}}, "link": "/v3/places/4ef258da991151406c6c8953", "location": {"address": "540 Barneveld Ave", "address_extended": "Ste K", "census_block": "060759809001039", "country": "US", "cross_street": "", "dma": "San Francisco-Oakland-San Jose", "formatted_address": "540 Barneveld Ave, San Francisco, CA 94124", "locality": "San Francisco", "neighborhood": ["Bayshore"], "postcode": "94124", "region": "CA"}, "name": "August West Wine", "related_places": {}, "timezone": "America/Los_Angeles"}, {"fsq_id": "1794a0d49a2947daaec7ff45", "categories": [{"id": 13065, "name": "Restaurant", "icon": {"prefix": "https://ss3.4sqi.net/img/categories_v2/food/default_", "suffix": ".png"}}], "chains": [], "distance": 56, "geocodes": {"main": {"latitude": 37.739998, "longitude": -122.409358}}, "link": "/v3/places/1794a0d49a2947daaec7ff45", "location": {"address": "1501 Cortland Ave", "country": "US", "dma": "San Francisco-Oakland-San Jose", "formatted_address": "1501 Cortland Ave, San Francisco, CA 94110", "locality": "San Francisco", "neighborhood": ["Bayshore"], "postcode": "94110", "region": "CA"}, "name": "Salty Sweet", "related_places": {}}, {"fsq_id": "0681b24c19db443fcbda66f9", "categories": [{"id": 13387, "name": "Winery", "icon": {"prefix": "https://ss3.4sqi.net/img/categories_v2/food/winery_", "suffix": ".png"}}], "chains": [], "distance": 118, "geocodes": {"main": {"latitude": 37.739612, "longitude": -122.411253}, "roof": {"latitude": 37.739612, "longitude": -122.411253}}, "link": "/v3/places/0681b24c19db443fcbda66f9", "location": {"address": "205 Nevada St", "census_block": "060750254023001", "country": "US", "dma": "San Francisco-Oakland-San Jose", "formatted_address": "205 Nevada St, San Francisco, CA 94110", "locality": "San Francisco", "neighborhood": ["Bayshore"], "postcode": "94110", "region": "CA"}, "name": "San Francisco Winery", "related_places": {}}, {"fsq_id": "077d15483a004c2a15bfebfe", "categories": [{"id": 13065, "name": "Restaurant", "icon": {"prefix": "https://ss3.4sqi.net/img/categories_v2/food/default_", "suffix": ".png"}}], "chains": [], "distance": 130, "geocodes": {"main": {"latitude": 37.741168, "longitude": -122.410127}, "roof": {"latitude": 37.741168, "longitude": -122.410127}}, "link": "/v3/places/077d15483a004c2a15bfebfe", "location": {"address": "1010 Powhattan Ave", "census_block": "060750251003009", "country": "US", "dma": "San Francisco-Oakland-San Jose", "formatted_address": "1010 Powhattan Ave, San Francisco, CA 94110", "locality": "San Francisco", "neighborhood": ["Bayshore"], "postcode": "94110", "region": "CA"}, "name": "Brittlestar", "related_places": {}}, {"fsq_id": "aef538e08ce5406b30f035db", "categories": [{"id": 13065, "name": "Restaurant", "icon": {"prefix": "https://ss3.4sqi.net/img/categories_v2/food/default_", "suffix": ".png"}}], "chains": [], "distance": 185, "geocodes": {"main": {"latitude": 37.740739, "longitude": -122.411893}, "roof": {"latitude": 37.740739, "longitude": -122.411893}}, "link": "/v3/places/aef538e08ce5406b30f035db", "location": {"address": "149 Prentiss St", "census_block": "060750252003010", "country": "US", "dma": "San Francisco-Oakland-San Jose", "formatted_address": "149 Prentiss St, San Francisco, CA 94110", "locality": "San Francisco", "neighborhood": ["Bayshore"], "postcode": "94110", "region": "CA"}, "name": "Grow Your Lunch", "related_places": {}}, {"fsq_id": "1f66e6c82fc14010c990b2c8", "categories": [{"id": 13047, "name": "Pastry Shop", "icon": {"prefix": "https://ss3.4sqi.net/img/categories_v2/food/dessert_", "suffix": ".png"}}], "chains": [], "distance": 185, "geocodes": {"main": {"latitude": 37.741462, "longitude": -122.408974}}, "link": "/v3/places/1f66e6c82fc14010c990b2c8", "location": {"address": "694 Peralta Ave", "country": "US", "dma": "San Francisco-Oakland-San Jose", "formatted_address": "694 Peralta Ave, San Francisco, CA 94110", "locality": "San Francisco", "neighborhood": ["Bayshore"], "postcode": "94110", "region": "CA"}, "name": "Cups & Cakes Bakery", "related_places": {}}, {"fsq_id": "6d9bc38a736b45ef71c80c45", "categories": [{"id": 13003, "name": "Bar", "icon": {"prefix": "https://ss3.4sqi.net/img/categories_v2/nightlife/pub_", "suffix": ".png"}}], "chains": [], "distance": 314, "geocodes": {"main": {"latitude": 37.738743, "longitude": -122.413209}, "roof": {"latitude": 37.738743, "longitude": -122.413209}}, "link": "/v3/places/6d9bc38a736b45ef71c80c45", "location": {"address": "1000 Cortland Ave", "census_block": "060750254022001", "country": "US", "dma": "San Francisco-Oakland-San Jose", "formatted_address": "1000 Cortland Ave, San Francisco, CA 94110", "locality": "San Francisco", "neighborhood": ["Bayshore"], "postcode": "94110", "region": "CA"}, "name": "Skillshot Pinball And Bar", "related_places": {}}, {"fsq_id": "f74ebe38158f42df3bb1d37d", "categories": [{"id": 13064, "name": "Pizzeria", "icon": {"prefix": "https://ss3.4sqi.net/img/categories_v2/food/pizza_", "suffix": ".png"}}], "chains": [], "distance": 327, "geocodes": {"main": {"latitude": 37.739204, "longitude": -122.413594}, "roof": {"latitude": 37.739204, "longitude": -122.413594}}, "link": "/v3/places/f74ebe38158f42df3bb1d37d", "location": {"address": "919 Cortland Ave", "census_block": "060750252003014", "country": "US", "dma": "San Francisco-Oakland-San Jose", "formatted_address": "919 Cortland Ave, San Francisco, CA 94110", "locality": "San Francisco", "neighborhood": ["Bayshore"], "postcode": "94110", "region": "CA"}, "name": "A Skopos", "related_places": {}}, {"fsq_id": "dd5a59faae5f43e0ea1cbdf1", "categories": [{"id": 13054, "name": "Food Truck", "icon": {"prefix": "https://ss3.4sqi.net/img/categories_v2/food/streetfood_", "suffix": ".png"}}], "chains": [], "distance": 334, "geocodes": {"main": {"latitude": 37.738865, "longitude": -122.40648}, "roof": {"latitude": 37.738865, "longitude": -122.40648}}, "link": "/v3/places/dd5a59faae5f43e0ea1cbdf1", "location": {"address": "531 Bay Shore Blvd", "census_block": "060759809001061", "country": "US", "dma": "San Francisco-Oakland-San Jose", "formatted_address": "531 Bay Shore Blvd, San Francisco, CA 94124", "locality": "San Francisco", "neighborhood": ["Bayshore"], "postcode": "94124", "region": "CA"}, "name": "La Jefa Taco Truck", "related_places": {}}, {"fsq_id": "71f5eef0bef8012e48cad9da", "categories": [{"id": 13297, "name": "Latin American Restaurant", "icon": {"prefix": "https://ss3.4sqi.net/img/categories_v2/food/latinamerican_", "suffix": ".png"}}, {"id": 13303, "name": "Mexican Restaurant", "icon": {"prefix": "https://ss3.4sqi.net/img/categories_v2/food/mexican_", "suffix": ".png"}}], "chains": [], "distance": 336, "geocodes": {"main": {"latitude": 37.737069, "longitude": -122.409026}, "roof": {"latitude": 37.737069, "longitude": -122.409026}}, "link": "/v3/places/71f5eef0bef8012e48cad9da", "location": {"address": "100 Alemany Blvd", "census_block": "060750251003006", "country": "US", "dma": "San Francisco-Oakland-San Jose", "formatted_address": "100 Alemany Blvd, San Francisco, CA 94110", "locality": "San Francisco", "neighborhood": ["Bayshore"], "postcode": "94110", "region": "CA"}, "name": "All Star Tamales", "related_places": {}}, {"fsq_id": "36ccb1730a1b4f949108c967", "categories": [{"id": 13236, "name": "Italian Restaurant", "icon": {"prefix": "https://ss3.4sqi.net/img/categories_v2/food/italian_", "suffix": ".png"}}], "chains": [], "distance": 336, "geocodes": {"main": {"latitude": 37.737069, "longitude": -122.409026}, "roof": {"latitude": 37.737069, "longitude": -122.409026}}, "link": "/v3/places/36ccb1730a1b4f949108c967", "location": {"address": "100 Alemany Blvd", "census_block": "060750251003006", "country": "US", "dma": "San Francisco-Oakland-San Jose", "formatted_address": "100 Alemany Blvd, San Francisco, CA 94110", "locality": "San Francisco", "neighborhood": ["Bayshore"], "postcode": "94110", "region": "CA"}, "name": "IL Pastaio Fresh Pasta", "related_places": {}}, {"fsq_id": "6316cf023f36423237ffcac9", "categories": [{"id": 13002, "name": "Bakery", "icon": {"prefix": "https://ss3.4sqi.net/img/categories_v2/food/bakery_", "suffix": ".png"}}, {"id": 13343, "name": "South American Restaurant", "icon": {"prefix": "https://ss3.4sqi.net/img/categories_v2/food/argentinian_", "suffix": ".png"}}], "chains": [], "distance": 340, "geocodes": {"main": {"latitude": 37.736982, "longitude": -122.409307}, "roof": {"latitude": 37.736982, "longitude": -122.409307}}, "link": "/v3/places/6316cf023f36423237ffcac9", "location": {"address": "100 Alemany Blvd", "census_block": "060750251003006", "country": "US", "dma": "San Francisco-Oakland-San Jose", "formatted_address": "100 Alemany Blvd, San Francisco, CA 94110", "locality": "San Francisco", "neighborhood": ["Bayshore"], "postcode": "94110", "region": "CA"}, "name": "Sabores Del Sur", "related_places": {}}, {"fsq_id": "267f6f3de1cf4d7889d9c109", "categories": [{"id": 13068, "name": "American Restaurant", "icon": {"prefix": "https://ss3.4sqi.net/img/categories_v2/food/default_", "suffix": ".png"}}, {"id": 13145, "name": "Fast Food Restaurant", "icon": {"prefix": "https://ss3.4sqi.net/img/categories_v2/food/fastfood_", "suffix": ".png"}}, {"id": 13272, "name": "Ramen Restaurant", "icon": {"prefix": "https://ss3.4sqi.net/img/categories_v2/food/ramen_", "suffix": ".png"}}], "chains": [], "distance": 343, "geocodes": {"main": {"latitude": 37.739063, "longitude": -122.413729}, "roof": {"latitude": 37.739063, "longitude": -122.413729}}, "link": "/v3/places/267f6f3de1cf4d7889d9c109", "location": {"address": "903 Cortland Ave", "census_block": "060750252003014", "country": "US", "dma": "San Francisco-Oakland-San Jose", "formatted_address": "903 Cortland Ave, San Francisco, CA 94110", "locality": "San Francisco", "neighborhood": ["Bayshore"], "postcode": "94110", "region": "CA"}, "name": "Eat at 903", "related_places": {}}], "context": {"geo_bounds": {"circle": {"center": {"latitude": 37.74, "longitude": -122.41}, "radius": 500}}}}