{"results": [{"fsq_id": "514d0217e4b089e3fea1f1f2", "categories": [{"id": 13054, "name": "Food Truck", "icon": {"prefix": "https://ss3.4sqi.net/img/categories_v2/food/streetfood_", "suffix": ".png"}}], "chains": [], "distance": 111, "geocodes": {}, "link": "/v3/places/514d0217e4b089e3fea1f1f2", "location": {"address": "428 11th St", "census_block": "060750126022000", "country": "US", "cross_street": "", "dma": "San Francisco-Oakland-San Jose", "formatted_address": "428 11th St, San Francisco, CA 94103", "locality": "San Francisco", "postcode": "94103", "region": "CA"}, "name": "Rocko's Ice Cream Tacos", "related_places": {}, "timezone": "America/Los_Angeles"}, {"fsq_id": "4bcb6c42cc8cd13a4161bfcf", "categories": [{"id": 13026, "name": "BBQ Joint", "icon": {"prefix": "https://ss3.4sqi.net/img/categories_v2/food/bbqalt_", "suffix": ".png"}}], "chains": [], "distance": 494, "geocodes": {"main": {"latitude": 37.767516, "longitude": -122.485417}}, "link": "/v3/places/4bcb6c42cc8cd13a4161bfcf", "location": {"address": "Golden Gate Park", "census_block": "060759803001043", "country": "US", "cross_street": "", "dma": "San Francisco-Oakland-San Jose", "formatted_address": "Golden Gate Park, San Francisco, CA 94122", "locality": "San Francisco", "neighborhood": ["Golden Gate Park"], "postcode": "94122", "region": "CA"}, "name": "Dirtybird BBQ", "related_places": {"parent": {"fsq_id": "445e36bff964a520fb321fe3", "name": "Golden Gate Park"}}, "timezone": "America/Los_Angeles"}, {"fsq_id": "0ab31f6a05b34e573708eb38", "categories": [{"id": 13064, "name": "Pizzeria", "icon": {"prefix": "https://ss3.4sqi.net/img/categories_v2/food/pizza_", "suffix": ".png"}}], "chains": [{"id": "1e3491fd-4c85-4d55-ac11-a2d556a97c06", "name": "Shakey's Pizza"}], "distance": 271, "geocodes": {"main": {"latitude": 37.772438, "longitude": -122.489795}, "roof": {"latitude": 37.772438, "longitude": -122.489795}}, "link": "/v3/places/0ab31f6a05b34e573708eb38", "location": {"address": "5400 Fulton St", "census_block": "060750478011001", "country": "US", "dma": "San Francisco-Oakland-San Jose", "formatted_address": "5400 Fulton St, San Francisco, CA 94121", "locality": "San Francisco", "neighborhood": ["Central Richmond"], "postcode": "94121", "region": "CA"}, "name": "Shakey's Pizza", "related_places": {}}], "context": {"geo_bounds": {"circle": {"center": {"latitude": 37.77, "longitude": -122.49}, "radius": 500}}}}