{"results": [{"fsq_id": "3fd66200f964a520dbec1ee3", "categories": [{"id": 13236, "name": "Italian Restaurant", "icon": {"prefix": "https://ss3.4sqi.net/img/categories_v2/food/italian_", "suffix": ".png"}}], "chains": [], "distance": 172, "geocodes": {"main": {"latitude": 37.781396, "longitude": -122.460808}, "roof": {"latitude": 37.781396, "longitude": -122.460808}}, "link": "/v3/places/3fd66200f964a520dbec1ee3", "location": {"address": "3854 Geary Blvd", "census_block": "060750401003001", "country": "US", "cross_street": "at 3rd Ave", "dma": "San Francisco-Oakland-San Jose", "formatted_address": "3854 Geary Blvd (at 3rd Ave), San Francisco, CA 94118", "locality": "San Francisco", "neighborhood": ["Inner Richmond"], "postcode": "94118", "region": "CA"}, "name": "Bella Restaurant Trattoria", "related_places": {}, "timezone": "America/Los_Angeles"}, {"fsq_id": "4c0095c6379020a128d1467f", "categories": [{"id": 13068, "name": "American Restaurant", "icon": {"prefix": "https://ss3.4sqi.net/img/categories_v2/food/default_", "suffix": ".png"}}, {"id": 13072, "name": "Asian Restaurant", "icon": {"prefix": "https://ss3.4sqi.net/img/categories_v2/food/asian_", "suffix": ".png"}}, {"id": 13094, "name": "Burmese Restaurant", "icon": {"prefix": "https://ss3.4sqi.net/img/categories_v2/food/asian_", "suffix": ".png"}}], "chains": [], "distance": 347, "geocodes": {"main": {"latitude": 37.782968, "longitude": -122.460758}, "roof": {"latitude": 37.782968, "longitude": -122.460758}}, "link": "/v3/places/4c0095c6379020a128d1467f", "location": {"address": "127 Clement St", "census_block": "060750401003001", "country": "US", "cross_street": "btwn 2nd & 3rd Ave", "dma": "San Francisco-Oakland-San Jose", "formatted_address": "127 Clement St (btwn 2nd & 3rd Ave), San Francisco, CA 94118", "locality": "San Francisco", "neighborhood": ["Inner Richmond"], "postcode": "94118", "region": "CA"}, "name": "B Star Cafe", "related_places": {}, "timezone": "America/Los_Angeles"}, {"fsq_id": "55203ab9498eb807ad0e6da5", "categories": [{"id": 13002, "name": "Bakery", "icon": {"prefix": "https://ss3.4sqi.net/img/categories_v2/food/bakery_", "suffix": ".png"}}, {"id": 13065, "name": "Restaurant", "icon": {"prefix": "https://ss3.4sqi.net/img/categories_v2/food/default_", "suffix": ".png"}}], "chains": [], "distance": 390, "geocodes": {"main": {"latitude": 37.783349, "longitude": -122.459204}, "roof": {"latitude": 37.783349, "longitude": -122.459204}}, "link": "/v3/places/55203ab9498eb807ad0e6da5", "location": {"address": "397 Arguello Blvd", "census_block": "060750401002005", "country": "US", "cross_street": "at Clement St", "dma": "San Francisco-Oakland-San Jose", "formatted_address": "397 Arguello Blvd (at Clement St), San Francisco, CA 94118", "locality": "San Francisco", "neighborhood": ["Inner Richmond"], "postcode": "94118", "region": "CA"}, "name": "Arsicault Bakery", "related_places": {}, "timezone": "America/Los_Angeles"}, {"fsq_id": "42cc7080f964a520e7251fe3", "categories": [{"id": 13072, "name": "Asian Restaurant", "icon": {"prefix": "https://ss3.4sqi.net/img/categories_v2/food/asian_", "suffix": ".png"}}, {"id": 13094, "name": "Burmese Restaurant", "icon": {"prefix": "https://ss3.4sqi.net/img/categories_v2/food/asian_", "suffix": ".png"}}, {"id": 13099, "name": "Chinese Restaurant", "icon": {"prefix": "https://ss3.4sqi.net/img/categories_v2/food/asian_", "suffix": ".png"}}], "chains": [], "distance": 404, "geocodes": {"main": {"latitude": 37.782902, "longitude": -122.462474}, "roof": {"latitude": 37.782902, "longitude": -122.462474}}, "link": "/v3/places/42cc7080f964a520e7251fe3", "location": {"address": "309 Clement St", "census_block": "060750401003003", "country": "US", "cross_street": "btwn 4th & 5th Ave", "dma": "San Francisco-Oakland-San Jose", "formatted_address": "309 Clement St (btwn 4th & 5th Ave), San Francisco, CA 94118", "locality": "San Francisco", "neighborhood": ["Inner Richmond"], "postcode": "94118", "region": "CA"}, "name": "Burma Superstar", "related_places": {}, "timezone": "America/Los_Angeles"}, {"fsq_id": "3fd66200f964a520deec1ee3", "categories": [{"id": 13026, "name": "BBQ Joint", "icon": {"prefix": "https://ss3.4sqi.net/img/categories_v2/food/bbqalt_", "suffix": ".png"}}, {"id": 13289, "name": "Korean Restaurant", "icon": {"prefix": "https://ss3.4sqi.net/img/categories_v2/food/korean_", "suffix": ".png"}}], "chains": [], "distance": 364, "geocodes": {"main": {"latitude": 37.781231, "longitude": -122.463808}, "roof": {"latitude": 37.781231, "longitude": -122.463808}}, "link": "/v3/places/3fd66200f964a520deec1ee3", "location": {"address": "4128 Geary Blvd", "census_block": "060750401003004", "country": "US", "cross_street": "between 5th Ave & 6th Ave", "dma": "San Francisco-Oakland-San Jose", "formatted_address": "4128 Geary Blvd (between 5th Ave & 6th Ave), San Francisco, CA 94118", "locality": "San Francisco", "neighborhood": ["Inner Richmond"], "postcode": "94118", "region": "CA"}, "name": "Brothers Restaurant", "related_places": {}, "timezone": "America/Los_Angeles"}, {"fsq_id": "3fd66200f964a520e5ec1ee3", "categories": [{"id": 13002, "name": "Bakery", "icon": {"prefix": "https://ss3.4sqi.net/img/categories_v2/food/bakery_", "suffix": ".png"}}, {"id": 13039, "name": "Deli", "icon": {"prefix": "https://ss3.4sqi.net/img/categories_v2/food/deli_", "suffix": ".png"}}, {"id": 13329, "name": "Russian Restaurant", "icon": {"prefix": "https://ss3.4sqi.net/img/categories_v2/food/russian_", "suffix": ".png"}}], "chains": [], "distance": 439, "geocodes": {"main": {"latitude": 37.777394, "longitude": -122.46358}, "roof": {"latitude": 37.777394, "longitude": -122.46358}}, "link": "/v3/places/3fd66200f964a520e5ec1ee3", "location": {"address": "436 Balboa St", "census_block": "060750451003003", "country": "US", "cross_street": "btwn 5th & 6th Ave", "dma": "San Francisco-Oakland-San Jose", "formatted_address": "436 Balboa St (btwn 5th & 6th Ave), San Francisco, CA 94118", "locality": "San Francisco", "neighborhood": ["Inner Richmond"], "postcode": "94118", "region": "CA"}, "name": "Cinderella Bakery & Caf\u00e9", "related_places": {}, "timezone": "America/Los_Angeles"}, {"fsq_id": "42829c80f964a52020221fe3", "categories": [{"id": 13041, "name": "Creperie", "icon": {"prefix": "https://ss3.4sqi.net/img/categories_v2/food/creperie_", "suffix": ".png"}}, {"id": 13148, "name": "French Restaurant", "icon": {"prefix": "https://ss3.4sqi.net/img/categories_v2/food/french_", "suffix": ".png"}}, {"id": 13276, "name": "Sushi Restaurant", "icon": {"prefix": "https://ss3.4sqi.net/img/categories_v2/food/sushi_", "suffix": ".png"}}], "chains": [], "distance": 418, "geocodes": {"main": {"latitude": 37.78314, "longitude": -122.462775}, "roof": {"latitude": 37.78314, "longitude": -122.462775}}, "link": "/v3/places/42829c80f964a52020221fe3", "location": {"address": "330 Clement St", "census_block": "060750401004005", "country": "US", "cross_street": "btwn 4th & 5th", "dma": "San Francisco-Oakland-San Jose", "formatted_address": "330 Clement St (btwn 4th & 5th), San Francisco, CA 94118", "locality": "San Francisco", "neighborhood": ["Inner Richmond"], "postcode": "94118", "region": "CA"}, "name": "Genki Crepes", "related_places": {}, "timezone": "America/Los_Angeles"}, {"fsq_id": "5c9992c433e118002c82645c", "categories": [{"id": 13025, "name": "Wine Bar", "icon": {"prefix": "https://ss3.4sqi.net/img/categories_v2/food/winery_", "suffix": ".png"}}, {"id": 13035, "name": "Coffee Shop", "icon": {"prefix": "https://ss3.4sqi.net/img/categories_v2/food/coffeeshop_", "suffix": ".png"}}], "chains": [], "distance": 374, "geocodes": {"main": {"latitude": 37.783414, "longitude": -122.459208}, "roof": {"latitude": 37.783414, "longitude": -122.459208}}, "link": "/v3/places/5c9992c433e118002c82645c", "location": {"address": "2 Clement St", "census_block": "060750401002005", "country": "US", "cross_street": "Arguello Boulevard", "dma": "San Francisco-Oakland-San Jose", "formatted_address": "2 Clement St (Arguello Boulevard), San Francisco, CA 94118", "locality": "San Francisco", "neighborhood": ["Inner Richmond"], "postcode": "94118", "region": "CA"}, "name": "Breck's", "related_places": {}, "timezone": "America/Los_Angeles"}, {"fsq_id": "436d4780f964a520c9291fe3", "categories": [{"id": 13065, "name": "Restaurant", "icon": {"prefix": "https://ss3.4sqi.net/img/categories_v2/food/default_", "suffix": ".png"}}], "chains": [], "distance": 442, "geocodes": {"main": {"latitude": 37.777096, "longitude": -122.463634}, "roof": {"latitude": 37.777096, "longitude": -122.463634}}, "link": "/v3/places/436d4780f964a520c9291fe3", "location": {"address": "452 Balboa St", "census_block": "060750451002002", "country": "US", "cross_street": "at 6th Ave", "dma": "San Francisco-Oakland-San Jose", "formatted_address": "452 Balboa St (at 6th Ave), San Francisco, CA 94118", "locality": "San Francisco", "neighborhood": ["Inner Richmond"], "postcode": "94118", "region": "CA"}, "name": "Sushi Bistro", "related_places": {}, "timezone": "America/Los_Angeles"}, {"fsq_id": "3fd66200f964a520ecec1ee3", "categories": [{"id": 13068, "name": "American Restaurant", "icon": {"prefix": "https://ss3.4sqi.net/img/categories_v2/food/default_", "suffix": ".png"}}, {"id": 13334, "name": "Sandwich Restaurant", "icon": {"prefix": "https://ss3.4sqi.net/img/categories_v2/food/deli_", "suffix": ".png"}}], "chains": [], "distance": 364, "geocodes": {"main": {"latitude": 37.783305, "longitude": -122.459775}, "roof": {"latitude": 37.783305, "longitude": -122.459775}}, "link": "/v3/places/3fd66200f964a520ecec1ee3", "location": {"address": "50 Clement St", "census_block": "060750401002005", "country": "US", "cross_street": "at 2nd Ave", "dma": "San Francisco-Oakland-San Jose", "formatted_address": "50 Clement St (at 2nd Ave), San Francisco, CA 94118", "locality": "San Francisco", "neighborhood": ["Inner Richmond"], "postcode": "94118", "region": "CA"}, "name": "Eats", "related_places": {}, "timezone": "America/Los_Angeles"}, {"fsq_id": "51eb348d498efde2657abad0", "categories": [{"id": 13033, "name": "Bubble Tea Shop", "icon": {"prefix": "https://ss3.4sqi.net/img/categories_v2/food/bubble_", "suffix": ".png"}}, {"id": 13034, "name": "Caf\u00e9", "icon": {"prefix": "https://ss3.4sqi.net/img/categories_v2/food/cafe_", "suffix": ".png"}}, {"id": 13065, "name": "Restaurant", "icon": {"prefix": "https://ss3.4sqi.net/img/categories_v2/food/default_", "suffix": ".png"}}], "chains": [], "distance": 151, "geocodes": {"main": {"latitude": 37.781396, "longitude": -122.460808}, "roof": {"latitude": 37.781396, "longitude": -122.460808}}, "link": "/v3/places/51eb348d498efde2657abad0", "location": {"address": "3836 Geary Blvd", "census_block": "060750401003001", "country": "US", "cross_street": "at 2nd Ave", "dma": "San Francisco-Oakland-San Jose", "formatted_address": "3836 Geary Blvd (at 2nd Ave), San Francisco, CA 94118", "locality": "San Francisco", "neighborhood": ["Inner Richmond"], "postcode": "94118", "region": "CA"}, "name": "Little Sweet", "related_places": {}, "timezone": "America/Los_Angeles"}, {"fsq_id": "569b2620498ef437b62ecd5e", "categories": [{"id": 10000, "name": "Arts and Entertainment", "icon": {"prefix": "https://ss3.4sqi.net/img/categories_v2/arts_entertainment/default_", "suffix": ".png"}}, {"id": 13025, "name": "Wine Bar", "icon": {"prefix": "https://ss3.4sqi.net/img/categories_v2/food/winery_", "suffix": ".png"}}, {"id": 13068, "name": "American Restaurant", "icon": {"prefix": "https://ss3.4sqi.net/img/categories_v2/food/default_", "suffix": ".png"}}], "chains": [], "distance": 479, "geocodes": {"main": {"latitude": 37.782819, "longitude": -122.463974}, "roof": {"latitude": 37.782819, "longitude": -122.463974}}, "link": "/v3/places/569b2620498ef437b62ecd5e", "location": {"address": "443 Clement St", "census_block": "060750401003004", "country": "US", "cross_street": "", "dma": "San Francisco-Oakland-San Jose", "formatted_address": "443 Clement St, San Francisco, CA 94118", "locality": "San Francisco", "neighborhood": ["Inner Richmond"], "postcode": "94118", "region": "CA"}, "name": "High Treason", "related_places": {"children": []}, "timezone": "America/Los_Angeles"}, {"fsq_id": "4b2187ebf964a5205c3d24e3", "categories": [{"id": 13031, "name": "Burger Joint", "icon": {"prefix": "https://ss3.4sqi.net/img/categories_v2/food/burger_", "suffix": ".png"}}, {"id": 13068, "name": "American Restaurant", "icon": {"prefix": "https://ss3.4sqi.net/img/categories_v2/food/default_", "suffix": ".png"}}, {"id": 13145, "name": "Fast Food Restaurant", "icon": {"prefix": "https://ss3.4sqi.net/img/categories_v2/food/fastfood_", "suffix": ".png"}}], "chains": [], "distance": 329, "geocodes": {"main": {"latitude": 37.777233, "longitude": -122.46142}, "roof": {"latitude": 37.777233, "longitude": -122.46142}}, "link": "/v3/places/4b2187ebf964a5205c3d24e3", "location": {"address": "245 Balboa St", "census_block": "060750451002000", "country": "US", "cross_street": "btwn 4th Ave & 3rd Ave", "dma": "San Francisco-Oakland-San Jose", "formatted_address": "245 Balboa St (btwn 4th Ave & 3rd Ave), San Francisco, CA 94118", "locality": "San Francisco", "neighborhood": ["Inner Richmond"], "postcode": "94118", "region": "CA"}, "name": "Uncle Boy's", "related_places": {}, "timezone": "America/Los_Angeles"}, {"fsq_id": "58ea973be110957407e96ead", "categories": [{"id": 13297, "name": "Latin American Restaurant", "icon": {"prefix": "https://ss3.4sqi.net/img/categories_v2/food/latinamerican_", "suffix": ".png"}}, {"id": 13306, "name": "Taco Restaurant", "icon": {"prefix": "https://ss3.4sqi.net/img/categories_v2/food/taco_", "suffix": ".png"}}], "chains": [], "distance": 403, "geocodes": {"main": {"latitude": 37.782853, "longitude": -122.462686}, "roof": {"latitude": 37.782853, "longitude": -122.462686}}, "link": "/v3/places/58ea973be110957407e96ead", "location": {"address": "331 Clement St", "census_block": "060750401003003", "country": "US", "cross_street": "4th Ave", "dma": "San Francisco-Oakland-San Jose", "formatted_address": "331 Clement St (4th Ave), San Francisco, CA 94118", "locality": "San Francisco", "neighborhood": ["Inner Richmond"], "postcode": "94118", "region": "CA"}, "name": "Taqueria Los Mayas", "related_places": {}, "timezone": "America/Los_Angeles"}, {"fsq_id": "4e233347ae6015b212b7dd6e", "categories": [{"id": 13379, "name": "Vietnamese Restaurant", "icon": {"prefix": "https://ss3.4sqi.net/img/categories_v2/food/vietnamese_", "suffix": ".png"}}], "chains": [], "distance": 464, "geocodes": {"main": {"latitude": 37.782868, "longitude": -122.463762}, "roof": {"latitude": 37.782868, "longitude": -122.463762}}, "link": "/v3/places/4e233347ae6015b212b7dd6e", "location": {"address": "417 Clement St", "census_block": "060750401003004", "country": "US", "cross_street": "btwn 5th & 6th Ave", "dma": "San Francisco-Oakland-San Jose", "formatted_address": "417 Clement St (btwn 5th & 6th Ave), San Francisco, CA 94118", "locality": "San Francisco", "neighborhood": ["Inner Richmond"], "postcode": "94118", "region": "CA"}, "name": "Caf\u00e9 Bunn Mi", "related_places": {}, "timezone": "America/Los_Angeles"}, {"fsq_id": "473b4138f964a5205a4c1fe3", "categories": [{"id": 13034, "name": "Caf\u00e9", "icon": {"prefix": "https://ss3.4sqi.net/img/categories_v2/food/cafe_", "suffix": ".png"}}, {"id": 13046, "name": "Ice Cream Parlor", "icon": {"prefix": "https://ss3.4sqi.net/img/categories_v2/food/icecream_", "suffix": ".png"}}, {"id": 13377, "name": "Vegan and Vegetarian Restaurant", "icon": {"prefix": "https://ss3.4sqi.net/img/categories_v2/food/vegetarian_", "suffix": ".png"}}], "chains": [], "distance": 447, "geocodes": {"main": {"latitude": 37.782879, "longitude": -122.463619}, "roof": {"latitude": 37.782879, "longitude": -122.463619}}, "link": "/v3/places/473b4138f964a5205a4c1fe3", "location": {"address": "401 Clement St", "census_block": "060750401003004", "country": "US", "cross_street": "at 5th Ave", "dma": "San Francisco-Oakland-San Jose", "formatted_address": "401 Clement St (at 5th Ave), San Francisco, CA 94118", "locality": "San Francisco", "neighborhood": ["Inner Richmond"], "postcode": "94118", "region": "CA"}, "name": "Toy Boat Dessert Cafe", "related_places": {}, "timezone": "America/Los_Angeles"}, {"fsq_id": "5e4c79ab2688de0008aca301", "categories": [{"id": 13352, "name": "Thai Restaurant", "icon": {"prefix": "https://ss3.4sqi.net/img/categories_v2/food/thai_", "suffix": ".png"}}], "chains": [], "distance": 336, "geocodes": {"main": {"latitude": 37.781075, "longitude": -122.456489}, "roof": {"latitude": 37.781075, "longitude": -122.456489}}, "link": "/v3/places/5e4c79ab2688de0008aca301", "location": {"address": "1 Stanyan St", "census_block": "060750156003000", "country": "US", "cross_street": "Geary Blvd.", "dma": "San Francisco-Oakland-San Jose", "formatted_address": "1 Stanyan St (Geary Blvd.), San Francisco, CA 94118", "locality": "San Francisco", "neighborhood": ["Lone Mountain"], "postcode": "94118", "region": "CA"}, "name": "Rooster & Rice", "related_places": {}, "timezone": "America/Los_Angeles"}, {"fsq_id": "4534010cf964a520923b1fe3", "categories": [{"id": 13064, "name": "Pizzeria", "icon": {"prefix": "https://ss3.4sqi.net/img/categories_v2/food/pizza_", "suffix": ".png"}}, {"id": 13236, "name": "Italian Restaurant", "icon": {"prefix": "https://ss3.4sqi.net/img/categories_v2/food/italian_", "suffix": ".png"}}, {"id": 13334, "name": "Sandwich Restaurant", "icon": {"prefix": "https://ss3.4sqi.net/img/categories_v2/food/deli_", "suffix": ".png"}}], "chains": [], "distance": 356, "geocodes": {"main": {"latitude": 37.782984, "longitude": -122.460974}, "roof": {"latitude": 37.782984, "longitude": -122.460974}}, "link": "/v3/places/4534010cf964a520923b1fe3", "location": {"address": "151 Clement St", "census_block": "060750401003001", "country": "US", "cross_street": "3rd Ave.", "dma": "San Francisco-Oakland-San Jose", "formatted_address": "151 Clement St (3rd Ave.), San Francisco, CA 94118", "locality": "San Francisco", "neighborhood": ["Inner Richmond"], "postcode": "94118", "region": "CA"}, "name": "Giorgios Pizzeria San", "related_places": {}, "timezone": "America/Los_Angeles"}, {"fsq_id": "5e59d0b015b76800080b98a5", "categories": [{"id": 13379, "name": "Vietnamese Restaurant", "icon": {"prefix": "https://ss3.4sqi.net/img/categories_v2/food/vietnamese_", "suffix": ".png"}}], "chains": [], "distance": 359, "geocodes": {"main": {"latitude": 37.783342, "longitude": -122.460565}, "roof": {"latitude": 37.783342, "longitude": -122.460565}}, "link": "/v3/places/5e59d0b015b76800080b98a5", "location": {"address": "225 Clement St", "census_block": "060750401002004", "country": "US", "cross_street": "", "dma": "San Francisco-Oakland-San Jose", "formatted_address": "225 Clement St, San Francisco, CA 94118", "locality": "San Francisco", "neighborhood": ["Inner Richmond"], "postcode": "94118", "region": "CA"}, "name": "Lily", "related_places": {}, "timezone": "America/Los_Angeles"}, {"fsq_id": "3fd66200f964a520b0eb1ee3", "categories": [{"id": 10032, "name": "Night Club", "icon": {"prefix": "https://ss3.4sqi.net/img/categories_v2/nightlife/nightclub_", "suffix": ".png"}}, {"id": 13009, "name": "Cocktail Bar", "icon": {"prefix": "https://ss3.4sqi.net/img/categories_v2/nightlife/cocktails_", "suffix": ".png"}}, {"id": 13018, "name": "Pub", "icon": {"prefix": "https://ss3.4sqi.net/img/categories_v2/nightlife/pub_", "suffix": ".png"}}], "chains": [], "distance": 358, "geocodes": {"main": {"latitude": 37.783261, "longitude": -122.460346}, "roof": {"latitude": 37.783261, "longitude": -122.460346}}, "link": "/v3/places/3fd66200f964a520b0eb1ee3", "location": {"address": "116 Clement St", "census_block": "060750401002004", "country": "US", "cross_street": "btwn 2nd & 3rd Ave", "dma": "San Francisco-Oakland-San Jose", "formatted_address": "116 Clement St (btwn 2nd & 3rd Ave), San Francisco, CA 94118", "locality": "San Francisco", "neighborhood": ["Inner Richmond"], "postcode": "94118", "region": "CA"}, "name": "The Plough And Stars", "related_places": {}, "timezone": "America/Los_Angeles"}, {"fsq_id": "4fac0ae8e4b03d09561e1649", "categories": [{"id": 13026, "name": "BBQ Joint", "icon": {"prefix": "https://ss3.4sqi.net/img/categories_v2/food/bbqalt_", "suffix": ".png"}}, {"id": 13072, "name": "Asian Restaurant", "icon": {"prefix": "https://ss3.4sqi.net/img/categories_v2/food/asian_", "suffix": ".png"}}, {"id": 13263, "name": "Japanese Restaurant", "icon": {"prefix": "https://ss3.4sqi.net/img/categories_v2/food/japanese_", "suffix": ".png"}}], "chains": [], "distance": 259, "geocodes": {"main": {"latitude": 37.781341, "longitude": -122.462381}, "roof": {"latitude": 37.781341, "longitude": -122.462381}}, "link": "/v3/places/4fac0ae8e4b03d09561e1649", "location": {"address": "4014 Geary Blvd", "census_block": "060750401003003", "country": "US", "cross_street": "btwn 4th & 5th Ave.", "dma": "San Francisco-Oakland-San Jose", "formatted_address": "4014 Geary Blvd (btwn 4th & 5th Ave.), San Francisco, CA 94118", "locality": "San Francisco", "neighborhood": ["Inner Richmond"], "postcode": "94118", "region": "CA"}, "name": "Camp BBQ", "related_places": {}, "timezone": "America/Los_Angeles"}, {"fsq_id": "5d9553b2aee0690008b172a5", "categories": [{"id": 13003, "name": "Bar", "icon": {"prefix": "https://ss3.4sqi.net/img/categories_v2/nightlife/pub_", "suffix": ".png"}}, {"id": 13196, "name": "Hotpot Restaurant", "icon": {"prefix": "https://ss3.4sqi.net/img/categories_v2/food/asian_", "suffix": ".png"}}, {"id": 13273, "name": "Shabu-Shabu Restaurant", "icon": {"prefix": "https://ss3.4sqi.net/img/categories_v2/food/japanese_", "suffix": ".png"}}], "chains": [], "distance": 423, "geocodes": {"main": {"latitude": 37.783118, "longitude": -122.46306}, "roof": {"latitude": 37.783118, "longitude": -122.46306}}, "link": "/v3/places/5d9553b2aee0690008b172a5", "location": {"address": "332 Clement St", "census_block": "060750401004005", "country": "US", "cross_street": "", "dma": "San Francisco-Oakland-San Jose", "formatted_address": "332 Clement St, San Francisco, CA 94118", "locality": "San Francisco", "neighborhood": ["Inner Richmond"], "postcode": "94118", "region": "CA"}, "name": "Mokuku", "related_places": {}, "timezone": "America/Los_Angeles"}, {"fsq_id": "5db62da47911730008a57fa8", "categories": [{"id": 13006, "name": "Beer Bar", "icon": {"prefix": "https://ss3.4sqi.net/img/categories_v2/nightlife/pub_", "suffix": ".png"}}, {"id": 13388, "name": "Wings Joint", "icon": {"prefix": "https://ss3.4sqi.net/img/categories_v2/food/wings_", "suffix": ".png"}}], "chains": [], "distance": 443, "geocodes": {"main": {"latitude": 37.777421, "longitude": -122.463653}, "roof": {"latitude": 37.777421, "longitude": -122.463653}}, "link": "/v3/places/5db62da47911730008a57fa8", "location": {"address": "450 Balboa St", "census_block": "060750451003003", "country": "US", "cross_street": "6th Ave", "dma": "San Francisco-Oakland-San Jose", "formatted_address": "450 Balboa St (6th Ave), San Francisco, CA 94118", "locality": "San Francisco", "neighborhood": ["Inner Richmond"], "postcode": "94118", "region": "CA"}, "name": "Foghorn Taproom", "related_places": {}, "timezone": "America/Los_Angeles"}, {"fsq_id": "4adb872af964a520a92821e3", "categories": [{"id": 13379, "name": "Vietnamese Restaurant", "icon": {"prefix": "https://ss3.4sqi.net/img/categories_v2/food/vietnamese_", "suffix": ".png"}}], "chains": [], "distance": 418, "geocodes": {"main": {"latitude": 37.783178, "longitude": -122.462706}, "roof": {"latitude": 37.783178, "longitude": -122.462706}}, "link": "/v3/places/4adb872af964a520a92821e3", "location": {"address": "316 Clement St", "census_block": "060750401004005", "country": "US", "cross_street": "", "dma": "San Francisco-Oakland-San Jose", "formatted_address": "316 Clement St, San Francisco, CA 94118", "locality": "San Francisco", "neighborhood": ["Inner Richmond"], "postcode": "94118", "region": "CA"}, "name": "Mai's Vietnamese Restaurant", "related_places": {}, "timezone": "America/Los_Angeles"}, {"fsq_id": "4b11914ef964a520787f23e3", "categories": [{"id": 13099, "name": "Chinese Restaurant", "icon": {"prefix": "https://ss3.4sqi.net/img/categories_v2/food/asian_", "suffix": ".png"}}], "chains": [], "distance": 427, "geocodes": {"main": {"latitude": 37.783167, "longitude": -122.462848}, "roof": {"latitude": 37.783167, "longitude": -122.462848}}, "link": "/v3/places/4b11914ef964a520787f23e3", "location": {"address": "336 Clement St", "census_block": "060750401004005", "country": "US", "cross_street": "btwn 4th & 5th Ave", "dma": "San Francisco-Oakland-San Jose", "formatted_address": "336 Clement St (btwn 4th & 5th Ave), San Francisco, CA 94118", "locality": "San Francisco", "neighborhood": ["Inner Richmond"], "postcode": "94118", "region": "CA"}, "name": "China First Restaurant", "related_places": {}, "timezone": "America/Los_Angeles"}, {"fsq_id": "4bb46136737d76b068573b7c", "categories": [{"id": 13099, "name": "Chinese Restaurant", "icon": {"prefix": "https://ss3.4sqi.net/img/categories_v2/food/asian_", "suffix": ".png"}}, {"id": 13276, "name": "Sushi Restaurant", "icon": {"prefix": "https://ss3.4sqi.net/img/categories_v2/food/sushi_", "suffix": ".png"}}], "chains": [], "distance": 408, "geocodes": {"main": {"latitude": 37.777427, "longitude": -122.463152}, "roof": {"latitude": 37.777427, "longitude": -122.463152}}, "link": "/v3/places/4bb46136737d76b068573b7c", "location": {"address": "402 Balboa St", "census_block": "060750451003003", "country": "US", "cross_street": "5th Ave", "dma": "San Francisco-Oakland-San Jose", "formatted_address": "402 Balboa St (5th Ave), San Francisco, CA 94118", "locality": "San Francisco", "neighborhood": ["Inner Richmond"], "postcode": "94118", "region": "CA"}, "name": "Balboa Sushi House", "related_places": {}, "timezone": "America/Los_Angeles"}, {"fsq_id": "40f08300f964a5204e0a1fe3", "categories": [{"id": 13016, "name": "Lounge", "icon": {"prefix": "https://ss3.4sqi.net/img/categories_v2/nightlife/default_", "suffix": ".png"}}, {"id": 13031, "name": "Burger Joint", "icon": {"prefix": "https://ss3.4sqi.net/img/categories_v2/food/burger_", "suffix": ".png"}}, {"id": 13068, "name": "American Restaurant", "icon": {"prefix": "https://ss3.4sqi.net/img/categories_v2/food/default_", "suffix": ".png"}}], "chains": [], "distance": 477, "geocodes": {"main": {"latitude": 37.782857, "longitude": -122.463905}, "roof": {"latitude": 37.782857, "longitude": -122.463905}}, "link": "/v3/places/40f08300f964a5204e0a1fe3", "location": {"address": "441 Clement St", "census_block": "060750401003004", "country": "US", "cross_street": "at 6th Ave", "dma": "San Francisco-Oakland-San Jose", "formatted_address": "441 Clement St (at 6th Ave), San Francisco, CA 94118", "locality": "San Francisco", "neighborhood": ["Inner Richmond"], "postcode": "94118", "region": "CA"}, "name": "The Bitter End", "related_places": {}, "timezone": "America/Los_Angeles"}, {"fsq_id": "4f769338e4b055c75fd4bdf0", "categories": [{"id": 13065, "name": "Restaurant", "icon": {"prefix": "https://ss3.4sqi.net/img/categories_v2/food/default_", "suffix": ".png"}}], "chains": [], "distance": 486, "geocodes": {"main": {"latitude": 37.777108, "longitude": -122.464217}}, "link": "/v3/places/4f769338e4b055c75fd4bdf0", "location": {"address": "501 Balboa St", "country": "US", "cross_street": "at 6th Ave", "dma": "San Francisco-Oakland-San Jose", "formatted_address": "501 Balboa St (at 6th Ave), San Francisco, CA 94118", "locality": "San Francisco", "neighborhood": ["Inner Richmond"], "postcode": "94118", "region": "CA"}, "name": "Yuubi", "related_places": {}, "timezone": "America/Los_Angeles"}, {"fsq_id": "5915240daa6c956919d70da6", "categories": [{"id": 13009, "name": "Cocktail Bar", "icon": {"prefix": "https://ss3.4sqi.net/img/categories_v2/nightlife/cocktails_", "suffix": ".png"}}, {"id": 13016, "name": "Lounge", "icon": {"prefix": "https://ss3.4sqi.net/img/categories_v2/nightlife/default_", "suffix": ".png"}}, {"id": 13065, "name": "Restaurant", "icon": {"prefix": "https://ss3.4sqi.net/img/categories_v2/food/default_", "suffix": ".png"}}], "chains": [], "distance": 474, "geocodes": {"main": {"latitude": 37.783101, "longitude": -122.463704}, "roof": {"latitude": 37.783101, "longitude": -122.463704}}, "link": "/v3/places/5915240daa6c956919d70da6", "location": {"address": "408 Clement St", "census_block": "060750401003005", "country": "US", "cross_street": "7th Ave", "dma": "San Francisco-Oakland-San Jose", "formatted_address": "408 Clement St (7th Ave), San Francisco, CA 94118", "locality": "San Francisco", "neighborhood": ["Inner Richmond"], "postcode": "94118", "region": "CA"}, "name": "Scarlet Lounge", "related_places": {}, "timezone": "America/Los_Angeles"}, {"fsq_id": "4bad70b7f964a520ec503be3", "categories": [{"id": 13064, "name": "Pizzeria", "icon": {"prefix": "https://ss3.4sqi.net/img/categories_v2/food/pizza_", "suffix": ".png"}}], "chains": [], "distance": 251, "geocodes": {"main": {"latitude": 37.781139, "longitude": -122.457353}, "roof": {"latitude": 37.781139, "longitude": -122.457353}}, "link": "/v3/places/4bad70b7f964a520ec503be3", "location": {"address": "3567 Geary Blvd", "census_block": "060750156003000", "country": "US", "cross_street": "at Palm Ave", "dma": "San Francisco-Oakland-San Jose", "formatted_address": "3567 Geary Blvd (at Palm Ave), San Francisco, CA 94118", "locality": "San Francisco", "neighborhood": ["Lone Mountain"], "postcode": "94118", "region": "CA"}, "name": "Round Table Pizza", "related_places": {}, "timezone": "America/Los_Angeles"}, {"fsq_id": "4388f700f964a520212b1fe3", "categories": [{"id": 13031, "name": "Burger Joint", "icon": {"prefix": "https://ss3.4sqi.net/img/categories_v2/food/burger_", "suffix": ".png"}}, {"id": 13049, "name": "Diner", "icon": {"prefix": "https://ss3.4sqi.net/img/categories_v2/food/diner_", "suffix": ".png"}}, {"id": 13068, "name": "American Restaurant", "icon": {"prefix": "https://ss3.4sqi.net/img/categories_v2/food/default_", "suffix": ".png"}}], "chains": [], "distance": 462, "geocodes": {"main": {"latitude": 37.781168, "longitude": -122.454846}, "roof": {"latitude": 37.781168, "longitude": -122.454846}}, "link": "/v3/places/4388f700f964a520212b1fe3", "location": {"address": "3355 Geary Blvd", "census_block": "060750156001000", "country": "US", "cross_street": "at Beaumont Ave.", "dma": "San Francisco-Oakland-San Jose", "formatted_address": "3355 Geary Blvd (at Beaumont Ave.), San Francisco, CA 94118", "locality": "San Francisco", "neighborhood": ["Lone Mountain"], "postcode": "94118", "region": "CA"}, "name": "Mel's Drive-In", "related_places": {}, "timezone": "America/Los_Angeles"}, {"fsq_id": "3fd66200f964a520fcec1ee3", "categories": [{"id": 13379, "name": "Vietnamese Restaurant", "icon": {"prefix": "https://ss3.4sqi.net/img/categories_v2/food/vietnamese_", "suffix": ".png"}}], "chains": [], "distance": 346, "geocodes": {"main": {"latitude": 37.782979, "longitude": -122.460615}, "roof": {"latitude": 37.782979, "longitude": -122.460615}}, "link": "/v3/places/3fd66200f964a520fcec1ee3", "location": {"address": "133 Clement St", "census_block": "060750401003001", "country": "US", "cross_street": "", "dma": "San Francisco-Oakland-San Jose", "formatted_address": "133 Clement St, San Francisco, CA 94118", "locality": "San Francisco", "neighborhood": ["Inner Richmond"], "postcode": "94118", "region": "CA"}, "name": "Le Soleil Authentic Vietnamese Cuisine", "related_places": {}, "timezone": "America/Los_Angeles"}, {"fsq_id": "4bc1720b461576b0870c7c32", "categories": [{"id": 13016, "name": "Lounge", "icon": {"prefix": "https://ss3.4sqi.net/img/categories_v2/nightlife/default_", "suffix": ".png"}}, {"id": 13065, "name": "Restaurant", "icon": {"prefix": "https://ss3.4sqi.net/img/categories_v2/food/default_", "suffix": ".png"}}], "chains": [], "distance": 390, "geocodes": {"main": {"latitude": 37.777422, "longitude": -122.462793}, "roof": {"latitude": 37.777422, "longitude": -122.462793}}, "link": "/v3/places/4bc1720b461576b0870c7c32", "location": {"address": "598 5th Ave", "census_block": "060750451003004", "country": "US", "dma": "San Francisco-Oakland-San Jose", "formatted_address": "598 5th Ave, San Francisco, CA 94118", "locality": "San Francisco", "neighborhood": ["Inner Richmond"], "postcode": "94118", "region": "CA"}, "name": "O'Keeffe's Bar", "related_places": {}, "timezone": "America/Los_Angeles"}, {"fsq_id": "4aa81f47f964a520734f20e3", "categories": [{"id": 13303, "name": "Mexican Restaurant", "icon": {"prefix": "https://ss3.4sqi.net/img/categories_v2/food/mexican_", "suffix": ".png"}}], "chains": [], "distance": 365, "geocodes": {"main": {"latitude": 37.78159, "longitude": -122.456161}, "roof": {"latitude": 37.78159, "longitude": -122.456161}}, "link": "/v3/places/4aa81f47f964a520734f20e3", "location": {"address": "3440 Geary Blvd", "census_block": "060750154012002", "country": "US", "cross_street": "at Stanyan St", "dma": "San Francisco-Oakland-San Jose", "formatted_address": "3440 Geary Blvd (at Stanyan St), San Francisco, CA 94118", "locality": "San Francisco", "neighborhood": ["Laurel Heights"], "postcode": "94118", "region": "CA"}, "name": "Pancho's Salsa Bar & Grill", "related_places": {}, "timezone": "America/Los_Angeles"}, {"fsq_id": "5267321211d2881bf77c2f84", "categories": [{"id": 13099, "name": "Chinese Restaurant", "icon": {"prefix": "https://ss3.4sqi.net/img/categories_v2/food/asian_", "suffix": ".png"}}], "chains": [], "distance": 262, "geocodes": {"main": {"latitude": 37.781091, "longitude": -122.457332}}, "link": "/v3/places/5267321211d2881bf77c2f84", "location": {"address": "3565 Geary Blvd", "country": "US", "cross_street": "Stanyan", "dma": "San Francisco-Oakland-San Jose", "formatted_address": "3565 Geary Blvd (Stanyan), San Francisco, CA 94118", "locality": "San Francisco", "neighborhood": ["Lone Mountain"], "postcode": "94118", "region": "CA"}, "name": "Grand Hot Pot Lounge", "related_places": {}, "timezone": "America/Los_Angeles"}, {"fsq_id": "4a1066a1f964a520bb761fe3", "categories": [{"id": 13009, "name": "Cocktail Bar", "icon": {"prefix": "https://ss3.4sqi.net/img/categories_v2/nightlife/cocktails_", "suffix": ".png"}}, {"id": 13010, "name": "Dive Bar", "icon": {"prefix": "https://ss3.4sqi.net/img/categories_v2/nightlife/divebar_", "suffix": ".png"}}, {"id": 13016, "name": "Lounge", "icon": {"prefix": "https://ss3.4sqi.net/img/categories_v2/nightlife/default_", "suffix": ".png"}}], "chains": [], "distance": 234, "geocodes": {"main": {"latitude": 37.781347, "longitude": -122.46188}, "roof": {"latitude": 37.781347, "longitude": -122.46188}}, "link": "/v3/places/4a1066a1f964a520bb761fe3", "location": {"address": "3954 Geary Blvd", "census_block": "060750401003002", "country": "US", "cross_street": "4th Ave", "dma": "San Francisco-Oakland-San Jose", "formatted_address": "3954 Geary Blvd (4th Ave), San Francisco, CA 94118", "locality": "San Francisco", "neighborhood": ["Inner Richmond"], "postcode": "94118", "region": "CA"}, "name": "Fizzee's", "related_places": {}, "timezone": "America/Los_Angeles"}, {"fsq_id": "5a0b4dc7fd9d7332958e9c26", "categories": [{"id": 13031, "name": "Burger Joint", "icon": {"prefix": "https://ss3.4sqi.net/img/categories_v2/food/burger_", "suffix": ".png"}}, {"id": 13068, "name": "American Restaurant", "icon": {"prefix": "https://ss3.4sqi.net/img/categories_v2/food/default_", "suffix": ".png"}}], "chains": [], "distance": 383, "geocodes": {"main": {"latitude": 37.781666, "longitude": -122.456022}, "roof": {"latitude": 37.781666, "longitude": -122.456022}}, "link": "/v3/places/5a0b4dc7fd9d7332958e9c26", "location": {"address": "3420 Geary Blvd", "census_block": "060750154012002", "country": "US", "cross_street": "", "dma": "San Francisco-Oakland-San Jose", "formatted_address": "3420 Geary Blvd, San Francisco, CA 94118", "locality": "San Francisco", "neighborhood": ["Laurel Heights"], "postcode": "94118", "region": "CA"}, "name": "Native Burger", "related_places": {}, "timezone": "America/Los_Angeles"}, {"fsq_id": "3fd66200f964a520daec1ee3", "categories": [{"id": 13064, "name": "Pizzeria", "icon": {"prefix": "https://ss3.4sqi.net/img/categories_v2/food/pizza_", "suffix": ".png"}}, {"id": 13236, "name": "Italian Restaurant", "icon": {"prefix": "https://ss3.4sqi.net/img/categories_v2/food/italian_", "suffix": ".png"}}], "chains": [], "distance": 344, "geocodes": {"main": {"latitude": 37.781242, "longitude": -122.463665}, "roof": {"latitude": 37.781242, "longitude": -122.463665}}, "link": "/v3/places/3fd66200f964a520daec1ee3", "location": {"address": "4124 Geary Blvd", "census_block": "060750401003004", "country": "US", "cross_street": "btw 5th and 6th Avenues", "dma": "San Francisco-Oakland-San Jose", "formatted_address": "4124 Geary Blvd (btw 5th and 6th Avenues), San Francisco, CA 94118", "locality": "San Francisco", "neighborhood": ["Inner Richmond"], "postcode": "94118", "region": "CA"}, "name": "Bella Pizza", "related_places": {}, "timezone": "America/Los_Angeles"}, {"fsq_id": "49eaa620f964a52087661fe3", "categories": [{"id": 13128, "name": "Taiwanese Restaurant", "icon": {"prefix": "https://ss3.4sqi.net/img/categories_v2/food/asian_", "suffix": ".png"}}], "chains": [], "distance": 388, "geocodes": {"main": {"latitude": 37.781258, "longitude": -122.463881}, "roof": {"latitude": 37.781258, "longitude": -122.463881}}, "link": "/v3/places/49eaa620f964a52087661fe3", "location": {"address": "4142 Geary Blvd", "census_block": "060750401003004", "country": "US", "cross_street": "", "dma": "San Francisco-Oakland-San Jose", "formatted_address": "4142 Geary Blvd, San Francisco, CA 94118", "locality": "San Francisco", "neighborhood": ["Inner Richmond"], "postcode": "94118", "region": "CA"}, "name": "Five Happiness", "related_places": {}, "timezone": "America/Los_Angeles"}, {"fsq_id": "4fa31371e4b0b509036e1bd6", "categories": [{"id": 13072, "name": "Asian Restaurant", "icon": {"prefix": "https://ss3.4sqi.net/img/categories_v2/food/asian_", "suffix": ".png"}}, {"id": 13095, "name": "Cajun / Creole Restaurant", "icon": {"prefix": "https://ss3.4sqi.net/img/categories_v2/food/cajun_", "suffix": ".png"}}, {"id": 13338, "name": "Seafood Restaurant", "icon": {"prefix": "https://ss3.4sqi.net/img/categories_v2/food/seafood_", "suffix": ".png"}}], "chains": [], "distance": 422, "geocodes": {"main": {"latitude": 37.782755, "longitude": -122.46311}, "roof": {"latitude": 37.782755, "longitude": -122.46311}}, "link": "/v3/places/4fa31371e4b0b509036e1bd6", "location": {"address": "308 5th Ave", "census_block": "060750401003003", "country": "US", "cross_street": "", "dma": "San Francisco-Oakland-San Jose", "formatted_address": "308 5th Ave, San Francisco, CA 94118", "locality": "San Francisco", "neighborhood": ["Inner Richmond"], "postcode": "94118", "region": "CA"}, "name": "Cajun House", "related_places": {}, "timezone": "America/Los_Angeles"}, {"fsq_id": "4a9593cef964a520be2320e3", "categories": [{"id": 13352, "name": "Thai Restaurant", "icon": {"prefix": "https://ss3.4sqi.net/img/categories_v2/food/thai_", "suffix": ".png"}}], "chains": [], "distance": 424, "geocodes": {"main": {"latitude": 37.781205, "longitude": -122.455637}, "roof": {"latitude": 37.781205, "longitude": -122.455637}}, "link": "/v3/places/4a9593cef964a520be2320e3", "location": {"address": "3407 Geary Blvd", "census_block": "060750156001001", "country": "US", "dma": "San Francisco-Oakland-San Jose", "formatted_address": "3407 Geary Blvd, San Francisco, CA 94118", "locality": "San Francisco", "neighborhood": ["Lone Mountain"], "postcode": "94118", "region": "CA"}, "name": "Thai Cafe", "related_places": {}, "timezone": "America/Los_Angeles"}, {"fsq_id": "4607c995f964a520d6441fe3", "categories": [{"id": 13039, "name": "Deli", "icon": {"prefix": "https://ss3.4sqi.net/img/categories_v2/food/deli_", "suffix": ".png"}}, {"id": 13064, "name": "Pizzeria", "icon": {"prefix": "https://ss3.4sqi.net/img/categories_v2/food/pizza_", "suffix": ".png"}}, {"id": 13272, "name": "Ramen Restaurant", "icon": {"prefix": "https://ss3.4sqi.net/img/categories_v2/food/ramen_", "suffix": ".png"}}], "chains": [], "distance": 218, "geocodes": {"main": {"latitude": 37.781358, "longitude": -122.461737}, "roof": {"latitude": 37.781358, "longitude": -122.461737}}, "link": "/v3/places/4607c995f964a520d6441fe3", "location": {"address": "3944 Geary Blvd", "census_block": "060750401003002", "country": "US", "cross_street": "btw 3rd & 4th", "dma": "San Francisco-Oakland-San Jose", "formatted_address": "3944 Geary Blvd (btw 3rd & 4th), San Francisco, CA 94118", "locality": "San Francisco", "neighborhood": ["Inner Richmond"], "postcode": "94118", "region": "CA"}, "name": "Genki Ramen", "related_places": {}, "timezone": "America/Los_Angeles"}, {"fsq_id": "40870b00f964a52097f21ee3", "categories": [{"id": 10039, "name": "Music Venue", "icon": {"prefix": "https://ss3.4sqi.net/img/categories_v2/arts_entertainment/musicvenue_", "suffix": ".png"}}, {"id": 13015, "name": "Karaoke Bar", "icon": {"prefix": "https://ss3.4sqi.net/img/categories_v2/nightlife/karaoke_", "suffix": ".png"}}, {"id": 13065, "name": "Restaurant", "icon": {"prefix": "https://ss3.4sqi.net/img/categories_v2/food/default_", "suffix": ".png"}}], "chains": [], "distance": 191, "geocodes": {"main": {"latitude": 37.781352, "longitude": -122.461379}, "roof": {"latitude": 37.781352, "longitude": -122.461379}}, "link": "/v3/places/40870b00f964a52097f21ee3", "location": {"address": "3920 Geary Blvd", "census_block": "060750401003002", "country": "US", "cross_street": "at 2nd", "dma": "San Francisco-Oakland-San Jose", "formatted_address": "3920 Geary Blvd (at 2nd), San Francisco, CA 94118", "locality": "San Francisco", "neighborhood": ["Inner Richmond"], "postcode": "94118", "region": "CA"}, "name": "Ireland's 32", "related_places": {}, "timezone": "America/Los_Angeles"}, {"fsq_id": "49f64208f964a5202a6c1fe3", "categories": [{"id": 13034, "name": "Caf\u00e9", "icon": {"prefix": "https://ss3.4sqi.net/img/categories_v2/food/cafe_", "suffix": ".png"}}, {"id": 13035, "name": "Coffee Shop", "icon": {"prefix": "https://ss3.4sqi.net/img/categories_v2/food/coffeeshop_", "suffix": ".png"}}, {"id": 13334, "name": "Sandwich Restaurant", "icon": {"prefix": "https://ss3.4sqi.net/img/categories_v2/food/deli_", "suffix": ".png"}}], "chains": [], "distance": 334, "geocodes": {"main": {"latitude": 37.781535, "longitude": -122.456875}, "roof": {"latitude": 37.781535, "longitude": -122.456875}}, "link": "/v3/places/49f64208f964a5202a6c1fe3", "location": {"address": "3500 Geary Blvd", "census_block": "060750154012003", "country": "US", "cross_street": "at Jordan", "dma": "San Francisco-Oakland-San Jose", "formatted_address": "3500 Geary Blvd (at Jordan), San Francisco, CA 94118", "locality": "San Francisco", "neighborhood": ["Laurel Heights"], "postcode": "94118", "region": "CA"}, "name": "Cup & Cake Cafe", "related_places": {}, "timezone": "America/Los_Angeles"}, {"fsq_id": "40870b00f964a52096f21ee3", "categories": [{"id": 13009, "name": "Cocktail Bar", "icon": {"prefix": "https://ss3.4sqi.net/img/categories_v2/nightlife/cocktails_", "suffix": ".png"}}, {"id": 13022, "name": "Sports Bar", "icon": {"prefix": "https://ss3.4sqi.net/img/categories_v2/nightlife/sportsbar_", "suffix": ".png"}}, {"id": 13065, "name": "Restaurant", "icon": {"prefix": "https://ss3.4sqi.net/img/categories_v2/food/default_", "suffix": ".png"}}], "chains": [], "distance": 314, "geocodes": {"main": {"latitude": 37.781264, "longitude": -122.46338}, "roof": {"latitude": 37.781264, "longitude": -122.46338}}, "link": "/v3/places/40870b00f964a52096f21ee3", "location": {"address": "4100 Geary Blvd", "census_block": "060750401003004", "country": "US", "cross_street": "at 5th Avenue", "dma": "San Francisco-Oakland-San Jose", "formatted_address": "4100 Geary Blvd (at 5th Avenue), San Francisco, CA 94118", "locality": "San Francisco", "neighborhood": ["Inner Richmond"], "postcode": "94118", "region": "CA"}, "name": "Abbey Tavern", "related_places": {}, "timezone": "America/Los_Angeles"}, {"fsq_id": "515c82ccf0e4172442779da2", "categories": [{"id": 13145, "name": "Fast Food Restaurant", "icon": {"prefix": "https://ss3.4sqi.net/img/categories_v2/food/fastfood_", "suffix": ".png"}}], "chains": [{"id": "ab4beec0-d68a-012e-5619-003048cad9da", "name": "KFC"}], "distance": 390, "geocodes": {"main": {"latitude": 37.781247, "longitude": -122.464024}, "roof": {"latitude": 37.781247, "longitude": -122.464024}}, "link": "/v3/places/515c82ccf0e4172442779da2", "location": {"address": "4150 Geary Blvd", "address_extended": "# 248", "census_block": "060750401003004", "country": "US", "cross_street": "", "dma": "San Francisco-Oakland-San Jose", "formatted_address": "4150 Geary Blvd, San Francisco, CA 94118", "locality": "San Francisco", "neighborhood": ["Inner Richmond"], "postcode": "94118", "region": "CA"}, "name": "KFC", "related_places": {}, "timezone": "America/Los_Angeles"}, {"fsq_id": "4d09e29cddb8f04da3c630aa", "categories": [{"id": 13039, "name": "Deli", "icon": {"prefix": "https://ss3.4sqi.net/img/categories_v2/food/deli_", "suffix": ".png"}}], "chains": [], "distance": 100, "geocodes": {"main": {"latitude": 37.779067, "longitude": -122.459666}, "roof": {"latitude": 37.779067, "longitude": -122.459666}}, "link": "/v3/places/4d09e29cddb8f04da3c630aa", "location": {"address": "500 2nd Ave", "census_block": "060750451001003", "country": "US", "cross_street": "anza", "dma": "San Francisco-Oakland-San Jose", "formatted_address": "500 2nd Ave (anza), San Francisco, CA 94118", "locality": "San Francisco", "neighborhood": ["Inner Richmond"], "postcode": "94118", "region": "CA"}, "name": "2nd Avenue Mini Market", "related_places": {}, "timezone": "America/Los_Angeles"}, {"fsq_id": "3fd66200f964a52005ed1ee3", "categories": [{"id": 13065, "name": "Restaurant", "icon": {"prefix": "https://ss3.4sqi.net/img/categories_v2/food/default_", "suffix": ".png"}}], "chains": [], "distance": 483, "geocodes": {"main": {"latitude": 37.782819, "longitude": -122.463974}, "roof": {"latitude": 37.782819, "longitude": -122.463974}}, "link": "/v3/places/3fd66200f964a52005ed1ee3", "location": {"address": "445 Clement St", "census_block": "060750401003004", "country": "US", "cross_street": "at 6th Ave", "dma": "San Francisco-Oakland-San Jose", "formatted_address": "445 Clement St (at 6th Ave), San Francisco, CA 94118", "locality": "San Francisco", "neighborhood": ["Inner Richmond"], "postcode": "94118", "region": "CA"}, "name": "Taiwan Restaurant", "related_places": {}, "timezone": "America/Los_Angeles"}, {"fsq_id": "4ac37e19f964a5207e9b20e3", "categories": [{"id": 13064, "name": "Pizzeria", "icon": {"prefix": "https://ss3.4sqi.net/img/categories_v2/food/pizza_", "suffix": ".png"}}], "chains": [], "distance": 152, "geocodes": {"main": {"latitude": 37.781369, "longitude": -122.460735}, "roof": {"latitude": 37.781369, "longitude": -122.460735}}, "link": "/v3/places/4ac37e19f964a5207e9b20e3", "location": {"address": "3840 Geary Blvd", "census_block": "060750401003001", "country": "US", "cross_street": "at 3rd", "dma": "San Francisco-Oakland-San Jose", "formatted_address": "3840 Geary Blvd (at 3rd), San Francisco, CA 94118", "locality": "San Francisco", "neighborhood": ["Inner Richmond"], "postcode": "94118", "region": "CA"}, "name": "Nizario's Pizza", "related_places": {}, "timezone": "America/Los_Angeles"}, {"fsq_id": "4b2da447f964a520e9d924e3", "categories": [{"id": 13145, "name": "Fast Food Restaurant", "icon": {"prefix": "https://ss3.4sqi.net/img/categories_v2/food/fastfood_", "suffix": ".png"}}, {"id": 13031, "name": "Burger Joint", "icon": {"prefix": "https://ss3.4sqi.net/img/categories_v2/food/burger_", "suffix": ".png"}}], "chains": [{"id": "ab4a9b10-d68a-012e-5619-003048cad9da", "name": "Burger King"}], "distance": 185, "geocodes": {"main": {"latitude": 37.781384, "longitude": -122.461249}}, "link": "/v3/places/4b2da447f964a520e9d924e3", "location": {"address": "3900 Geary Blvd", "country": "US", "cross_street": "at 3rd Ave.", "dma": "San Francisco-Oakland-San Jose", "formatted_address": "3900 Geary Blvd (at 3rd Ave.), San Francisco, CA 94118", "locality": "San Francisco", "neighborhood": ["Inner Richmond"], "postcode": "94118", "region": "CA"}, "name": "Burger King", "related_places": {}, "timezone": "America/Los_Angeles"}], "context": {"geo_bounds": {"circle": {"center": {"latitude": 37.78, "longitude": -122.46}, "radius": 500}}}}