{"results": [{"fsq_id": "569d3eb4498e051e26ae85b1", "categories": [{"id": 13379, "name": "Vietnamese Restaurant", "icon": {"prefix": "https://ss3.4sqi.net/img/categories_v2/food/vietnamese_", "suffix": ".png"}}], "chains": [], "distance": 63, "geocodes": {"main": {"latitude": 37.76947, "longitude": -122.45021}, "roof": {"latitude": 37.76947, "longitude": -122.45021}}, "link": "/v3/places/569d3eb4498e051e26ae85b1", "location": {"address": "1671 Haight St", "census_block": "060750166021008", "country": "US", "cross_street": "", "dma": "San Francisco-Oakland-San Jose", "formatted_address": "1671 Haight St, San Francisco, CA 94117", "locality": "San Francisco", "neighborhood": ["Haight-Ashbury"], "postcode": "94117", "region": "CA"}, "name": "DragonEats", "related_places": {}, "timezone": "America/Los_Angeles"}, {"fsq_id": "57978e5e498ed5a25470c882", "categories": [{"id": 13064, "name": "Pizzeria", "icon": {"prefix": "https://ss3.4sqi.net/img/categories_v2/food/pizza_", "suffix": ".png"}}, {"id": 13199, "name": "Indian Restaurant", "icon": {"prefix": "https://ss3.4sqi.net/img/categories_v2/food/indian_", "suffix": ".png"}}], "chains": [], "distance": 44, "geocodes": {"main": {"latitude": 37.769811, "longitude": -122.449585}, "roof": {"latitude": 37.769811, "longitude": -122.449585}}, "link": "/v3/places/57978e5e498ed5a25470c882", "location": {"address": "1668 Haight St", "census_block": "060750166021005", "country": "US", "cross_street": "", "dma": "San Francisco-Oakland-San Jose", "formatted_address": "1668 Haight St, San Francisco, CA 94117", "locality": "San Francisco", "neighborhood": ["Haight-Ashbury"], "postcode": "94117", "region": "CA"}, "name": "Om Indian Cuisine", "related_places": {}, "timezone": "America/Los_Angeles"}, {"fsq_id": "452d6647f964a520483b1fe3", "categories": [{"id": 13009, "name": "Cocktail Bar", "icon": {"prefix": "https://ss3.4sqi.net/img/categories_v2/nightlife/cocktails_", "suffix": ".png"}}, {"id": 13068, "name": "American Restaurant", "icon": {"prefix": "https://ss3.4sqi.net/img/categories_v2/food/default_", "suffix": ".png"}}], "chains": [], "distance": 121, "geocodes": {"main": {"latitude": 37.769312, "longitude": -122.450989}, "roof": {"latitude": 37.769312, "longitude": -122.450989}}, "link": "/v3/places/452d6647f964a520483b1fe3", "location": {"address": "1725 Haight St", "census_block": "060750166021007", "country": "US", "cross_street": "btwn Cole & Shrader St", "dma": "San Francisco-Oakland-San Jose", "formatted_address": "1725 Haight St (btwn Cole & Shrader St), San Francisco, CA 94117", "locality": "San Francisco", "neighborhood": ["Haight-Ashbury"], "postcode": "94117", "region": "CA"}, "name": "The Alembic", "related_places": {}, "timezone": "America/Los_Angeles"}, {"fsq_id": "5377b22311d201915ac775ee", "categories": [{"id": 13145, "name": "Fast Food Restaurant", "icon": {"prefix": "https://ss3.4sqi.net/img/categories_v2/food/fastfood_", "suffix": ".png"}}, {"id": 13297, "name": "Latin American Restaurant", "icon": {"prefix": "https://ss3.4sqi.net/img/categories_v2/food/latinamerican_", "suffix": ".png"}}, {"id": 13306, "name": "Taco Restaurant", "icon": {"prefix": "https://ss3.4sqi.net/img/categories_v2/food/taco_", "suffix": ".png"}}], "chains": [], "distance": 101, "geocodes": {"main": {"latitude": 37.769644, "longitude": -122.448787}, "roof": {"latitude": 37.769644, "longitude": -122.448787}}, "link": "/v3/places/5377b22311d201915ac775ee", "location": {"address": "1607 Haight St", "census_block": "060750166021009", "country": "US", "cross_street": "at Clayton St", "dma": "San Francisco-Oakland-San Jose", "formatted_address": "1607 Haight St (at Clayton St), San Francisco, CA 94117", "locality": "San Francisco", "neighborhood": ["Haight-Ashbury"], "postcode": "94117", "region": "CA"}, "name": "Street Taco", "related_places": {}, "timezone": "America/Los_Angeles"}, {"fsq_id": "4bc3a2f974a9a5931edad4f6", "categories": [{"id": 13097, "name": "Caribbean Restaurant", "icon": {"prefix": "https://ss3.4sqi.net/img/categories_v2/food/caribbean_", "suffix": ".png"}}, {"id": 13297, "name": "Latin American Restaurant", "icon": {"prefix": "https://ss3.4sqi.net/img/categories_v2/food/latinamerican_", "suffix": ".png"}}, {"id": 13334, "name": "Sandwich Restaurant", "icon": {"prefix": "https://ss3.4sqi.net/img/categories_v2/food/deli_", "suffix": ".png"}}], "chains": [], "distance": 201, "geocodes": {"main": {"latitude": 37.769186, "longitude": -122.4522}, "roof": {"latitude": 37.769186, "longitude": -122.4522}}, "link": "/v3/places/4bc3a2f974a9a5931edad4f6", "location": {"address": "1805 Haight St", "census_block": "060750166021006", "country": "US", "cross_street": "at Shrader St", "dma": "San Francisco-Oakland-San Jose", "formatted_address": "1805 Haight St (at Shrader St), San Francisco, CA 94117", "locality": "San Francisco", "neighborhood": ["Cole Valley"], "postcode": "94117", "region": "CA"}, "name": "Parada 22", "related_places": {}, "timezone": "America/Los_Angeles"}, {"fsq_id": "3fd66200f964a52068ed1ee3", "categories": [{"id": 13009, "name": "Cocktail Bar", "icon": {"prefix": "https://ss3.4sqi.net/img/categories_v2/nightlife/cocktails_", "suffix": ".png"}}, {"id": 13016, "name": "Lounge", "icon": {"prefix": "https://ss3.4sqi.net/img/categories_v2/nightlife/default_", "suffix": ".png"}}, {"id": 13145, "name": "Fast Food Restaurant", "icon": {"prefix": "https://ss3.4sqi.net/img/categories_v2/food/fastfood_", "suffix": ".png"}}], "chains": [], "distance": 75, "geocodes": {"main": {"latitude": 37.769611, "longitude": -122.449215}, "roof": {"latitude": 37.769611, "longitude": -122.449215}}, "link": "/v3/places/3fd66200f964a52068ed1ee3", "location": {"address": "1633 Haight St", "census_block": "060750166021009", "country": "US", "cross_street": "at Clayton St", "dma": "San Francisco-Oakland-San Jose", "formatted_address": "1633 Haight St (at Clayton St), San Francisco, CA 94117", "locality": "San Francisco", "neighborhood": ["Haight-Ashbury"], "postcode": "94117", "region": "CA"}, "name": "Zam Zam", "related_places": {}, "timezone": "America/Los_Angeles"}, {"fsq_id": "3fd66200f964a52060ed1ee3", "categories": [{"id": 10032, "name": "Night Club", "icon": {"prefix": "https://ss3.4sqi.net/img/categories_v2/nightlife/nightclub_", "suffix": ".png"}}, {"id": 13016, "name": "Lounge", "icon": {"prefix": "https://ss3.4sqi.net/img/categories_v2/nightlife/default_", "suffix": ".png"}}, {"id": 13064, "name": "Pizzeria", "icon": {"prefix": "https://ss3.4sqi.net/img/categories_v2/food/pizza_", "suffix": ".png"}}], "chains": [], "distance": 244, "geocodes": {"main": {"latitude": 37.76984, "longitude": -122.447079}, "roof": {"latitude": 37.76984, "longitude": -122.447079}}, "link": "/v3/places/3fd66200f964a52060ed1ee3", "location": {"address": "1511 Haight St", "address_extended": "# 11", "census_block": "060750166012007", "country": "US", "cross_street": "btw Ashbury St and Clayton St", "dma": "San Francisco-Oakland-San Jose", "formatted_address": "1511 Haight St (btw Ashbury St and Clayton St), San Francisco, CA 94117", "locality": "San Francisco", "neighborhood": ["Haight-Ashbury"], "postcode": "94117", "region": "CA"}, "name": "Club Deluxe", "related_places": {}, "timezone": "America/Los_Angeles"}, {"fsq_id": "4f934157e4b0ab5f09ebb8fc", "categories": [{"id": 13034, "name": "Caf\u00e9", "icon": {"prefix": "https://ss3.4sqi.net/img/categories_v2/food/cafe_", "suffix": ".png"}}, {"id": 13035, "name": "Coffee Shop", "icon": {"prefix": "https://ss3.4sqi.net/img/categories_v2/food/coffeeshop_", "suffix": ".png"}}, {"id": 13065, "name": "Restaurant", "icon": {"prefix": "https://ss3.4sqi.net/img/categories_v2/food/default_", "suffix": ".png"}}], "chains": [], "distance": 302, "geocodes": {"main": {"latitude": 37.769711, "longitude": -122.453449}, "roof": {"latitude": 37.769711, "longitude": -122.453449}}, "link": "/v3/places/4f934157e4b0ab5f09ebb8fc", "location": {"address": "672 Stanyan St", "census_block": "060750166021003", "country": "US", "cross_street": "btwn Haight St & Page St", "dma": "San Francisco-Oakland-San Jose", "formatted_address": "672 Stanyan St (btwn Haight St & Page St), San Francisco, CA 94117", "locality": "San Francisco", "neighborhood": ["Cole Valley"], "postcode": "94117", "region": "CA"}, "name": "Flywheel Coffee", "related_places": {}, "timezone": "America/Los_Angeles"}, {"fsq_id": "417c4200f964a520c71d1fe3", "categories": [{"id": 13097, "name": "Caribbean Restaurant", "icon": {"prefix": "https://ss3.4sqi.net/img/categories_v2/food/caribbean_", "suffix": ".png"}}, {"id": 13347, "name": "Tapas Restaurant", "icon": {"prefix": "https://ss3.4sqi.net/img/categories_v2/food/tapas_", "suffix": ".png"}}], "chains": [], "distance": 193, "geocodes": {"main": {"latitude": 37.769224, "longitude": -122.45213}, "roof": {"latitude": 37.769224, "longitude": -122.45213}}, "link": "/v3/places/417c4200f964a520c71d1fe3", "location": {"address": "1801 Haight St", "census_block": "060750166021006", "country": "US", "cross_street": "at Shrader St", "dma": "San Francisco-Oakland-San Jose", "formatted_address": "1801 Haight St (at Shrader St), San Francisco, CA 94117", "locality": "San Francisco", "neighborhood": ["Cole Valley"], "postcode": "94117", "region": "CA"}, "name": "Cha Cha CHA", "related_places": {}, "timezone": "America/Los_Angeles"}, {"fsq_id": "5849c58a6ad73d598e7f4174", "categories": [{"id": 13064, "name": "Pizzeria", "icon": {"prefix": "https://ss3.4sqi.net/img/categories_v2/food/pizza_", "suffix": ".png"}}, {"id": 13068, "name": "American Restaurant", "icon": {"prefix": "https://ss3.4sqi.net/img/categories_v2/food/default_", "suffix": ".png"}}, {"id": 13236, "name": "Italian Restaurant", "icon": {"prefix": "https://ss3.4sqi.net/img/categories_v2/food/italian_", "suffix": ".png"}}], "chains": [], "distance": 214, "geocodes": {"main": {"latitude": 37.769731, "longitude": -122.447646}, "roof": {"latitude": 37.769731, "longitude": -122.447646}}, "link": "/v3/places/5849c58a6ad73d598e7f4174", "location": {"address": "1535 Haight St", "census_block": "060750166012007", "country": "US", "cross_street": "", "dma": "San Francisco-Oakland-San Jose", "formatted_address": "1535 Haight St, San Francisco, CA 94117", "locality": "San Francisco", "neighborhood": ["Haight-Ashbury"], "postcode": "94117", "region": "CA"}, "name": "Slice House by Tony Gemignani", "related_places": {}, "timezone": "America/Los_Angeles"}, {"fsq_id": "4eac41a5dab40d132703fc44", "categories": [{"id": 13046, "name": "Ice Cream Parlor", "icon": {"prefix": "https://ss3.4sqi.net/img/categories_v2/food/icecream_", "suffix": ".png"}}, {"id": 13049, "name": "Diner", "icon": {"prefix": "https://ss3.4sqi.net/img/categories_v2/food/diner_", "suffix": ".png"}}, {"id": 13334, "name": "Sandwich Restaurant", "icon": {"prefix": "https://ss3.4sqi.net/img/categories_v2/food/deli_", "suffix": ".png"}}], "chains": [], "distance": 403, "geocodes": {"main": {"latitude": 37.766391, "longitude": -122.450314}, "roof": {"latitude": 37.766391, "longitude": -122.450314}}, "link": "/v3/places/4eac41a5dab40d132703fc44", "location": {"address": "815 Cole St", "address_extended": "# 3907", "census_block": "060750171023006", "country": "US", "cross_street": "at Carl St", "dma": "San Francisco-Oakland-San Jose", "formatted_address": "815 Cole St (at Carl St), San Francisco, CA 94117", "locality": "San Francisco", "neighborhood": ["Ashbury Heights"], "postcode": "94117", "region": "CA"}, "name": "The Ice Cream Bar", "related_places": {}, "timezone": "America/Los_Angeles"}, {"fsq_id": "5dd0ad6256b2c80008a5a966", "categories": [{"id": 13298, "name": "Lebanese Restaurant", "icon": {"prefix": "https://ss3.4sqi.net/img/categories_v2/food/middleeastern_", "suffix": ".png"}}, {"id": 13302, "name": "Mediterranean Restaurant", "icon": {"prefix": "https://ss3.4sqi.net/img/categories_v2/food/mediterranean_", "suffix": ".png"}}, {"id": 13309, "name": "Middle Eastern Restaurant", "icon": {"prefix": "https://ss3.4sqi.net/img/categories_v2/food/middleeastern_", "suffix": ".png"}}], "chains": [], "distance": 462, "geocodes": {"main": {"latitude": 37.766006, "longitude": -122.449789}, "roof": {"latitude": 37.766006, "longitude": -122.449789}}, "link": "/v3/places/5dd0ad6256b2c80008a5a966", "location": {"address": "86 Carl St", "census_block": "060750171021000", "country": "US", "cross_street": "Cole", "dma": "San Francisco-Oakland-San Jose", "formatted_address": "86 Carl St (Cole), San Francisco, CA 94117", "locality": "San Francisco", "neighborhood": ["Ashbury Heights"], "postcode": "94117", "region": "CA"}, "name": "Beit Rima", "related_places": {}, "timezone": "America/Los_Angeles"}, {"fsq_id": "3fd66200f964a52066ed1ee3", "categories": [{"id": 13003, "name": "Bar", "icon": {"prefix": "https://ss3.4sqi.net/img/categories_v2/nightlife/pub_", "suffix": ".png"}}, {"id": 13057, "name": "Gastropub", "icon": {"prefix": "https://ss3.4sqi.net/img/categories_v2/food/gastropub_", "suffix": ".png"}}, {"id": 13068, "name": "American Restaurant", "icon": {"prefix": "https://ss3.4sqi.net/img/categories_v2/food/default_", "suffix": ".png"}}], "chains": [], "distance": 410, "geocodes": {"main": {"latitude": 37.770346, "longitude": -122.445174}, "roof": {"latitude": 37.770346, "longitude": -122.445174}}, "link": "/v3/places/3fd66200f964a52066ed1ee3", "location": {"address": "1398 Haight St", "census_block": "060750166011003", "country": "US", "cross_street": "at Masonic Ave", "dma": "San Francisco-Oakland-San Jose", "formatted_address": "1398 Haight St (at Masonic Ave), San Francisco, CA 94117", "locality": "San Francisco", "neighborhood": ["Haight-Ashbury"], "postcode": "94117", "region": "CA"}, "name": "Magnolia Gastropub & Brewery", "related_places": {}, "timezone": "America/Los_Angeles"}, {"fsq_id": "582f7a89b50d520d997a72c6", "categories": [{"id": 13034, "name": "Caf\u00e9", "icon": {"prefix": "https://ss3.4sqi.net/img/categories_v2/food/cafe_", "suffix": ".png"}}, {"id": 13297, "name": "Latin American Restaurant", "icon": {"prefix": "https://ss3.4sqi.net/img/categories_v2/food/latinamerican_", "suffix": ".png"}}, {"id": 13333, "name": "Salvadoran Restaurant", "icon": {"prefix": "https://ss3.4sqi.net/img/categories_v2/food/latinamerican_", "suffix": ".png"}}], "chains": [], "distance": 385, "geocodes": {"main": {"latitude": 37.773572, "longitude": -122.450812}, "roof": {"latitude": 37.773572, "longitude": -122.450812}}, "link": "/v3/places/582f7a89b50d520d997a72c6", "location": {"address": "2078 Hayes St", "census_block": "060750165003002", "country": "US", "cross_street": "Hayes & Cole", "dma": "San Francisco-Oakland-San Jose", "formatted_address": "2078 Hayes St (Hayes & Cole), San Francisco, CA 94117", "locality": "San Francisco", "neighborhood": ["Haight-Ashbury"], "postcode": "94117", "region": "CA"}, "name": "Manitas Cafe & Deli", "related_places": {}, "timezone": "America/Los_Angeles"}, {"fsq_id": "4ef3795c0e61358da48ddef4", "categories": [{"id": 13068, "name": "American Restaurant", "icon": {"prefix": "https://ss3.4sqi.net/img/categories_v2/food/default_", "suffix": ".png"}}, {"id": 13334, "name": "Sandwich Restaurant", "icon": {"prefix": "https://ss3.4sqi.net/img/categories_v2/food/deli_", "suffix": ".png"}}], "chains": [], "distance": 425, "geocodes": {"main": {"latitude": 37.767054, "longitude": -122.44677}, "roof": {"latitude": 37.767054, "longitude": -122.44677}}, "link": "/v3/places/4ef3795c0e61358da48ddef4", "location": {"address": "205 Frederick St", "address_extended": "# A", "census_block": "060750171011003", "country": "US", "cross_street": "btwn Ashbury & Downey St", "dma": "San Francisco-Oakland-San Jose", "formatted_address": "205 Frederick St (btwn Ashbury & Downey St), San Francisco, CA 94117", "locality": "San Francisco", "neighborhood": ["Ashbury Heights"], "postcode": "94117", "region": "CA"}, "name": "Bacon Bacon", "related_places": {}, "timezone": "America/Los_Angeles"}, {"fsq_id": "5229375c11d283a864f7f305", "categories": [{"id": 13025, "name": "Wine Bar", "icon": {"prefix": "https://ss3.4sqi.net/img/categories_v2/food/winery_", "suffix": ".png"}}, {"id": 13236, "name": "Italian Restaurant", "icon": {"prefix": "https://ss3.4sqi.net/img/categories_v2/food/italian_", "suffix": ".png"}}], "chains": [], "distance": 471, "geocodes": {"main": {"latitude": 37.765973, "longitude": -122.450217}, "roof": {"latitude": 37.765973, "longitude": -122.450217}}, "link": "/v3/places/5229375c11d283a864f7f305", "location": {"address": "108 Carl St", "address_extended": "# B", "census_block": "060750171023006", "country": "US", "cross_street": "Cole St.", "dma": "San Francisco-Oakland-San Jose", "formatted_address": "108 Carl St (Cole St.), San Francisco, CA 94117", "locality": "San Francisco", "neighborhood": ["Ashbury Heights"], "postcode": "94117", "region": "CA"}, "name": "InoVino", "related_places": {}, "timezone": "America/Los_Angeles"}, {"fsq_id": "50ef30e4e4b00a55d27ff6d5", "categories": [{"id": 13303, "name": "Mexican Restaurant", "icon": {"prefix": "https://ss3.4sqi.net/img/categories_v2/food/mexican_", "suffix": ".png"}}], "chains": [], "distance": 472, "geocodes": {"main": {"latitude": 37.765648, "longitude": -122.450198}, "roof": {"latitude": 37.765648, "longitude": -122.450198}}, "link": "/v3/places/50ef30e4e4b00a55d27ff6d5", "location": {"address": "901 Cole St", "census_block": "060750171021002", "country": "US", "cross_street": "at Carl St", "dma": "San Francisco-Oakland-San Jose", "formatted_address": "901 Cole St (at Carl St), San Francisco, CA 94117", "locality": "San Francisco", "neighborhood": ["Ashbury Heights"], "postcode": "94117", "region": "CA"}, "name": "Padrecito", "related_places": {}, "timezone": "America/Los_Angeles"}, {"fsq_id": "3fd66200f964a52065ed1ee3", "categories": [{"id": 13010, "name": "Dive Bar", "icon": {"prefix": "https://ss3.4sqi.net/img/categories_v2/nightlife/divebar_", "suffix": ".png"}}, {"id": 13026, "name": "BBQ Joint", "icon": {"prefix": "https://ss3.4sqi.net/img/categories_v2/food/bbqalt_", "suffix": ".png"}}], "chains": [], "distance": 119, "geocodes": {"main": {"latitude": 37.769682, "longitude": -122.448718}, "roof": {"latitude": 37.769682, "longitude": -122.448718}}, "link": "/v3/places/3fd66200f964a52065ed1ee3", "location": {"address": "1601 Haight St", "census_block": "060750166021009", "country": "US", "cross_street": "at Clayton", "dma": "San Francisco-Oakland-San Jose", "formatted_address": "1601 Haight St (at Clayton), San Francisco, CA 94117", "locality": "San Francisco", "neighborhood": ["Haight-Ashbury"], "postcode": "94117", "region": "CA"}, "name": "Hobson's Choice Bar", "related_places": {}, "timezone": "America/Los_Angeles"}, {"fsq_id": "5c59f26d66fc65002c05155b", "categories": [{"id": 13334, "name": "Sandwich Restaurant", "icon": {"prefix": "https://ss3.4sqi.net/img/categories_v2/food/deli_", "suffix": ".png"}}], "chains": [], "distance": 188, "geocodes": {"main": {"latitude": 37.768358, "longitude": -122.450646}, "roof": {"latitude": 37.768358, "longitude": -122.450646}}, "link": "/v3/places/5c59f26d66fc65002c05155b", "location": {"address": "701 Cole St", "census_block": "060750171023002", "country": "US", "cross_street": "Waller", "dma": "San Francisco-Oakland-San Jose", "formatted_address": "701 Cole St (Waller), San Francisco, CA 94117", "locality": "San Francisco", "neighborhood": ["Ashbury Heights"], "postcode": "94117", "region": "CA"}, "name": "Bite Me Sandwiches", "related_places": {}, "timezone": "America/Los_Angeles"}, {"fsq_id": "3fd66200f964a520a3ed1ee3", "categories": [{"id": 13022, "name": "Sports Bar", "icon": {"prefix": "https://ss3.4sqi.net/img/categories_v2/nightlife/sportsbar_", "suffix": ".png"}}, {"id": 13068, "name": "American Restaurant", "icon": {"prefix": "https://ss3.4sqi.net/img/categories_v2/food/default_", "suffix": ".png"}}], "chains": [], "distance": 370, "geocodes": {"main": {"latitude": 37.767809, "longitude": -122.453121}, "roof": {"latitude": 37.767809, "longitude": -122.453121}}, "link": "/v3/places/3fd66200f964a520a3ed1ee3", "location": {"address": "770 Stanyan St", "census_block": "060750171023003", "country": "US", "cross_street": "at Waller St", "dma": "San Francisco-Oakland-San Jose", "formatted_address": "770 Stanyan St (at Waller St), San Francisco, CA 94117", "locality": "San Francisco", "neighborhood": ["Cole Valley"], "postcode": "94117", "region": "CA"}, "name": "Kezar Pub", "related_places": {}, "timezone": "America/Los_Angeles"}, {"fsq_id": "59a07c348ad62e286c3c0918", "categories": [{"id": 13035, "name": "Coffee Shop", "icon": {"prefix": "https://ss3.4sqi.net/img/categories_v2/food/coffeeshop_", "suffix": ".png"}}], "chains": [], "distance": 462, "geocodes": {"main": {"latitude": 37.766033, "longitude": -122.449863}, "roof": {"latitude": 37.766033, "longitude": -122.449863}}, "link": "/v3/places/59a07c348ad62e286c3c0918", "location": {"address": "862 Cole St", "census_block": "060750171021000", "country": "US", "cross_street": "Carl", "dma": "San Francisco-Oakland-San Jose", "formatted_address": "862 Cole St (Carl), San Francisco, CA 94117", "locality": "San Francisco", "neighborhood": ["Ashbury Heights"], "postcode": "94117", "region": "CA"}, "name": "Wooden Coffee Shop", "related_places": {}, "timezone": "America/Los_Angeles"}, {"fsq_id": "4b89f389f964a520425832e3", "categories": [{"id": 13352, "name": "Thai Restaurant", "icon": {"prefix": "https://ss3.4sqi.net/img/categories_v2/food/thai_", "suffix": ".png"}}], "chains": [], "distance": 134, "geocodes": {"main": {"latitude": 37.769615, "longitude": -122.451294}, "roof": {"latitude": 37.769615, "longitude": -122.451294}}, "link": "/v3/places/4b89f389f964a520425832e3", "location": {"address": "1770 Haight St", "census_block": "060750166021004", "country": "US", "cross_street": "btwn Shrader & Cole St.", "dma": "San Francisco-Oakland-San Jose", "formatted_address": "1770 Haight St (btwn Shrader & Cole St.), San Francisco, CA 94117", "locality": "San Francisco", "neighborhood": ["Haight-Ashbury"], "postcode": "94117", "region": "CA"}, "name": "Ploy II", "related_places": {}, "timezone": "America/Los_Angeles"}, {"fsq_id": "5ae0993dfd16bb599cde4e91", "categories": [{"id": 13034, "name": "Caf\u00e9", "icon": {"prefix": "https://ss3.4sqi.net/img/categories_v2/food/cafe_", "suffix": ".png"}}, {"id": 13035, "name": "Coffee Shop", "icon": {"prefix": "https://ss3.4sqi.net/img/categories_v2/food/coffeeshop_", "suffix": ".png"}}, {"id": 13334, "name": "Sandwich Restaurant", "icon": {"prefix": "https://ss3.4sqi.net/img/categories_v2/food/deli_", "suffix": ".png"}}], "chains": [], "distance": 446, "geocodes": {"main": {"latitude": 37.773596, "longitude": -122.447947}, "roof": {"latitude": 37.773596, "longitude": -122.447947}}, "link": "/v3/places/5ae0993dfd16bb599cde4e91", "location": {"address": "1901 Hayes St", "census_block": "060750165003004", "country": "US", "cross_street": "", "dma": "San Francisco-Oakland-San Jose", "formatted_address": "1901 Hayes St, San Francisco, CA 94117", "locality": "San Francisco", "neighborhood": ["North Panhandle"], "postcode": "94117", "region": "CA"}, "name": "Karma Cafe", "related_places": {}, "timezone": "America/Los_Angeles"}, {"fsq_id": "49e8aef1f964a52066651fe3", "categories": [{"id": 13297, "name": "Latin American Restaurant", "icon": {"prefix": "https://ss3.4sqi.net/img/categories_v2/food/latinamerican_", "suffix": ".png"}}, {"id": 13305, "name": "Burrito Restaurant", "icon": {"prefix": "https://ss3.4sqi.net/img/categories_v2/food/burrito_", "suffix": ".png"}}, {"id": 13306, "name": "Taco Restaurant", "icon": {"prefix": "https://ss3.4sqi.net/img/categories_v2/food/taco_", "suffix": ".png"}}], "chains": [], "distance": 172, "geocodes": {"main": {"latitude": 37.769257, "longitude": -122.451702}, "roof": {"latitude": 37.769257, "longitude": -122.451702}}, "link": "/v3/places/49e8aef1f964a52066651fe3", "location": {"address": "1797 Haight St", "census_block": "060750166021007", "country": "US", "cross_street": "at Shrader St.", "dma": "San Francisco-Oakland-San Jose", "formatted_address": "1797 Haight St (at Shrader St.), San Francisco, CA 94117", "locality": "San Francisco", "neighborhood": ["Cole Valley"], "postcode": "94117", "region": "CA"}, "name": "Zona Rosa", "related_places": {}, "timezone": "America/Los_Angeles"}, {"fsq_id": "5f99142b7018566f8e222e0e", "categories": [{"id": 13309, "name": "Middle Eastern Restaurant", "icon": {"prefix": "https://ss3.4sqi.net/img/categories_v2/food/middleeastern_", "suffix": ".png"}}], "chains": [], "distance": 149, "geocodes": {"main": {"latitude": 37.769688, "longitude": -122.448216}, "roof": {"latitude": 37.769688, "longitude": -122.448216}}, "link": "/v3/places/5f99142b7018566f8e222e0e", "location": {"address": "1599 Haight St", "census_block": "060750166012007", "country": "US", "cross_street": "", "dma": "San Francisco-Oakland-San Jose", "formatted_address": "1599 Haight St, San Francisco, CA 94117", "locality": "San Francisco", "neighborhood": ["Haight-Ashbury"], "postcode": "94117", "region": "CA"}, "name": "Abu Salim Middle Eastern Grill", "related_places": {}, "timezone": "America/Los_Angeles"}, {"fsq_id": "4a46a67bf964a5203ea91fe3", "categories": [{"id": 13046, "name": "Ice Cream Parlor", "icon": {"prefix": "https://ss3.4sqi.net/img/categories_v2/food/icecream_", "suffix": ".png"}}], "chains": [], "distance": 281, "geocodes": {"main": {"latitude": 37.770198, "longitude": -122.44667}, "roof": {"latitude": 37.770198, "longitude": -122.44667}}, "link": "/v3/places/4a46a67bf964a5203ea91fe3", "location": {"address": "1480 Haight St", "census_block": "060750166012003", "country": "US", "cross_street": "Ashbury Street", "dma": "San Francisco-Oakland-San Jose", "formatted_address": "1480 Haight St (Ashbury Street), San Francisco, CA 94117", "locality": "San Francisco", "neighborhood": ["Haight-Ashbury"], "postcode": "94117", "region": "CA"}, "name": "Ben & Jerry\u2019s", "related_places": {}, "timezone": "America/Los_Angeles"}, {"fsq_id": "4f64da26e4b0e78c00fb56f3", "categories": [{"id": 13028, "name": "Breakfast Spot", "icon": {"prefix": "https://ss3.4sqi.net/img/categories_v2/food/breakfast_", "suffix": ".png"}}], "chains": [], "distance": 200, "geocodes": {"main": {"latitude": 37.769235, "longitude": -122.451988}, "roof": {"latitude": 37.769235, "longitude": -122.451988}}, "link": "/v3/places/4f64da26e4b0e78c00fb56f3", "location": {"address": "1805 Haight St", "census_block": "060750166021006", "country": "US", "cross_street": "b/t Stanyan & Shrader", "dma": "San Francisco-Oakland-San Jose", "formatted_address": "1805 Haight St (b/t Stanyan & Shrader), San Francisco, CA 94117", "locality": "San Francisco", "neighborhood": ["Cole Valley"], "postcode": "94117", "region": "CA"}, "name": "Boogaloos - Pop Up", "related_places": {}, "timezone": "America/Los_Angeles"}, {"fsq_id": "55bec3d8498ea0833a1c10b7", "categories": [{"id": 13031, "name": "Burger Joint", "icon": {"prefix": "https://ss3.4sqi.net/img/categories_v2/food/burger_", "suffix": ".png"}}, {"id": 13145, "name": "Fast Food Restaurant", "icon": {"prefix": "https://ss3.4sqi.net/img/categories_v2/food/fastfood_", "suffix": ".png"}}, {"id": 13377, "name": "Vegan and Vegetarian Restaurant", "icon": {"prefix": "https://ss3.4sqi.net/img/categories_v2/food/vegetarian_", "suffix": ".png"}}], "chains": [], "distance": 305, "geocodes": {"main": {"latitude": 37.770198, "longitude": -122.44667}, "roof": {"latitude": 37.770198, "longitude": -122.44667}}, "link": "/v3/places/55bec3d8498ea0833a1c10b7", "location": {"address": "1466 Haight St", "census_block": "060750166012003", "country": "US", "cross_street": "", "dma": "San Francisco-Oakland-San Jose", "formatted_address": "1466 Haight St, San Francisco, CA 94117", "locality": "San Francisco", "neighborhood": ["Haight-Ashbury"], "postcode": "94117", "region": "CA"}, "name": "VeganBurg", "related_places": {}, "timezone": "America/Los_Angeles"}, {"fsq_id": "3fd66200f964a52024ee1ee3", "categories": [{"id": 13034, "name": "Caf\u00e9", "icon": {"prefix": "https://ss3.4sqi.net/img/categories_v2/food/cafe_", "suffix": ".png"}}, {"id": 13049, "name": "Diner", "icon": {"prefix": "https://ss3.4sqi.net/img/categories_v2/food/diner_", "suffix": ".png"}}, {"id": 13068, "name": "American Restaurant", "icon": {"prefix": "https://ss3.4sqi.net/img/categories_v2/food/default_", "suffix": ".png"}}], "chains": [], "distance": 327, "geocodes": {"main": {"latitude": 37.769982, "longitude": -122.446084}, "roof": {"latitude": 37.769982, "longitude": -122.446084}}, "link": "/v3/places/3fd66200f964a52024ee1ee3", "location": {"address": "1451 Haight St", "census_block": "060750166012004", "country": "US", "cross_street": "at Masonic Ave.", "dma": "San Francisco-Oakland-San Jose", "formatted_address": "1451 Haight St (at Masonic Ave.), San Francisco, CA 94117", "locality": "San Francisco", "neighborhood": ["Haight-Ashbury"], "postcode": "94117", "region": "CA"}, "name": "Pork Store Cafe", "related_places": {}, "timezone": "America/Los_Angeles"}, {"fsq_id": "5e475be31efa0d00082fc773", "categories": [{"id": 13003, "name": "Bar", "icon": {"prefix": "https://ss3.4sqi.net/img/categories_v2/nightlife/pub_", "suffix": ".png"}}, {"id": 13095, "name": "Cajun / Creole Restaurant", "icon": {"prefix": "https://ss3.4sqi.net/img/categories_v2/food/cajun_", "suffix": ".png"}}, {"id": 13338, "name": "Seafood Restaurant", "icon": {"prefix": "https://ss3.4sqi.net/img/categories_v2/food/seafood_", "suffix": ".png"}}], "chains": [], "distance": 485, "geocodes": {"main": {"latitude": 37.766113, "longitude": -122.452662}, "roof": {"latitude": 37.766113, "longitude": -122.452662}}, "link": "/v3/places/5e475be31efa0d00082fc773", "location": {"address": "900 Stanyan St", "census_block": "060750171023006", "country": "US", "cross_street": "Frederick", "dma": "San Francisco-Oakland-San Jose", "formatted_address": "900 Stanyan St (Frederick), San Francisco, CA 94117", "locality": "San Francisco", "neighborhood": ["Cole Valley"], "postcode": "94117", "region": "CA"}, "name": "Creola", "related_places": {}, "timezone": "America/Los_Angeles"}, {"fsq_id": "5871d7a03731812c07ae90d6", "categories": [{"id": 13065, "name": "Restaurant", "icon": {"prefix": "https://ss3.4sqi.net/img/categories_v2/food/default_", "suffix": ".png"}}], "chains": [], "distance": 359, "geocodes": {"main": {"latitude": 37.773204, "longitude": -122.450503}, "roof": {"latitude": 37.773204, "longitude": -122.450503}}, "link": "/v3/places/5871d7a03731812c07ae90d6", "location": {"address": "2077 Hayes St", "census_block": "060750165003005", "country": "US", "cross_street": "Cole St", "dma": "San Francisco-Oakland-San Jose", "formatted_address": "2077 Hayes St (Cole St), San Francisco, CA 94117", "locality": "San Francisco", "neighborhood": ["Haight-Ashbury"], "postcode": "94117", "region": "CA"}, "name": "Five Friends Pizza", "related_places": {}, "timezone": "America/Los_Angeles"}, {"fsq_id": "44786832f964a520ca331fe3", "categories": [{"id": 13065, "name": "Restaurant", "icon": {"prefix": "https://ss3.4sqi.net/img/categories_v2/food/default_", "suffix": ".png"}}], "chains": [], "distance": 136, "geocodes": {"main": {"latitude": 37.769328, "longitude": -122.451205}, "roof": {"latitude": 37.769328, "longitude": -122.451205}}, "link": "/v3/places/44786832f964a520ca331fe3", "location": {"address": "1737 Haight St", "census_block": "060750166021007", "country": "US", "cross_street": "btwn Cole & Shrader St", "dma": "San Francisco-Oakland-San Jose", "formatted_address": "1737 Haight St (btwn Cole & Shrader St), San Francisco, CA 94117", "locality": "San Francisco", "neighborhood": ["Haight-Ashbury"], "postcode": "94117", "region": "CA"}, "name": "Escape From New York Pizza", "related_places": {}, "timezone": "America/Los_Angeles"}, {"fsq_id": "3fd66200f964a5206aed1ee3", "categories": [{"id": 13010, "name": "Dive Bar", "icon": {"prefix": "https://ss3.4sqi.net/img/categories_v2/nightlife/divebar_", "suffix": ".png"}}, {"id": 13011, "name": "Gay Bar", "icon": {"prefix": "https://ss3.4sqi.net/img/categories_v2/nightlife/gaybar_", "suffix": ".png"}}, {"id": 13026, "name": "BBQ Joint", "icon": {"prefix": "https://ss3.4sqi.net/img/categories_v2/food/bbqalt_", "suffix": ".png"}}], "chains": [], "distance": 345, "geocodes": {"main": {"latitude": 37.769993, "longitude": -122.445941}, "roof": {"latitude": 37.769993, "longitude": -122.445941}}, "link": "/v3/places/3fd66200f964a5206aed1ee3", "location": {"address": "1437 Haight St", "census_block": "060750166012004", "country": "US", "cross_street": "btwn Masonic Ave. & Ashbury St.", "dma": "San Francisco-Oakland-San Jose", "formatted_address": "1437 Haight St (btwn Masonic Ave. & Ashbury St.), San Francisco, CA 94117", "locality": "San Francisco", "neighborhood": ["Haight-Ashbury"], "postcode": "94117", "region": "CA"}, "name": "Trax", "related_places": {}, "timezone": "America/Los_Angeles"}, {"fsq_id": "4f862761e4b04a6adaa70287", "categories": [{"id": 13034, "name": "Caf\u00e9", "icon": {"prefix": "https://ss3.4sqi.net/img/categories_v2/food/cafe_", "suffix": ".png"}}, {"id": 13035, "name": "Coffee Shop", "icon": {"prefix": "https://ss3.4sqi.net/img/categories_v2/food/coffeeshop_", "suffix": ".png"}}, {"id": 13065, "name": "Restaurant", "icon": {"prefix": "https://ss3.4sqi.net/img/categories_v2/food/default_", "suffix": ".png"}}], "chains": [], "distance": 43, "geocodes": {"main": {"latitude": 37.769481, "longitude": -122.450067}, "roof": {"latitude": 37.769481, "longitude": -122.450067}}, "link": "/v3/places/4f862761e4b04a6adaa70287", "location": {"address": "1673 Haight St", "census_block": "060750166021008", "country": "US", "cross_street": "Cole", "dma": "San Francisco-Oakland-San Jose", "formatted_address": "1673 Haight St (Cole), San Francisco, CA 94117", "locality": "San Francisco", "neighborhood": ["Haight-Ashbury"], "postcode": "94117", "region": "CA"}, "name": "Stanza Coffee Bar", "related_places": {}, "timezone": "America/Los_Angeles"}, {"fsq_id": "458fe4a8f964a5201e401fe3", "categories": [{"id": 13035, "name": "Coffee Shop", "icon": {"prefix": "https://ss3.4sqi.net/img/categories_v2/food/coffeeshop_", "suffix": ".png"}}, {"id": 13065, "name": "Restaurant", "icon": {"prefix": "https://ss3.4sqi.net/img/categories_v2/food/default_", "suffix": ".png"}}], "chains": [], "distance": 70, "geocodes": {"main": {"latitude": 37.76967, "longitude": -122.45058}, "roof": {"latitude": 37.76967, "longitude": -122.45058}}, "link": "/v3/places/458fe4a8f964a5201e401fe3", "location": {"address": "1708 Haight St", "census_block": "060750166021004", "country": "US", "cross_street": "at Cole St.", "dma": "San Francisco-Oakland-San Jose", "formatted_address": "1708 Haight St (at Cole St.), San Francisco, CA 94117", "locality": "San Francisco", "neighborhood": ["Haight-Ashbury"], "postcode": "94117", "region": "CA"}, "name": "Coffee Cantatass", "related_places": {}, "timezone": "America/Los_Angeles"}, {"fsq_id": "43695300f964a52084291fe3", "categories": [{"id": 13072, "name": "Asian Restaurant", "icon": {"prefix": "https://ss3.4sqi.net/img/categories_v2/food/asian_", "suffix": ".png"}}, {"id": 13099, "name": "Chinese Restaurant", "icon": {"prefix": "https://ss3.4sqi.net/img/categories_v2/food/asian_", "suffix": ".png"}}, {"id": 13352, "name": "Thai Restaurant", "icon": {"prefix": "https://ss3.4sqi.net/img/categories_v2/food/thai_", "suffix": ".png"}}], "chains": [], "distance": 150, "geocodes": {"main": {"latitude": 37.769582, "longitude": -122.451722}, "roof": {"latitude": 37.769582, "longitude": -122.451722}}, "link": "/v3/places/43695300f964a52084291fe3", "location": {"address": "1790 Haight St", "address_extended": "# 2808", "census_block": "060750166021004", "country": "US", "cross_street": "at Shrader St.", "dma": "San Francisco-Oakland-San Jose", "formatted_address": "1790 Haight St (at Shrader St.), San Francisco, CA 94117", "locality": "San Francisco", "neighborhood": ["Cole Valley"], "postcode": "94117", "region": "CA"}, "name": "Citrus Club", "related_places": {}, "timezone": "America/Los_Angeles"}, {"fsq_id": "4a6b62bdf964a520a0ce1fe3", "categories": [{"id": 13009, "name": "Cocktail Bar", "icon": {"prefix": "https://ss3.4sqi.net/img/categories_v2/nightlife/cocktails_", "suffix": ".png"}}, {"id": 13010, "name": "Dive Bar", "icon": {"prefix": "https://ss3.4sqi.net/img/categories_v2/nightlife/divebar_", "suffix": ".png"}}, {"id": 13303, "name": "Mexican Restaurant", "icon": {"prefix": "https://ss3.4sqi.net/img/categories_v2/food/mexican_", "suffix": ".png"}}], "chains": [], "distance": 174, "geocodes": {"main": {"latitude": 37.769672, "longitude": -122.448001}, "roof": {"latitude": 37.769672, "longitude": -122.448001}}, "link": "/v3/places/4a6b62bdf964a520a0ce1fe3", "location": {"address": "1569 Haight St", "census_block": "060750166012007", "country": "US", "cross_street": "btwn Ashbury & Clayton", "dma": "San Francisco-Oakland-San Jose", "formatted_address": "1569 Haight St (btwn Ashbury & Clayton), San Francisco, CA 94117", "locality": "San Francisco", "neighborhood": ["Haight-Ashbury"], "postcode": "94117", "region": "CA"}, "name": "Gold Cane Cocktail Lounge", "related_places": {}, "timezone": "America/Los_Angeles"}, {"fsq_id": "53b37277498eeeca1f0ba730", "categories": [{"id": 13034, "name": "Caf\u00e9", "icon": {"prefix": "https://ss3.4sqi.net/img/categories_v2/food/cafe_", "suffix": ".png"}}, {"id": 13041, "name": "Creperie", "icon": {"prefix": "https://ss3.4sqi.net/img/categories_v2/food/creperie_", "suffix": ".png"}}, {"id": 13068, "name": "American Restaurant", "icon": {"prefix": "https://ss3.4sqi.net/img/categories_v2/food/default_", "suffix": ".png"}}], "chains": [], "distance": 355, "geocodes": {"main": {"latitude": 37.77028, "longitude": -122.44603}, "roof": {"latitude": 37.77028, "longitude": -122.44603}}, "link": "/v3/places/53b37277498eeeca1f0ba730", "location": {"address": "1428 Haight St", "census_block": "060750166012003", "country": "US", "cross_street": "at Masonic Ave", "dma": "San Francisco-Oakland-San Jose", "formatted_address": "1428 Haight St (at Masonic Ave), San Francisco, CA 94117", "locality": "San Francisco", "neighborhood": ["Haight-Ashbury"], "postcode": "94117", "region": "CA"}, "name": "1428 Haight", "related_places": {}, "timezone": "America/Los_Angeles"}, {"fsq_id": "51f886e0498e2a68bc3addb3", "categories": [{"id": 13012, "name": "Hookah Bar", "icon": {"prefix": "https://ss3.4sqi.net/img/categories_v2/nightlife/hookahbar_", "suffix": ".png"}}, {"id": 13302, "name": "Mediterranean Restaurant", "icon": {"prefix": "https://ss3.4sqi.net/img/categories_v2/food/mediterranean_", "suffix": ".png"}}, {"id": 13309, "name": "Middle Eastern Restaurant", "icon": {"prefix": "https://ss3.4sqi.net/img/categories_v2/food/middleeastern_", "suffix": ".png"}}], "chains": [], "distance": 215, "geocodes": {"main": {"latitude": 37.769121, "longitude": -122.452196}, "roof": {"latitude": 37.769121, "longitude": -122.452196}}, "link": "/v3/places/51f886e0498e2a68bc3addb3", "location": {"address": "1821 Haight St", "census_block": "060750166021006", "country": "US", "cross_street": "Stanyan and Shrader", "dma": "San Francisco-Oakland-San Jose", "formatted_address": "1821 Haight St (Stanyan and Shrader), San Francisco, CA 94117", "locality": "San Francisco", "neighborhood": ["Cole Valley"], "postcode": "94117", "region": "CA"}, "name": "Laguna Cafe", "related_places": {}, "timezone": "America/Los_Angeles"}, {"fsq_id": "43519800f964a520be281fe3", "categories": [{"id": 13035, "name": "Coffee Shop", "icon": {"prefix": "https://ss3.4sqi.net/img/categories_v2/food/coffeeshop_", "suffix": ".png"}}, {"id": 13036, "name": "Tea Room", "icon": {"prefix": "https://ss3.4sqi.net/img/categories_v2/food/tearoom_", "suffix": ".png"}}, {"id": 13065, "name": "Restaurant", "icon": {"prefix": "https://ss3.4sqi.net/img/categories_v2/food/default_", "suffix": ".png"}}], "chains": [], "distance": 423, "geocodes": {"main": {"latitude": 37.770123, "longitude": -122.445089}, "roof": {"latitude": 37.770123, "longitude": -122.445089}}, "link": "/v3/places/43519800f964a520be281fe3", "location": {"address": "1206 Masonic Ave", "census_block": "060750166012005", "country": "US", "cross_street": "at Haight St.", "dma": "San Francisco-Oakland-San Jose", "formatted_address": "1206 Masonic Ave (at Haight St.), San Francisco, CA 94117", "locality": "San Francisco", "neighborhood": ["Haight-Ashbury"], "postcode": "94117", "region": "CA"}, "name": "Coffee To The People", "related_places": {}, "timezone": "America/Los_Angeles"}, {"fsq_id": "442ebdeff964a520de311fe3", "categories": [{"id": 13049, "name": "Diner", "icon": {"prefix": "https://ss3.4sqi.net/img/categories_v2/food/diner_", "suffix": ".png"}}, {"id": 13068, "name": "American Restaurant", "icon": {"prefix": "https://ss3.4sqi.net/img/categories_v2/food/default_", "suffix": ".png"}}, {"id": 13145, "name": "Fast Food Restaurant", "icon": {"prefix": "https://ss3.4sqi.net/img/categories_v2/food/fastfood_", "suffix": ".png"}}], "chains": [], "distance": 350, "geocodes": {"main": {"latitude": 37.77028, "longitude": -122.44603}, "roof": {"latitude": 37.77028, "longitude": -122.44603}}, "link": "/v3/places/442ebdeff964a520de311fe3", "location": {"address": "1428 Haight St", "census_block": "060750166012003", "country": "US", "cross_street": "btwn Ashbury & Masonic", "dma": "San Francisco-Oakland-San Jose", "formatted_address": "1428 Haight St (btwn Ashbury & Masonic), San Francisco, CA 94117", "locality": "San Francisco", "neighborhood": ["Haight-Ashbury"], "postcode": "94117", "region": "CA"}, "name": "Squat & Gobble Cafe", "related_places": {}, "timezone": "America/Los_Angeles"}, {"fsq_id": "4dfcef921f6e05048d87b389", "categories": [{"id": 13035, "name": "Coffee Shop", "icon": {"prefix": "https://ss3.4sqi.net/img/categories_v2/food/coffeeshop_", "suffix": ".png"}}], "chains": [], "distance": 210, "geocodes": {"main": {"latitude": 37.769835, "longitude": -122.44758}, "roof": {"latitude": 37.769835, "longitude": -122.44758}}, "link": "/v3/places/4dfcef921f6e05048d87b389", "location": {"address": "inside Haight Street Market", "census_block": "060750166012007", "country": "US", "cross_street": "1530 Haight St", "dma": "San Francisco-Oakland-San Jose", "formatted_address": "inside Haight Street Market (1530 Haight St), San Francisco, CA 94117", "locality": "San Francisco", "neighborhood": ["Haight-Ashbury"], "postcode": "94117", "region": "CA"}, "name": "HSM Cafe", "related_places": {}, "timezone": "America/Los_Angeles"}, {"fsq_id": "49f5e129f964a520ca6b1fe3", "categories": [{"id": 13034, "name": "Caf\u00e9", "icon": {"prefix": "https://ss3.4sqi.net/img/categories_v2/food/cafe_", "suffix": ".png"}}, {"id": 13068, "name": "American Restaurant", "icon": {"prefix": "https://ss3.4sqi.net/img/categories_v2/food/default_", "suffix": ".png"}}, {"id": 13334, "name": "Sandwich Restaurant", "icon": {"prefix": "https://ss3.4sqi.net/img/categories_v2/food/deli_", "suffix": ".png"}}], "chains": [], "distance": 436, "geocodes": {"main": {"latitude": 37.766163, "longitude": -122.44987}, "roof": {"latitude": 37.766163, "longitude": -122.44987}}, "link": "/v3/places/49f5e129f964a520ca6b1fe3", "location": {"address": "848 Cole St", "census_block": "060750171021000", "country": "US", "cross_street": "btwn Frederick St & Carl St", "dma": "San Francisco-Oakland-San Jose", "formatted_address": "848 Cole St (btwn Frederick St & Carl St), San Francisco, CA 94117", "locality": "San Francisco", "neighborhood": ["Ashbury Heights"], "postcode": "94117", "region": "CA"}, "name": "Reverie Coffee Cafe", "related_places": {}, "timezone": "America/Los_Angeles"}, {"fsq_id": "43680180f964a52075291fe3", "categories": [{"id": 13018, "name": "Pub", "icon": {"prefix": "https://ss3.4sqi.net/img/categories_v2/nightlife/pub_", "suffix": ".png"}}, {"id": 13022, "name": "Sports Bar", "icon": {"prefix": "https://ss3.4sqi.net/img/categories_v2/nightlife/sportsbar_", "suffix": ".png"}}, {"id": 13057, "name": "Gastropub", "icon": {"prefix": "https://ss3.4sqi.net/img/categories_v2/food/gastropub_", "suffix": ".png"}}], "chains": [], "distance": 161, "geocodes": {"main": {"latitude": 37.770024, "longitude": -122.448093}, "roof": {"latitude": 37.770024, "longitude": -122.448093}}, "link": "/v3/places/43680180f964a52075291fe3", "location": {"address": "1568 Haight St", "census_block": "060750166012002", "country": "US", "cross_street": "at Clayton", "dma": "San Francisco-Oakland-San Jose", "formatted_address": "1568 Haight St (at Clayton), San Francisco, CA 94117", "locality": "San Francisco", "neighborhood": ["Haight-Ashbury"], "postcode": "94117", "region": "CA"}, "name": "HQ Bar & Restaurant", "related_places": {}, "timezone": "America/Los_Angeles"}, {"fsq_id": "56a0520b498e4578aca7cfb8", "categories": [{"id": 13145, "name": "Fast Food Restaurant", "icon": {"prefix": "https://ss3.4sqi.net/img/categories_v2/food/fastfood_", "suffix": ".png"}}, {"id": 13303, "name": "Mexican Restaurant", "icon": {"prefix": "https://ss3.4sqi.net/img/categories_v2/food/mexican_", "suffix": ".png"}}], "chains": [], "distance": 55, "geocodes": {"main": {"latitude": 37.769887, "longitude": -122.449447}, "roof": {"latitude": 37.769887, "longitude": -122.449447}}, "link": "/v3/places/56a0520b498e4578aca7cfb8", "location": {"address": "1654 Haight St", "census_block": "060750166021005", "country": "US", "cross_street": "", "dma": "San Francisco-Oakland-San Jose", "formatted_address": "1654 Haight St, San Francisco, CA 94117", "locality": "San Francisco", "neighborhood": ["Haight-Ashbury"], "postcode": "94117", "region": "CA"}, "name": "El Rancho Grande", "related_places": {}, "timezone": "America/Los_Angeles"}, {"fsq_id": "564f83bb498e581008391e1f", "categories": [{"id": 13352, "name": "Thai Restaurant", "icon": {"prefix": "https://ss3.4sqi.net/img/categories_v2/food/thai_", "suffix": ".png"}}, {"id": 13377, "name": "Vegan and Vegetarian Restaurant", "icon": {"prefix": "https://ss3.4sqi.net/img/categories_v2/food/vegetarian_", "suffix": ".png"}}], "chains": [], "distance": 377, "geocodes": {"main": {"latitude": 37.770291, "longitude": -122.445887}, "roof": {"latitude": 37.770291, "longitude": -122.445887}}, "link": "/v3/places/564f83bb498e581008391e1f", "location": {"address": "1418 Haight St", "census_block": "060750166012003", "country": "US", "cross_street": "at Masonic Ave", "dma": "San Francisco-Oakland-San Jose", "formatted_address": "1418 Haight St (at Masonic Ave), San Francisco, CA 94117", "locality": "San Francisco", "neighborhood": ["Haight-Ashbury"], "postcode": "94117", "region": "CA"}, "name": "Hippie Thai Street Food", "related_places": {}, "timezone": "America/Los_Angeles"}, {"fsq_id": "5b2168db9d6a19002c3bdad2", "categories": [{"id": 13099, "name": "Chinese Restaurant", "icon": {"prefix": "https://ss3.4sqi.net/img/categories_v2/food/asian_", "suffix": ".png"}}, {"id": 13352, "name": "Thai Restaurant", "icon": {"prefix": "https://ss3.4sqi.net/img/categories_v2/food/thai_", "suffix": ".png"}}], "chains": [], "distance": 145, "geocodes": {"main": {"latitude": 37.769555, "longitude": -122.451648}, "roof": {"latitude": 37.769555, "longitude": -122.451648}}, "link": "/v3/places/5b2168db9d6a19002c3bdad2", "location": {"address": "1782 Haight St", "census_block": "060750166021004", "country": "US", "cross_street": "", "dma": "San Francisco-Oakland-San Jose", "formatted_address": "1782 Haight St, San Francisco, CA 94117", "locality": "San Francisco", "neighborhood": ["Cole Valley"], "postcode": "94117", "region": "CA"}, "name": "What The Cluck", "related_places": {}, "timezone": "America/Los_Angeles"}, {"fsq_id": "3fd66200f964a52067ed1ee3", "categories": [{"id": 13009, "name": "Cocktail Bar", "icon": {"prefix": "https://ss3.4sqi.net/img/categories_v2/nightlife/cocktails_", "suffix": ".png"}}, {"id": 13010, "name": "Dive Bar", "icon": {"prefix": "https://ss3.4sqi.net/img/categories_v2/nightlife/divebar_", "suffix": ".png"}}, {"id": 13016, "name": "Lounge", "icon": {"prefix": "https://ss3.4sqi.net/img/categories_v2/nightlife/default_", "suffix": ".png"}}], "chains": [], "distance": 208, "geocodes": {"main": {"latitude": 37.769197, "longitude": -122.452057}, "roof": {"latitude": 37.769197, "longitude": -122.452057}}, "link": "/v3/places/3fd66200f964a52067ed1ee3", "location": {"address": "1811 Haight St", "census_block": "060750166021006", "country": "US", "cross_street": "btwn Stanyan & Shrader St", "dma": "San Francisco-Oakland-San Jose", "formatted_address": "1811 Haight St (btwn Stanyan & Shrader St), San Francisco, CA 94117", "locality": "San Francisco", "neighborhood": ["Cole Valley"], "postcode": "94117", "region": "CA"}, "name": "Murio's Trophy Room", "related_places": {}, "timezone": "America/Los_Angeles"}, {"fsq_id": "613d23945d817048f1e35d33", "categories": [{"id": 13002, "name": "Bakery", "icon": {"prefix": "https://ss3.4sqi.net/img/categories_v2/food/bakery_", "suffix": ".png"}}], "chains": [], "distance": 63, "geocodes": {"main": {"latitude": 37.769894, "longitude": -122.449317}}, "link": "/v3/places/613d23945d817048f1e35d33", "location": {"address": "1640 Haight St", "country": "US", "cross_street": "", "dma": "San Francisco-Oakland-San Jose", "formatted_address": "1640 Haight St, San Francisco, CA 94117", "locality": "San Francisco", "neighborhood": ["Haight-Ashbury"], "postcode": "94117", "region": "CA"}, "name": "Brioche Bakery & Cafe", "related_places": {}, "timezone": "America/Los_Angeles"}, {"fsq_id": "5b0996966fea59002642e7f6", "categories": [{"id": 13018, "name": "Pub", "icon": {"prefix": "https://ss3.4sqi.net/img/categories_v2/nightlife/pub_", "suffix": ".png"}}, {"id": 13065, "name": "Restaurant", "icon": {"prefix": "https://ss3.4sqi.net/img/categories_v2/food/default_", "suffix": ".png"}}], "chains": [], "distance": 171, "geocodes": {"main": {"latitude": 37.770073, "longitude": -122.447881}, "roof": {"latitude": 37.770073, "longitude": -122.447881}}, "link": "/v3/places/5b0996966fea59002642e7f6", "location": {"address": "1568 Haight St", "census_block": "060750166012002", "country": "US", "cross_street": "", "dma": "San Francisco-Oakland-San Jose", "formatted_address": "1568 Haight St, San Francisco, CA 94117", "locality": "San Francisco", "neighborhood": ["Haight-Ashbury"], "postcode": "94117", "region": "CA"}, "name": "Michael Collins Irish Bar", "related_places": {}, "timezone": "America/Los_Angeles"}], "context": {"geo_bounds": {"circle": {"center": {"latitude": 37.77, "longitude": -122.45}, "radius": 500}}}}