{"results": [{"fsq_id": "49f264f8f964a520286a1fe3", "categories": [{"id": 13065, "name": "Restaurant", "icon": {"prefix": "https://ss3.4sqi.net/img/categories_v2/food/default_", "suffix": ".png"}}], "chains": [], "distance": 44, "geocodes": {"main": {"latitude": 37.800268, "longitude": -122.409743}, "roof": {"latitude": 37.800268, "longitude": -122.409743}}, "link": "/v3/places/49f264f8f964a520286a1fe3", "location": {"address": "566 Columbus Ave", "census_block": "060750106003003", "country": "US", "cross_street": "at Union St", "dma": "San Francisco-Oakland-San Jose", "formatted_address": "566 Columbus Ave (at Union St), San Francisco, CA 94133", "locality": "San Francisco", "neighborhood": ["Chinatown"], "postcode": "94133", "region": "CA"}, "name": "Mario's Bohemian Cigar Store Cafe", "related_places": {}, "timezone": "America/Los_Angeles"}, {"fsq_id": "4a469839f964a52029a91fe3", "categories": [{"id": 13064, "name": "Pizzeria", "icon": {"prefix": "https://ss3.4sqi.net/img/categories_v2/food/pizza_", "suffix": ".png"}}, {"id": 13236, "name": "Italian Restaurant", "icon": {"prefix": "https://ss3.4sqi.net/img/categories_v2/food/italian_", "suffix": ".png"}}], "chains": [], "distance": 86, "geocodes": {"main": {"latitude": 37.800295, "longitude": -122.408956}, "roof": {"latitude": 37.800295, "longitude": -122.408956}}, "link": "/v3/places/4a469839f964a52029a91fe3", "location": {"address": "1570 Stockton St", "census_block": "060750106003004", "country": "US", "cross_street": "at Union St", "dma": "San Francisco-Oakland-San Jose", "formatted_address": "1570 Stockton St (at Union St), San Francisco, CA 94133", "locality": "San Francisco", "neighborhood": ["Chinatown"], "postcode": "94133", "region": "CA"}, "name": "Tony's Pizza Napoletana", "related_places": {}, "timezone": "America/Los_Angeles"}, {"fsq_id": "4bc7787c15a7ef3ba77779da", "categories": [{"id": 13068, "name": "American Restaurant", "icon": {"prefix": "https://ss3.4sqi.net/img/categories_v2/food/default_", "suffix": ".png"}}, {"id": 13070, "name": "Argentinian Restaurant", "icon": {"prefix": "https://ss3.4sqi.net/img/categories_v2/food/argentinian_", "suffix": ".png"}}, {"id": 13236, "name": "Italian Restaurant", "icon": {"prefix": "https://ss3.4sqi.net/img/categories_v2/food/italian_", "suffix": ".png"}}], "chains": [], "distance": 19, "geocodes": {"main": {"latitude": 37.799986, "longitude": -122.410013}, "roof": {"latitude": 37.799986, "longitude": -122.410013}}, "link": "/v3/places/4bc7787c15a7ef3ba77779da", "location": {"address": "555 Columbus Ave", "census_block": "060750107021004", "country": "US", "cross_street": "Union", "dma": "San Francisco-Oakland-San Jose", "formatted_address": "555 Columbus Ave (Union), San Francisco, CA 94133", "locality": "San Francisco", "neighborhood": ["Chinatown"], "postcode": "94133", "region": "CA"}, "name": "Il Pollaio", "related_places": {}, "timezone": "America/Los_Angeles"}, {"fsq_id": "4aebaaccf964a52042c421e3", "categories": [{"id": 13065, "name": "Restaurant", "icon": {"prefix": "https://ss3.4sqi.net/img/categories_v2/food/default_", "suffix": ".png"}}], "chains": [], "distance": 150, "geocodes": {"main": {"latitude": 37.799753, "longitude": -122.40835}, "roof": {"latitude": 37.799753, "longitude": -122.40835}}, "link": "/v3/places/4aebaaccf964a52042c421e3", "location": {"address": "552 Green St", "census_block": "060750106003004", "country": "US", "cross_street": "btw Jasper Pl & Bannam Pl", "dma": "San Francisco-Oakland-San Jose", "formatted_address": "552 Green St (btw Jasper Pl & Bannam Pl), San Francisco, CA 94133", "locality": "San Francisco", "neighborhood": ["Chinatown"], "postcode": "94133", "region": "CA"}, "name": "Sotto Mare Oysteria and Seafood Restaurant", "related_places": {}, "timezone": "America/Los_Angeles"}, {"fsq_id": "42814b00f964a520ef211fe3", "categories": [{"id": 13064, "name": "Pizzeria", "icon": {"prefix": "https://ss3.4sqi.net/img/categories_v2/food/pizza_", "suffix": ".png"}}], "chains": [], "distance": 170, "geocodes": {"main": {"latitude": 37.799748, "longitude": -122.407991}, "roof": {"latitude": 37.799748, "longitude": -122.407991}}, "link": "/v3/places/42814b00f964a520ef211fe3", "location": {"address": "542 Green St", "census_block": "060750106003005", "country": "US", "cross_street": "at Grant", "dma": "San Francisco-Oakland-San Jose", "formatted_address": "542 Green St (at Grant), San Francisco, CA 94133", "locality": "San Francisco", "neighborhood": ["Chinatown"], "postcode": "94133", "region": "CA"}, "name": "Golden Boy Pizza", "related_places": {}, "timezone": "America/Los_Angeles"}, {"fsq_id": "4f16eb51c2eea9e9912b089a", "categories": [{"id": 13065, "name": "Restaurant", "icon": {"prefix": "https://ss3.4sqi.net/img/categories_v2/food/default_", "suffix": ".png"}}], "chains": [], "distance": 71, "geocodes": {"main": {"latitude": 37.800289, "longitude": -122.409457}, "roof": {"latitude": 37.800289, "longitude": -122.409457}}, "link": "/v3/places/4f16eb51c2eea9e9912b089a", "location": {"address": "601 Union St", "census_block": "060750106003003", "country": "US", "cross_street": "at Stockton St", "dma": "San Francisco-Oakland-San Jose", "formatted_address": "601 Union St (at Stockton St), San Francisco, CA 94133", "locality": "San Francisco", "neighborhood": ["Chinatown"], "postcode": "94133", "region": "CA"}, "name": "Original Joe's", "related_places": {}, "timezone": "America/Los_Angeles"}, {"fsq_id": "4e4e0bab45ddff0031ac5bea", "categories": [{"id": 13065, "name": "Restaurant", "icon": {"prefix": "https://ss3.4sqi.net/img/categories_v2/food/default_", "suffix": ".png"}}], "chains": [], "distance": 239, "geocodes": {"main": {"latitude": 37.801228, "longitude": -122.407864}, "roof": {"latitude": 37.801228, "longitude": -122.407864}}, "link": "/v3/places/4e4e0bab45ddff0031ac5bea", "location": {"address": "1541 Grant Ave", "census_block": "060750106003000", "country": "US", "cross_street": "btwn Filbert & Union St", "dma": "San Francisco-Oakland-San Jose", "formatted_address": "1541 Grant Ave (btwn Filbert & Union St), San Francisco, CA 94133", "locality": "San Francisco", "neighborhood": ["Little Italy"], "postcode": "94133", "region": "CA"}, "name": "Little Vine", "related_places": {}, "timezone": "America/Los_Angeles"}, {"fsq_id": "5c84788b7c891c003ae4156b", "categories": [{"id": 13009, "name": "Cocktail Bar", "icon": {"prefix": "https://ss3.4sqi.net/img/categories_v2/nightlife/cocktails_", "suffix": ".png"}}, {"id": 13263, "name": "Japanese Restaurant", "icon": {"prefix": "https://ss3.4sqi.net/img/categories_v2/food/japanese_", "suffix": ".png"}}, {"id": 13347, "name": "Tapas Restaurant", "icon": {"prefix": "https://ss3.4sqi.net/img/categories_v2/food/tapas_", "suffix": ".png"}}], "chains": [], "distance": 95, "geocodes": {"main": {"latitude": 37.800457, "longitude": -122.411116}, "roof": {"latitude": 37.800457, "longitude": -122.411116}}, "link": "/v3/places/5c84788b7c891c003ae4156b", "location": {"address": "1701 Powell St", "census_block": "060750107021002", "country": "US", "cross_street": "", "dma": "San Francisco-Oakland-San Jose", "formatted_address": "1701 Powell St, San Francisco, CA 94133", "locality": "San Francisco", "neighborhood": ["Chinatown"], "postcode": "94133", "region": "CA"}, "name": "Noren Izakaya", "related_places": {}, "timezone": "America/Los_Angeles"}, {"fsq_id": "53f914d8498e1ef0fe04474c", "categories": [{"id": 13236, "name": "Italian Restaurant", "icon": {"prefix": "https://ss3.4sqi.net/img/categories_v2/food/italian_", "suffix": ".png"}}], "chains": [], "distance": 229, "geocodes": {"main": {"latitude": 37.801703, "longitude": -122.411907}, "roof": {"latitude": 37.801703, "longitude": -122.411907}}, "link": "/v3/places/53f914d8498e1ef0fe04474c", "location": {"address": "716 Columbus Ave", "census_block": "060750104011004", "country": "US", "cross_street": "", "dma": "San Francisco-Oakland-San Jose", "formatted_address": "716 Columbus Ave, San Francisco, CA 94133", "locality": "San Francisco", "neighborhood": ["Little Italy"], "postcode": "94133", "region": "CA"}, "name": "The Italian Homemade Company", "related_places": {}, "timezone": "America/Los_Angeles"}, {"fsq_id": "3fd66200f964a52026ee1ee3", "categories": [{"id": 13236, "name": "Italian Restaurant", "icon": {"prefix": "https://ss3.4sqi.net/img/categories_v2/food/italian_", "suffix": ".png"}}], "chains": [], "distance": 212, "geocodes": {"main": {"latitude": 37.800228, "longitude": -122.412393}, "roof": {"latitude": 37.800228, "longitude": -122.412393}}, "link": "/v3/places/3fd66200f964a52026ee1ee3", "location": {"address": "1800 Mason St", "census_block": "060750107021002", "country": "US", "cross_street": "at Union St", "dma": "San Francisco-Oakland-San Jose", "formatted_address": "1800 Mason St (at Union St), San Francisco, CA 94133", "locality": "San Francisco", "neighborhood": ["Little Italy"], "postcode": "94133", "region": "CA"}, "name": "Trattoria Contadina", "related_places": {}, "timezone": "America/Los_Angeles"}, {"fsq_id": "445c9f00f964a520ef321fe3", "categories": [{"id": 10039, "name": "Music Venue", "icon": {"prefix": "https://ss3.4sqi.net/img/categories_v2/arts_entertainment/musicvenue_", "suffix": ".png"}}, {"id": 10043, "name": "Theater", "icon": {"prefix": "https://ss3.4sqi.net/img/categories_v2/arts_entertainment/performingarts_theater_", "suffix": ".png"}}, {"id": 13003, "name": "Bar", "icon": {"prefix": "https://ss3.4sqi.net/img/categories_v2/nightlife/pub_", "suffix": ".png"}}], "chains": [], "distance": 66, "geocodes": {"main": {"latitude": 37.799547, "longitude": -122.410202}, "roof": {"latitude": 37.799547, "longitude": -122.410202}}, "link": "/v3/places/445c9f00f964a520ef321fe3", "location": {"address": "678 Green St", "census_block": "060750107021004", "country": "US", "cross_street": "Columbus", "dma": "San Francisco-Oakland-San Jose", "formatted_address": "678 Green St (Columbus), San Francisco, CA 94133", "locality": "San Francisco", "neighborhood": ["Chinatown"], "postcode": "94133", "region": "CA"}, "name": "Club Fugazi", "related_places": {"children": [{"fsq_id": "4abee430f964a520709020e3", "name": "Beach Blanket Babylon"}]}, "timezone": "America/Los_Angeles"}, {"fsq_id": "50086129e4b038aa4f935f9e", "categories": [{"id": 13024, "name": "Whisky Bar", "icon": {"prefix": "https://ss3.4sqi.net/img/categories_v2/nightlife/whiskey_", "suffix": ".png"}}, {"id": 13064, "name": "Pizzeria", "icon": {"prefix": "https://ss3.4sqi.net/img/categories_v2/food/pizza_", "suffix": ".png"}}, {"id": 13236, "name": "Italian Restaurant", "icon": {"prefix": "https://ss3.4sqi.net/img/categories_v2/food/italian_", "suffix": ".png"}}], "chains": [], "distance": 208, "geocodes": {"main": {"latitude": 37.798518, "longitude": -122.408277}, "roof": {"latitude": 37.798518, "longitude": -122.408277}}, "link": "/v3/places/50086129e4b038aa4f935f9e", "location": {"address": "641 Vallejo St", "census_block": "060750107012000", "country": "US", "cross_street": "btwn Columbus & Stockton", "dma": "San Francisco-Oakland-San Jose", "formatted_address": "641 Vallejo St (btwn Columbus & Stockton), San Francisco, CA 94133", "locality": "San Francisco", "neighborhood": ["Chinatown"], "postcode": "94133", "region": "CA"}, "name": "Capo's", "related_places": {}, "timezone": "America/Los_Angeles"}, {"fsq_id": "4a7e1dc4f964a52006f11fe3", "categories": [{"id": 13002, "name": "Bakery", "icon": {"prefix": "https://ss3.4sqi.net/img/categories_v2/food/bakery_", "suffix": ".png"}}, {"id": 13068, "name": "American Restaurant", "icon": {"prefix": "https://ss3.4sqi.net/img/categories_v2/food/default_", "suffix": ".png"}}, {"id": 13236, "name": "Italian Restaurant", "icon": {"prefix": "https://ss3.4sqi.net/img/categories_v2/food/italian_", "suffix": ".png"}}], "chains": [], "distance": 175, "geocodes": {"main": {"latitude": 37.799114, "longitude": -122.408169}, "roof": {"latitude": 37.799114, "longitude": -122.408169}}, "link": "/v3/places/4a7e1dc4f964a52006f11fe3", "location": {"address": "446 Columbus Ave", "census_block": "060750106003007", "country": "US", "cross_street": "", "dma": "San Francisco-Oakland-San Jose", "formatted_address": "446 Columbus Ave, San Francisco, CA 94133", "locality": "San Francisco", "neighborhood": ["Chinatown"], "postcode": "94133", "region": "CA"}, "name": "Stella Pastry & Cafe", "related_places": {}, "timezone": "America/Los_Angeles"}, {"fsq_id": "4a01fbbdf964a5201c711fe3", "categories": [{"id": 13039, "name": "Deli", "icon": {"prefix": "https://ss3.4sqi.net/img/categories_v2/food/deli_", "suffix": ".png"}}], "chains": [], "distance": 258, "geocodes": {"main": {"latitude": 37.798458, "longitude": -122.407772}, "roof": {"latitude": 37.798458, "longitude": -122.407772}}, "link": "/v3/places/4a01fbbdf964a5201c711fe3", "location": {"address": "373 Columbus Ave", "address_extended": "North Beach", "census_block": "060750107012000", "country": "US", "cross_street": "at Vallejo St", "dma": "San Francisco-Oakland-San Jose", "formatted_address": "373 Columbus Ave (at Vallejo St), San Francisco, CA 94133", "locality": "San Francisco", "neighborhood": ["Chinatown"], "postcode": "94133", "region": "CA"}, "name": "Molinari Delicatessen", "related_places": {}, "timezone": "America/Los_Angeles"}, {"fsq_id": "57871bc8498e62cfb4d6aaeb", "categories": [{"id": 13006, "name": "Beer Bar", "icon": {"prefix": "https://ss3.4sqi.net/img/categories_v2/nightlife/pub_", "suffix": ".png"}}, {"id": 13025, "name": "Wine Bar", "icon": {"prefix": "https://ss3.4sqi.net/img/categories_v2/food/winery_", "suffix": ".png"}}, {"id": 13068, "name": "American Restaurant", "icon": {"prefix": "https://ss3.4sqi.net/img/categories_v2/food/default_", "suffix": ".png"}}], "chains": [], "distance": 178, "geocodes": {"main": {"latitude": 37.801264, "longitude": -122.411236}, "roof": {"latitude": 37.801264, "longitude": -122.411236}}, "link": "/v3/places/57871bc8498e62cfb4d6aaeb", "location": {"address": "700 Columbus Ave", "census_block": "060750104011005", "country": "US", "cross_street": "at Filbert St", "dma": "San Francisco-Oakland-San Jose", "formatted_address": "700 Columbus Ave (at Filbert St), San Francisco, CA 94133", "locality": "San Francisco", "neighborhood": ["Chinatown"], "postcode": "94133", "region": "CA"}, "name": "Bodega", "related_places": {}, "timezone": "America/Los_Angeles"}, {"fsq_id": "516aeabee4b0f340f8ea05de", "categories": [{"id": 13034, "name": "Caf\u00e9", "icon": {"prefix": "https://ss3.4sqi.net/img/categories_v2/food/cafe_", "suffix": ".png"}}, {"id": 13035, "name": "Coffee Shop", "icon": {"prefix": "https://ss3.4sqi.net/img/categories_v2/food/coffeeshop_", "suffix": ".png"}}, {"id": 13065, "name": "Restaurant", "icon": {"prefix": "https://ss3.4sqi.net/img/categories_v2/food/default_", "suffix": ".png"}}], "chains": [], "distance": 169, "geocodes": {"main": {"latitude": 37.800778, "longitude": -122.408196}, "roof": {"latitude": 37.800778, "longitude": -122.408196}}, "link": "/v3/places/516aeabee4b0f340f8ea05de", "location": {"address": "524 Union St", "census_block": "060750106003000", "country": "US", "cross_street": "btwn Bannam Pl & Grant Ave", "dma": "San Francisco-Oakland-San Jose", "formatted_address": "524 Union St (btwn Bannam Pl & Grant Ave), San Francisco, CA 94133", "locality": "San Francisco", "neighborhood": ["Chinatown"], "postcode": "94133", "region": "CA"}, "name": "Hole in the Wall Coffee", "related_places": {}, "timezone": "America/Los_Angeles"}, {"fsq_id": "5321f3a7498ed83987e1a90e", "categories": [{"id": 13064, "name": "Pizzeria", "icon": {"prefix": "https://ss3.4sqi.net/img/categories_v2/food/pizza_", "suffix": ".png"}}, {"id": 13236, "name": "Italian Restaurant", "icon": {"prefix": "https://ss3.4sqi.net/img/categories_v2/food/italian_", "suffix": ".png"}}], "chains": [], "distance": 282, "geocodes": {"main": {"latitude": 37.798464, "longitude": -122.40727}, "roof": {"latitude": 37.798464, "longitude": -122.40727}}, "link": "/v3/places/5321f3a7498ed83987e1a90e", "location": {"address": "348 Columbus Ave", "census_block": "060750106003008", "country": "US", "cross_street": "at Grant Ave", "dma": "San Francisco-Oakland-San Jose", "formatted_address": "348 Columbus Ave (at Grant Ave), San Francisco, CA 94133", "locality": "San Francisco", "neighborhood": ["Chinatown"], "postcode": "94133", "region": "CA"}, "name": "Il Casaro Pizzeria & Mozzarella Bar", "related_places": {}, "timezone": "America/Los_Angeles"}, {"fsq_id": "429f9d80f964a520c1241fe3", "categories": [{"id": 13034, "name": "Caf\u00e9", "icon": {"prefix": "https://ss3.4sqi.net/img/categories_v2/food/cafe_", "suffix": ".png"}}, {"id": 13236, "name": "Italian Restaurant", "icon": {"prefix": "https://ss3.4sqi.net/img/categories_v2/food/italian_", "suffix": ".png"}}, {"id": 13334, "name": "Sandwich Restaurant", "icon": {"prefix": "https://ss3.4sqi.net/img/categories_v2/food/deli_", "suffix": ".png"}}], "chains": [], "distance": 177, "geocodes": {"main": {"latitude": 37.79887, "longitude": -122.40837}, "roof": {"latitude": 37.79887, "longitude": -122.40837}}, "link": "/v3/places/429f9d80f964a520c1241fe3", "location": {"address": "423 Columbus Ave", "address_extended": "# 3901", "census_block": "060750107022000", "country": "US", "cross_street": "at Vallejo St", "dma": "San Francisco-Oakland-San Jose", "formatted_address": "423 Columbus Ave (at Vallejo St), San Francisco, CA 94133", "locality": "San Francisco", "neighborhood": ["Chinatown"], "postcode": "94133", "region": "CA"}, "name": "Caffe Greco", "related_places": {}, "timezone": "America/Los_Angeles"}, {"fsq_id": "4b73aaacf964a520c7b72de3", "categories": [{"id": 13039, "name": "Deli", "icon": {"prefix": "https://ss3.4sqi.net/img/categories_v2/food/deli_", "suffix": ".png"}}, {"id": 13236, "name": "Italian Restaurant", "icon": {"prefix": "https://ss3.4sqi.net/img/categories_v2/food/italian_", "suffix": ".png"}}, {"id": 13334, "name": "Sandwich Restaurant", "icon": {"prefix": "https://ss3.4sqi.net/img/categories_v2/food/deli_", "suffix": ".png"}}], "chains": [], "distance": 54, "geocodes": {"main": {"latitude": 37.799574, "longitude": -122.409415}, "roof": {"latitude": 37.799574, "longitude": -122.409415}}, "link": "/v3/places/4b73aaacf964a520c7b72de3", "location": {"address": "507 Columbus Ave", "census_block": "060750107021004", "country": "US", "cross_street": "at Green", "dma": "San Francisco-Oakland-San Jose", "formatted_address": "507 Columbus Ave (at Green), San Francisco, CA 94133", "locality": "San Francisco", "neighborhood": ["Chinatown"], "postcode": "94133", "region": "CA"}, "name": "Alimento", "related_places": {}, "timezone": "America/Los_Angeles"}, {"fsq_id": "5031311ce4b06d3d08eaf288", "categories": [{"id": 13065, "name": "Restaurant", "icon": {"prefix": "https://ss3.4sqi.net/img/categories_v2/food/default_", "suffix": ".png"}}], "chains": [], "distance": 169, "geocodes": {"main": {"latitude": 37.801267, "longitude": -122.411233}}, "link": "/v3/places/5031311ce4b06d3d08eaf288", "location": {"address": "700 Filbert St", "country": "US", "cross_street": "at Powell St", "dma": "San Francisco-Oakland-San Jose", "formatted_address": "700 Filbert St (at Powell St), San Francisco, CA 94133", "locality": "San Francisco", "neighborhood": ["Chinatown"], "postcode": "94133", "region": "CA"}, "name": "Victoria Pastry", "related_places": {}, "timezone": "America/Los_Angeles"}, {"fsq_id": "4b2956f6f964a5202e9d24e3", "categories": [{"id": 13031, "name": "Burger Joint", "icon": {"prefix": "https://ss3.4sqi.net/img/categories_v2/food/burger_", "suffix": ".png"}}, {"id": 13297, "name": "Latin American Restaurant", "icon": {"prefix": "https://ss3.4sqi.net/img/categories_v2/food/latinamerican_", "suffix": ".png"}}, {"id": 13307, "name": "Tex-Mex Restaurant", "icon": {"prefix": "https://ss3.4sqi.net/img/categories_v2/food/mexican_", "suffix": ".png"}}], "chains": [], "distance": 194, "geocodes": {"main": {"latitude": 37.800773, "longitude": -122.407837}, "roof": {"latitude": 37.800773, "longitude": -122.407837}}, "link": "/v3/places/4b2956f6f964a5202e9d24e3", "location": {"address": "510 Union St", "census_block": "060750106003000", "country": "US", "cross_street": "at Grant Ave", "dma": "San Francisco-Oakland-San Jose", "formatted_address": "510 Union St (at Grant Ave), San Francisco, CA 94133", "locality": "San Francisco", "neighborhood": ["Chinatown"], "postcode": "94133", "region": "CA"}, "name": "Don Pisto's", "related_places": {}, "timezone": "America/Los_Angeles"}, {"fsq_id": "4e697f1bd4c01ce0172a0628", "categories": [{"id": 13072, "name": "Asian Restaurant", "icon": {"prefix": "https://ss3.4sqi.net/img/categories_v2/food/asian_", "suffix": ".png"}}, {"id": 13315, "name": "Noodle Restaurant", "icon": {"prefix": "https://ss3.4sqi.net/img/categories_v2/food/ramen_", "suffix": ".png"}}], "chains": [], "distance": 142, "geocodes": {"main": {"latitude": 37.799715, "longitude": -122.40842}, "roof": {"latitude": 37.799715, "longitude": -122.40842}}, "link": "/v3/places/4e697f1bd4c01ce0172a0628", "location": {"address": "570 Green St", "census_block": "060750106003004", "country": "US", "cross_street": "", "dma": "San Francisco-Oakland-San Jose", "formatted_address": "570 Green St, San Francisco, CA 94133", "locality": "San Francisco", "neighborhood": ["Chinatown"], "postcode": "94133", "region": "CA"}, "name": "Chubby Noodle North Be", "related_places": {}, "timezone": "America/Los_Angeles"}, {"fsq_id": "3fd66200f964a52041ed1ee3", "categories": [{"id": 13009, "name": "Cocktail Bar", "icon": {"prefix": "https://ss3.4sqi.net/img/categories_v2/nightlife/cocktails_", "suffix": ".png"}}, {"id": 13016, "name": "Lounge", "icon": {"prefix": "https://ss3.4sqi.net/img/categories_v2/nightlife/default_", "suffix": ".png"}}, {"id": 13303, "name": "Mexican Restaurant", "icon": {"prefix": "https://ss3.4sqi.net/img/categories_v2/food/mexican_", "suffix": ".png"}}], "chains": [], "distance": 80, "geocodes": {"main": {"latitude": 37.799905, "longitude": -122.408933}, "roof": {"latitude": 37.799905, "longitude": -122.408933}}, "link": "/v3/places/3fd66200f964a52041ed1ee3", "location": {"address": "1534 Stockton St", "census_block": "060750106003004", "country": "US", "cross_street": "btw Green & Union", "dma": "San Francisco-Oakland-San Jose", "formatted_address": "1534 Stockton St (btw Green & Union), San Francisco, CA 94133", "locality": "San Francisco", "neighborhood": ["Chinatown"], "postcode": "94133", "region": "CA"}, "name": "Tony Nik's", "related_places": {}, "timezone": "America/Los_Angeles"}, {"fsq_id": "4a76580bf964a520dfe21fe3", "categories": [{"id": 13031, "name": "Burger Joint", "icon": {"prefix": "https://ss3.4sqi.net/img/categories_v2/food/burger_", "suffix": ".png"}}, {"id": 13068, "name": "American Restaurant", "icon": {"prefix": "https://ss3.4sqi.net/img/categories_v2/food/default_", "suffix": ".png"}}], "chains": [], "distance": 255, "geocodes": {"main": {"latitude": 37.799125, "longitude": -122.407166}, "roof": {"latitude": 37.799125, "longitude": -122.407166}}, "link": "/v3/places/4a76580bf964a520dfe21fe3", "location": {"address": "1322 Grant Ave", "census_block": "060750106001006", "country": "US", "cross_street": "btw Green & Vallejo", "dma": "San Francisco-Oakland-San Jose", "formatted_address": "1322 Grant Ave (btw Green & Vallejo), San Francisco, CA 94133", "locality": "San Francisco", "neighborhood": ["Chinatown"], "postcode": "94133", "region": "CA"}, "name": "Mos Restaurant", "related_places": {}, "timezone": "America/Los_Angeles"}, {"fsq_id": "3fd66200f964a520a9ec1ee3", "categories": [{"id": 13065, "name": "Restaurant", "icon": {"prefix": "https://ss3.4sqi.net/img/categories_v2/food/default_", "suffix": ".png"}}], "chains": [], "distance": 167, "geocodes": {"main": {"latitude": 37.801449, "longitude": -122.409669}, "roof": {"latitude": 37.801449, "longitude": -122.409669}}, "link": "/v3/places/3fd66200f964a520a9ec1ee3", "location": {"address": "1701 Stockton St", "census_block": "060750104012006", "country": "US", "cross_street": "at Filbert St", "dma": "San Francisco-Oakland-San Jose", "formatted_address": "1701 Stockton St (at Filbert St), San Francisco, CA 94133", "locality": "San Francisco", "neighborhood": ["Chinatown"], "postcode": "94133", "region": "CA"}, "name": "Mama's On Washington Square", "related_places": {}, "timezone": "America/Los_Angeles"}, {"fsq_id": "4a4bd09bf964a520c5ac1fe3", "categories": [{"id": 13002, "name": "Bakery", "icon": {"prefix": "https://ss3.4sqi.net/img/categories_v2/food/bakery_", "suffix": ".png"}}, {"id": 13065, "name": "Restaurant", "icon": {"prefix": "https://ss3.4sqi.net/img/categories_v2/food/default_", "suffix": ".png"}}], "chains": [], "distance": 170, "geocodes": {"main": {"latitude": 37.80152, "longitude": -122.409171}, "roof": {"latitude": 37.80152, "longitude": -122.409171}}, "link": "/v3/places/4a4bd09bf964a520c5ac1fe3", "location": {"address": "1700 Stockton St", "census_block": "060750104012004", "country": "US", "cross_street": "at Filbert St", "dma": "San Francisco-Oakland-San Jose", "formatted_address": "1700 Stockton St (at Filbert St), San Francisco, CA 94133", "locality": "San Francisco", "neighborhood": ["Chinatown"], "postcode": "94133", "region": "CA"}, "name": "Liguria Bakery", "related_places": {}, "timezone": "America/Los_Angeles"}, {"fsq_id": "3fd66200f964a5200fed1ee3", "categories": [{"id": 13010, "name": "Dive Bar", "icon": {"prefix": "https://ss3.4sqi.net/img/categories_v2/nightlife/divebar_", "suffix": ".png"}}, {"id": 13022, "name": "Sports Bar", "icon": {"prefix": "https://ss3.4sqi.net/img/categories_v2/nightlife/sportsbar_", "suffix": ".png"}}, {"id": 13065, "name": "Restaurant", "icon": {"prefix": "https://ss3.4sqi.net/img/categories_v2/food/default_", "suffix": ".png"}}], "chains": [], "distance": 91, "geocodes": {"main": {"latitude": 37.799108, "longitude": -122.410391}, "roof": {"latitude": 37.799108, "longitude": -122.410391}}, "link": "/v3/places/3fd66200f964a5200fed1ee3", "location": {"address": "1560 Powell St", "census_block": "060750107022001", "country": "US", "cross_street": "at Green St", "dma": "San Francisco-Oakland-San Jose", "formatted_address": "1560 Powell St (at Green St), San Francisco, CA 94133", "locality": "San Francisco", "neighborhood": ["Chinatown"], "postcode": "94133", "region": "CA"}, "name": "Northstar Cafe", "related_places": {}, "timezone": "America/Los_Angeles"}, {"fsq_id": "43bfc471f964a520222d1fe3", "categories": [{"id": 13034, "name": "Caf\u00e9", "icon": {"prefix": "https://ss3.4sqi.net/img/categories_v2/food/cafe_", "suffix": ".png"}}, {"id": 13035, "name": "Coffee Shop", "icon": {"prefix": "https://ss3.4sqi.net/img/categories_v2/food/coffeeshop_", "suffix": ".png"}}, {"id": 13236, "name": "Italian Restaurant", "icon": {"prefix": "https://ss3.4sqi.net/img/categories_v2/food/italian_", "suffix": ".png"}}], "chains": [], "distance": 276, "geocodes": {"main": {"latitude": 37.798621, "longitude": -122.407351}, "roof": {"latitude": 37.798621, "longitude": -122.407351}}, "link": "/v3/places/43bfc471f964a520222d1fe3", "location": {"address": "609 Vallejo St", "census_block": "060750106003008", "country": "US", "cross_street": "at Grant Ave", "dma": "San Francisco-Oakland-San Jose", "formatted_address": "609 Vallejo St (at Grant Ave), San Francisco, CA 94133", "locality": "San Francisco", "neighborhood": ["Chinatown"], "postcode": "94133", "region": "CA"}, "name": "Caffe Trieste", "related_places": {}, "timezone": "America/Los_Angeles"}, {"fsq_id": "3fd66200f964a52044ed1ee3", "categories": [{"id": 13009, "name": "Cocktail Bar", "icon": {"prefix": "https://ss3.4sqi.net/img/categories_v2/nightlife/cocktails_", "suffix": ".png"}}, {"id": 13010, "name": "Dive Bar", "icon": {"prefix": "https://ss3.4sqi.net/img/categories_v2/nightlife/divebar_", "suffix": ".png"}}, {"id": 13236, "name": "Italian Restaurant", "icon": {"prefix": "https://ss3.4sqi.net/img/categories_v2/food/italian_", "suffix": ".png"}}], "chains": [], "distance": 412, "geocodes": {"main": {"latitude": 37.797424, "longitude": -122.406349}, "roof": {"latitude": 37.797424, "longitude": -122.406349}}, "link": "/v3/places/3fd66200f964a52044ed1ee3", "location": {"address": "255 Columbus Ave", "census_block": "060750107011006", "country": "US", "cross_street": "btwn Broadway and Pacific", "dma": "San Francisco-Oakland-San Jose", "formatted_address": "255 Columbus Ave (btwn Broadway and Pacific), San Francisco, CA 94133", "locality": "San Francisco", "neighborhood": ["Chinatown"], "postcode": "94133", "region": "CA"}, "name": "Vesuvio Cafe", "related_places": {}, "timezone": "America/Los_Angeles"}, {"fsq_id": "5b99e024780eee002cd0e723", "categories": [{"id": 13009, "name": "Cocktail Bar", "icon": {"prefix": "https://ss3.4sqi.net/img/categories_v2/nightlife/cocktails_", "suffix": ".png"}}, {"id": 13064, "name": "Pizzeria", "icon": {"prefix": "https://ss3.4sqi.net/img/categories_v2/food/pizza_", "suffix": ".png"}}, {"id": 13236, "name": "Italian Restaurant", "icon": {"prefix": "https://ss3.4sqi.net/img/categories_v2/food/italian_", "suffix": ".png"}}], "chains": [], "distance": 141, "geocodes": {"main": {"latitude": 37.79894, "longitude": -122.408732}, "roof": {"latitude": 37.79894, "longitude": -122.408732}}, "link": "/v3/places/5b99e024780eee002cd0e723", "location": {"address": "431 Columbus Ave", "census_block": "060750107022000", "country": "US", "cross_street": "", "dma": "San Francisco-Oakland-San Jose", "formatted_address": "431 Columbus Ave, San Francisco, CA 94133", "locality": "San Francisco", "neighborhood": ["Chinatown"], "postcode": "94133", "region": "CA"}, "name": "Barbara Pinseria & Cocktail Bar", "related_places": {}, "timezone": "America/Los_Angeles"}, {"fsq_id": "575ca7c0498e39f5f33a692e", "categories": [{"id": 13022, "name": "Sports Bar", "icon": {"prefix": "https://ss3.4sqi.net/img/categories_v2/nightlife/sportsbar_", "suffix": ".png"}}, {"id": 13068, "name": "American Restaurant", "icon": {"prefix": "https://ss3.4sqi.net/img/categories_v2/food/default_", "suffix": ".png"}}, {"id": 13334, "name": "Sandwich Restaurant", "icon": {"prefix": "https://ss3.4sqi.net/img/categories_v2/food/deli_", "suffix": ".png"}}], "chains": [], "distance": 62, "geocodes": {"main": {"latitude": 37.799563, "longitude": -122.409558}, "roof": {"latitude": 37.799563, "longitude": -122.409558}}, "link": "/v3/places/575ca7c0498e39f5f33a692e", "location": {"address": "622 Green St", "census_block": "060750107021004", "country": "US", "cross_street": "Columbus", "dma": "San Francisco-Oakland-San Jose", "formatted_address": "622 Green St (Columbus), San Francisco, CA 94133", "locality": "San Francisco", "neighborhood": ["Chinatown"], "postcode": "94133", "region": "CA"}, "name": "Chief Sullivan's", "related_places": {"children": [{"fsq_id": "592df07731ac6c14dc9713d3", "name": "Friends With Benedicts"}]}, "timezone": "America/Los_Angeles"}, {"fsq_id": "3fd66200f964a5202bed1ee3", "categories": [{"id": 13009, "name": "Cocktail Bar", "icon": {"prefix": "https://ss3.4sqi.net/img/categories_v2/nightlife/cocktails_", "suffix": ".png"}}, {"id": 13068, "name": "American Restaurant", "icon": {"prefix": "https://ss3.4sqi.net/img/categories_v2/food/default_", "suffix": ".png"}}, {"id": 13347, "name": "Tapas Restaurant", "icon": {"prefix": "https://ss3.4sqi.net/img/categories_v2/food/tapas_", "suffix": ".png"}}], "chains": [], "distance": 379, "geocodes": {"main": {"latitude": 37.798253, "longitude": -122.406182}, "roof": {"latitude": 37.798253, "longitude": -122.406182}}, "link": "/v3/places/3fd66200f964a5202bed1ee3", "location": {"address": "15 Romolo Pl", "census_block": "060750106002004", "country": "US", "cross_street": "btwn Fresno St & Broadway", "dma": "San Francisco-Oakland-San Jose", "formatted_address": "15 Romolo Pl (btwn Fresno St & Broadway), San Francisco, CA 94133", "locality": "San Francisco", "neighborhood": ["Chinatown"], "postcode": "94133", "region": "CA"}, "name": "15 Romolo", "related_places": {}, "timezone": "America/Los_Angeles"}, {"fsq_id": "53988def498e68d4d894fc87", "categories": [{"id": 13099, "name": "Chinese Restaurant", "icon": {"prefix": "https://ss3.4sqi.net/img/categories_v2/food/asian_", "suffix": ".png"}}], "chains": [], "distance": 288, "geocodes": {"main": {"latitude": 37.797938, "longitude": -122.407741}, "roof": {"latitude": 37.797938, "longitude": -122.407741}}, "link": "/v3/places/53988def498e68d4d894fc87", "location": {"address": "644 Broadway", "census_block": "060750107012000", "country": "US", "cross_street": "", "dma": "San Francisco-Oakland-San Jose", "formatted_address": "644 Broadway, San Francisco, CA 94133", "locality": "San Francisco", "neighborhood": ["Chinatown"], "postcode": "94133", "region": "CA"}, "name": "China Live", "related_places": {"children": [{"fsq_id": "5d9ebaec9766eb0008a1e25c", "name": "Knowhere"}, {"fsq_id": "5951af44a35dce50e0930c6a", "name": "Cold Drinks Bar"}]}, "timezone": "America/Los_Angeles"}, {"fsq_id": "50ad5b86067d33c34bef6724", "categories": [{"id": 13035, "name": "Coffee Shop", "icon": {"prefix": "https://ss3.4sqi.net/img/categories_v2/food/coffeeshop_", "suffix": ".png"}}], "chains": [], "distance": 496, "geocodes": {"main": {"latitude": 37.797321, "longitude": -122.405554}, "roof": {"latitude": 37.797321, "longitude": -122.405554}}, "link": "/v3/places/50ad5b86067d33c34bef6724", "location": {"address": "200 Columbus Ave", "census_block": "060750106002005", "country": "US", "cross_street": "at Pacific Ave", "dma": "San Francisco-Oakland-San Jose", "formatted_address": "200 Columbus Ave (at Pacific Ave), San Francisco, CA 94133", "locality": "San Francisco", "neighborhood": ["Chinatown"], "postcode": "94133", "region": "CA"}, "name": "R\u00e9veille Coffee Co. Truck", "related_places": {}, "timezone": "America/Los_Angeles"}, {"fsq_id": "3fd66200f964a52042ed1ee3", "categories": [{"id": 13025, "name": "Wine Bar", "icon": {"prefix": "https://ss3.4sqi.net/img/categories_v2/food/winery_", "suffix": ".png"}}, {"id": 13034, "name": "Caf\u00e9", "icon": {"prefix": "https://ss3.4sqi.net/img/categories_v2/food/cafe_", "suffix": ".png"}}, {"id": 13236, "name": "Italian Restaurant", "icon": {"prefix": "https://ss3.4sqi.net/img/categories_v2/food/italian_", "suffix": ".png"}}], "chains": [], "distance": 452, "geocodes": {"main": {"latitude": 37.797532, "longitude": -122.405781}, "roof": {"latitude": 37.797532, "longitude": -122.405781}}, "link": "/v3/places/3fd66200f964a52042ed1ee3", "location": {"address": "242 Columbus Ave", "census_block": "060750106002005", "country": "US", "cross_street": "at Pacific Ave", "dma": "San Francisco-Oakland-San Jose", "formatted_address": "242 Columbus Ave (at Pacific Ave), San Francisco, CA 94133", "locality": "San Francisco", "neighborhood": ["Chinatown"], "postcode": "94133", "region": "CA"}, "name": "Tosca Cafe", "related_places": {}, "timezone": "America/Los_Angeles"}, {"fsq_id": "5487a2cb498ea3c43c7cd3f4", "categories": [{"id": 13009, "name": "Cocktail Bar", "icon": {"prefix": "https://ss3.4sqi.net/img/categories_v2/nightlife/cocktails_", "suffix": ".png"}}, {"id": 13016, "name": "Lounge", "icon": {"prefix": "https://ss3.4sqi.net/img/categories_v2/nightlife/default_", "suffix": ".png"}}, {"id": 13065, "name": "Restaurant", "icon": {"prefix": "https://ss3.4sqi.net/img/categories_v2/food/default_", "suffix": ".png"}}], "chains": [], "distance": 427, "geocodes": {"main": {"latitude": 37.797733, "longitude": -122.406152}, "roof": {"latitude": 37.797733, "longitude": -122.406152}}, "link": "/v3/places/5487a2cb498ea3c43c7cd3f4", "location": {"address": "256 Columbus Ave", "census_block": "060750106002005", "country": "US", "cross_street": "Broadway", "dma": "San Francisco-Oakland-San Jose", "formatted_address": "256 Columbus Ave (Broadway), San Francisco, CA 94133", "locality": "San Francisco", "neighborhood": ["Chinatown"], "postcode": "94133", "region": "CA"}, "name": "The Devil's Acre", "related_places": {"children": [{"fsq_id": "554d97aa498ede56d242a891", "name": "The Remedie Room"}]}, "timezone": "America/Los_Angeles"}, {"fsq_id": "49dff63ef964a52031611fe3", "categories": [{"id": 13022, "name": "Sports Bar", "icon": {"prefix": "https://ss3.4sqi.net/img/categories_v2/nightlife/sportsbar_", "suffix": ".png"}}, {"id": 13068, "name": "American Restaurant", "icon": {"prefix": "https://ss3.4sqi.net/img/categories_v2/food/default_", "suffix": ".png"}}], "chains": [], "distance": 85, "geocodes": {"main": {"latitude": 37.799465, "longitude": -122.410843}, "roof": {"latitude": 37.799465, "longitude": -122.410843}}, "link": "/v3/places/49dff63ef964a52031611fe3", "location": {"address": "1609 Powell St", "census_block": "060750107021005", "country": "US", "cross_street": "at Green St", "dma": "San Francisco-Oakland-San Jose", "formatted_address": "1609 Powell St (at Green St), San Francisco, CA 94133", "locality": "San Francisco", "neighborhood": ["Chinatown"], "postcode": "94133", "region": "CA"}, "name": "The Boardroom", "related_places": {}, "timezone": "America/Los_Angeles"}, {"fsq_id": "4ab5b7aaf964a520ec7520e3", "categories": [{"id": 13302, "name": "Mediterranean Restaurant", "icon": {"prefix": "https://ss3.4sqi.net/img/categories_v2/food/mediterranean_", "suffix": ".png"}}, {"id": 13309, "name": "Middle Eastern Restaurant", "icon": {"prefix": "https://ss3.4sqi.net/img/categories_v2/food/middleeastern_", "suffix": ".png"}}, {"id": 13317, "name": "Persian Restaurant", "icon": {"prefix": "https://ss3.4sqi.net/img/categories_v2/food/middleeastern_", "suffix": ".png"}}], "chains": [], "distance": 254, "geocodes": {"main": {"latitude": 37.799982, "longitude": -122.407073}, "roof": {"latitude": 37.799982, "longitude": -122.407073}}, "link": "/v3/places/4ab5b7aaf964a520ec7520e3", "location": {"address": "470 Green St", "census_block": "060750106001003", "country": "US", "cross_street": "", "dma": "San Francisco-Oakland-San Jose", "formatted_address": "470 Green St, San Francisco, CA 94133", "locality": "San Francisco", "neighborhood": ["Chinatown"], "postcode": "94133", "region": "CA"}, "name": "Maykadeh", "related_places": {}, "timezone": "America/Los_Angeles"}, {"fsq_id": "50a6999590e7783c56a9945c", "categories": [{"id": 13002, "name": "Bakery", "icon": {"prefix": "https://ss3.4sqi.net/img/categories_v2/food/bakery_", "suffix": ".png"}}, {"id": 13035, "name": "Coffee Shop", "icon": {"prefix": "https://ss3.4sqi.net/img/categories_v2/food/coffeeshop_", "suffix": ".png"}}, {"id": 13334, "name": "Sandwich Restaurant", "icon": {"prefix": "https://ss3.4sqi.net/img/categories_v2/food/deli_", "suffix": ".png"}}], "chains": [], "distance": 379, "geocodes": {"main": {"latitude": 37.802163, "longitude": -122.413153}, "roof": {"latitude": 37.802163, "longitude": -122.413153}}, "link": "/v3/places/50a6999590e7783c56a9945c", "location": {"address": "805 Columbus Ave", "census_block": "060750103001010", "country": "US", "dma": "San Francisco-Oakland-San Jose", "formatted_address": "805 Columbus Ave, San Francisco, CA 94133", "locality": "San Francisco", "neighborhood": ["Little Italy"], "postcode": "94133", "region": "CA"}, "name": "Beacon Coffee & Pantry", "related_places": {}, "timezone": "America/Los_Angeles"}, {"fsq_id": "471a51b5f964a520aa4b1fe3", "categories": [{"id": 13009, "name": "Cocktail Bar", "icon": {"prefix": "https://ss3.4sqi.net/img/categories_v2/nightlife/cocktails_", "suffix": ".png"}}, {"id": 13015, "name": "Karaoke Bar", "icon": {"prefix": "https://ss3.4sqi.net/img/categories_v2/nightlife/karaoke_", "suffix": ".png"}}, {"id": 13303, "name": "Mexican Restaurant", "icon": {"prefix": "https://ss3.4sqi.net/img/categories_v2/food/mexican_", "suffix": ".png"}}], "chains": [], "distance": 377, "geocodes": {"main": {"latitude": 37.797591, "longitude": -122.407147}, "roof": {"latitude": 37.797591, "longitude": -122.407147}}, "link": "/v3/places/471a51b5f964a520aa4b1fe3", "location": {"address": "1155 Grant Ave", "census_block": "060750107011001", "country": "US", "cross_street": "at Broadway", "dma": "San Francisco-Oakland-San Jose", "formatted_address": "1155 Grant Ave (at Broadway), San Francisco, CA 94133", "locality": "San Francisco", "neighborhood": ["Chinatown"], "postcode": "94133", "region": "CA"}, "name": "Bow Bow Cocktail Lounge", "related_places": {}, "timezone": "America/Los_Angeles"}, {"fsq_id": "43a97e8ef964a5207c2c1fe3", "categories": [{"id": 13064, "name": "Pizzeria", "icon": {"prefix": "https://ss3.4sqi.net/img/categories_v2/food/pizza_", "suffix": ".png"}}, {"id": 13236, "name": "Italian Restaurant", "icon": {"prefix": "https://ss3.4sqi.net/img/categories_v2/food/italian_", "suffix": ".png"}}], "chains": [], "distance": 205, "geocodes": {"main": {"latitude": 37.799846, "longitude": -122.407567}, "roof": {"latitude": 37.799846, "longitude": -122.407567}}, "link": "/v3/places/43a97e8ef964a5207c2c1fe3", "location": {"address": "510 Green St", "address_extended": "# 3906", "census_block": "060750106003006", "country": "US", "cross_street": "at Bannam Pl", "dma": "San Francisco-Oakland-San Jose", "formatted_address": "510 Green St (at Bannam Pl), San Francisco, CA 94133", "locality": "San Francisco", "neighborhood": ["Chinatown"], "postcode": "94133", "region": "CA"}, "name": "Sodini's Green Valley Restaurant", "related_places": {}, "timezone": "America/Los_Angeles"}, {"fsq_id": "4a2ae5f3f964a52069961fe3", "categories": [{"id": 13006, "name": "Beer Bar", "icon": {"prefix": "https://ss3.4sqi.net/img/categories_v2/nightlife/pub_", "suffix": ".png"}}, {"id": 13016, "name": "Lounge", "icon": {"prefix": "https://ss3.4sqi.net/img/categories_v2/nightlife/default_", "suffix": ".png"}}, {"id": 13026, "name": "BBQ Joint", "icon": {"prefix": "https://ss3.4sqi.net/img/categories_v2/food/bbqalt_", "suffix": ".png"}}], "chains": [], "distance": 227, "geocodes": {"main": {"latitude": 37.799906, "longitude": -122.407212}, "roof": {"latitude": 37.799906, "longitude": -122.407212}}, "link": "/v3/places/4a2ae5f3f964a52069961fe3", "location": {"address": "1402 Grant Ave", "census_block": "060750106001003", "country": "US", "cross_street": "btw Green & Union St", "dma": "San Francisco-Oakland-San Jose", "formatted_address": "1402 Grant Ave (btw Green & Union St), San Francisco, CA 94133", "locality": "San Francisco", "neighborhood": ["Chinatown"], "postcode": "94133", "region": "CA"}, "name": "Church Key", "related_places": {}, "timezone": "America/Los_Angeles"}, {"fsq_id": "4a77c047f964a52017e51fe3", "categories": [{"id": 10032, "name": "Night Club", "icon": {"prefix": "https://ss3.4sqi.net/img/categories_v2/nightlife/nightclub_", "suffix": ".png"}}, {"id": 13010, "name": "Dive Bar", "icon": {"prefix": "https://ss3.4sqi.net/img/categories_v2/nightlife/divebar_", "suffix": ".png"}}], "chains": [], "distance": 300, "geocodes": {"main": {"latitude": 37.798643, "longitude": -122.407066}, "roof": {"latitude": 37.798643, "longitude": -122.407066}}, "link": "/v3/places/4a77c047f964a52017e51fe3", "location": {"address": "1232 Grant Ave", "census_block": "060750106003009", "country": "US", "cross_street": "Fresno", "dma": "San Francisco-Oakland-San Jose", "formatted_address": "1232 Grant Ave (Fresno), San Francisco, CA 94133", "locality": "San Francisco", "neighborhood": ["Chinatown"], "postcode": "94133", "region": "CA"}, "name": "The Saloon", "related_places": {}, "timezone": "America/Los_Angeles"}, {"fsq_id": "5aac90afdee770732c69ebda", "categories": [{"id": 13025, "name": "Wine Bar", "icon": {"prefix": "https://ss3.4sqi.net/img/categories_v2/food/winery_", "suffix": ".png"}}, {"id": 13236, "name": "Italian Restaurant", "icon": {"prefix": "https://ss3.4sqi.net/img/categories_v2/food/italian_", "suffix": ".png"}}, {"id": 13338, "name": "Seafood Restaurant", "icon": {"prefix": "https://ss3.4sqi.net/img/categories_v2/food/seafood_", "suffix": ".png"}}], "chains": [], "distance": 446, "geocodes": {"main": {"latitude": 37.796148, "longitude": -122.411507}, "roof": {"latitude": 37.796148, "longitude": -122.411507}}, "link": "/v3/places/5aac90afdee770732c69ebda", "location": {"address": "1358 Mason St", "census_block": "060750113001002", "country": "US", "cross_street": "Pacific", "dma": "San Francisco-Oakland-San Jose", "formatted_address": "1358 Mason St (Pacific), San Francisco, CA 94133", "locality": "San Francisco", "neighborhood": ["Chinatown"], "postcode": "94133", "region": "CA"}, "name": "Altovino", "related_places": {}, "timezone": "America/Los_Angeles"}, {"fsq_id": "5b57e6f516fa040039365043", "categories": [{"id": 13039, "name": "Deli", "icon": {"prefix": "https://ss3.4sqi.net/img/categories_v2/food/deli_", "suffix": ".png"}}, {"id": 13236, "name": "Italian Restaurant", "icon": {"prefix": "https://ss3.4sqi.net/img/categories_v2/food/italian_", "suffix": ".png"}}, {"id": 13334, "name": "Sandwich Restaurant", "icon": {"prefix": "https://ss3.4sqi.net/img/categories_v2/food/deli_", "suffix": ".png"}}], "chains": [], "distance": 176, "geocodes": {"main": {"latitude": 37.798859, "longitude": -122.408513}, "roof": {"latitude": 37.798859, "longitude": -122.408513}}, "link": "/v3/places/5b57e6f516fa040039365043", "location": {"address": "658 Vallejo St", "census_block": "060750107022000", "country": "US", "cross_street": "Stockton", "dma": "San Francisco-Oakland-San Jose", "formatted_address": "658 Vallejo St (Stockton), San Francisco, CA 94133", "locality": "San Francisco", "neighborhood": ["Chinatown"], "postcode": "94133", "region": "CA"}, "name": "Palermo II Delicatessen", "related_places": {}, "timezone": "America/Los_Angeles"}, {"fsq_id": "6180a9f3461b1e7f7febddf5", "categories": [{"id": 13028, "name": "Breakfast Spot", "icon": {"prefix": "https://ss3.4sqi.net/img/categories_v2/food/breakfast_", "suffix": ".png"}}], "chains": [], "distance": 82, "geocodes": {"main": {"latitude": 37.800054, "longitude": -122.411008}}, "link": "/v3/places/6180a9f3461b1e7f7febddf5", "location": {"address": "701 Union St", "country": "US", "cross_street": "", "dma": "San Francisco-Oakland-San Jose", "formatted_address": "701 Union St, San Francisco, CA 94133", "locality": "San Francisco", "neighborhood": ["Chinatown"], "postcode": "94133", "region": "CA"}, "name": "Hilda and Jesse", "related_places": {}, "timezone": "America/Los_Angeles"}, {"fsq_id": "51491943e4b0f287deb059df", "categories": [{"id": 13002, "name": "Bakery", "icon": {"prefix": "https://ss3.4sqi.net/img/categories_v2/food/bakery_", "suffix": ".png"}}, {"id": 13065, "name": "Restaurant", "icon": {"prefix": "https://ss3.4sqi.net/img/categories_v2/food/default_", "suffix": ".png"}}], "chains": [], "distance": 197, "geocodes": {"main": {"latitude": 37.798496, "longitude": -122.408563}, "roof": {"latitude": 37.798496, "longitude": -122.408563}}, "link": "/v3/places/51491943e4b0f287deb059df", "location": {"address": "1362 Stockton St", "census_block": "060750107012000", "country": "US", "cross_street": "Vallejo St", "dma": "San Francisco-Oakland-San Jose", "formatted_address": "1362 Stockton St (Vallejo St), San Francisco, CA 94133", "locality": "San Francisco", "neighborhood": ["Chinatown"], "postcode": "94133", "region": "CA"}, "name": "Fancy Wheat Field Bakery", "related_places": {}, "timezone": "America/Los_Angeles"}, {"fsq_id": "550f4bbf498e0e905134d593", "categories": [{"id": 13102, "name": "Cantonese Restaurant", "icon": {"prefix": "https://ss3.4sqi.net/img/categories_v2/food/asian_", "suffix": ".png"}}], "chains": [], "distance": 293, "geocodes": {"main": {"latitude": 37.797867, "longitude": -122.408239}, "roof": {"latitude": 37.797867, "longitude": -122.408239}}, "link": "/v3/places/550f4bbf498e0e905134d593", "location": {"address": "674 Broadway", "census_block": "060750107012000", "country": "US", "cross_street": "Near Stockton St", "dma": "San Francisco-Oakland-San Jose", "formatted_address": "674 Broadway (Near Stockton St), San Francisco, CA 94133", "locality": "San Francisco", "neighborhood": ["Chinatown"], "postcode": "94133", "region": "CA"}, "name": "Cafe Broadway", "related_places": {}, "timezone": "America/Los_Angeles"}, {"fsq_id": "463df059f964a52040461fe3", "categories": [{"id": 13236, "name": "Italian Restaurant", "icon": {"prefix": "https://ss3.4sqi.net/img/categories_v2/food/italian_", "suffix": ".png"}}], "chains": [], "distance": 260, "geocodes": {"main": {"latitude": 37.798458, "longitude": -122.407772}, "roof": {"latitude": 37.798458, "longitude": -122.407772}}, "link": "/v3/places/463df059f964a52040461fe3", "location": {"address": "353 Columbus Ave", "census_block": "060750107012000", "country": "US", "cross_street": "Vallejo St.", "dma": "San Francisco-Oakland-San Jose", "formatted_address": "353 Columbus Ave (Vallejo St.), San Francisco, CA 94133", "locality": "San Francisco", "neighborhood": ["Chinatown"], "postcode": "94133", "region": "CA"}, "name": "Mona Lisa Restaurant", "related_places": {}, "timezone": "America/Los_Angeles"}, {"fsq_id": "4ad8eb0bf964a520f71521e3", "categories": [{"id": 13026, "name": "BBQ Joint", "icon": {"prefix": "https://ss3.4sqi.net/img/categories_v2/food/bbqalt_", "suffix": ".png"}}, {"id": 13072, "name": "Asian Restaurant", "icon": {"prefix": "https://ss3.4sqi.net/img/categories_v2/food/asian_", "suffix": ".png"}}, {"id": 13102, "name": "Cantonese Restaurant", "icon": {"prefix": "https://ss3.4sqi.net/img/categories_v2/food/asian_", "suffix": ".png"}}], "chains": [], "distance": 309, "geocodes": {"main": {"latitude": 37.797118, "longitude": -122.410346}, "roof": {"latitude": 37.797118, "longitude": -122.410346}}, "link": "/v3/places/4ad8eb0bf964a520f71521e3", "location": {"address": "801 Broadway", "census_block": "060750107011004", "country": "US", "cross_street": "at Powell St", "dma": "San Francisco-Oakland-San Jose", "formatted_address": "801 Broadway (at Powell St), San Francisco, CA 94133", "locality": "San Francisco", "neighborhood": ["Chinatown"], "postcode": "94133", "region": "CA"}, "name": "Kam PO Kitchen", "related_places": {}, "timezone": "America/Los_Angeles"}], "context": {"geo_bounds": {"circle": {"center": {"latitude": 37.8, "longitude": -122.41}, "radius": 500}}}}