{"results": [{"fsq_id": "f0e36f2a49c54cd3da43ff34", "categories": [{"id": 13065, "name": "Restaurant", "icon": {"prefix": "https://ss3.4sqi.net/img/categories_v2/food/default_", "suffix": ".png"}}], "chains": [], "distance": 117, "geocodes": {"main": {"latitude": 37.719027, "longitude": -122.409467}}, "link": "/v3/places/f0e36f2a49c54cd3da43ff34", "location": {"address": "Geneva Avenue and Santos Street 2600 Geneva Avenue Daly City", "census_block": "060759805011003", "country": "US", "dma": "San Francisco-Oakland-San Jose", "formatted_address": "Geneva Avenue and Santos Street 2600 Geneva Avenue Daly City, San Francisco, CA 94134", "locality": "San Francisco", "neighborhood": ["Bayshore"], "po_box": "P.O. Box 34206", "postcode": "94134", "region": "CA"}, "name": "Cow Palace", "related_places": {}}, {"fsq_id": "3e0f11f422e444b3db294137", "categories": [{"id": 10000, "name": "Arts and Entertainment", "icon": {"prefix": "https://ss3.4sqi.net/img/categories_v2/arts_entertainment/default_", "suffix": ".png"}}, {"id": 13003, "name": "Bar", "icon": {"prefix": "https://ss3.4sqi.net/img/categories_v2/nightlife/pub_", "suffix": ".png"}}, {"id": 13065, "name": "Restaurant", "icon": {"prefix": "https://ss3.4sqi.net/img/categories_v2/food/default_", "suffix": ".png"}}], "chains": [], "distance": 438, "geocodes": {"main": {"latitude": 37.719028, "longitude": -122.405168}, "roof": {"latitude": 37.719028, "longitude": -122.405168}}, "link": "/v3/places/3e0f11f422e444b3db294137", "location": {"address": "12 Alder St", "address_extended": "Ste 12", "census_block": "060750264021000", "country": "US", "dma": "San Francisco-Oakland-San Jose", "formatted_address": "12 Alder St, San Francisco, CA 94134", "locality": "San Francisco", "neighborhood": ["Bayshore"], "postcode": "94134", "region": "CA"}, "name": "Specs' Twelve Adler Museum Bar", "related_places": {}}], "context": {"geo_bounds": {"circle": {"center": {"latitude": 37.72, "longitude": -122.41}, "radius": 500}}}}