{"results": [{"fsq_id": "5c44f4af005ac1002cd20ec6", "categories": [{"id": 13193, "name": "Poke Restaurant", "icon": {"prefix": "https://ss3.4sqi.net/img/categories_v2/food/default_", "suffix": ".png"}}, {"id": 13263, "name": "Japanese Restaurant", "icon": {"prefix": "https://ss3.4sqi.net/img/categories_v2/food/japanese_", "suffix": ".png"}}], "chains": [], "distance": 281, "geocodes": {"main": {"latitude": 37.778034, "longitude": -122.422409}, "roof": {"latitude": 37.778034, "longitude": -122.422409}}, "link": "/v3/places/5c44f4af005ac1002cd20ec6", "location": {"address": "340 Grove St", "census_block": "060750162001002", "country": "US", "cross_street": "Franklin", "dma": "San Francisco-Oakland-San Jose", "formatted_address": "340 Grove St (Franklin), San Francisco, CA 94102", "locality": "San Francisco", "neighborhood": ["Civic Center"], "postcode": "94102", "region": "CA"}, "name": "Urban Bowls", "related_places": {}, "timezone": "America/Los_Angeles"}, {"fsq_id": "55df9e27498ef4c72ac83a77", "categories": [{"id": 13009, "name": "Cocktail Bar", "icon": {"prefix": "https://ss3.4sqi.net/img/categories_v2/nightlife/cocktails_", "suffix": ".png"}}, {"id": 13065, "name": "Restaurant", "icon": {"prefix": "https://ss3.4sqi.net/img/categories_v2/food/default_", "suffix": ".png"}}], "chains": [], "distance": 266, "geocodes": {"main": {"latitude": 37.782334, "longitude": -122.41872}, "roof": {"latitude": 37.782334, "longitude": -122.41872}}, "link": "/v3/places/55df9e27498ef4c72ac83a77", "location": {"address": "600 Polk St", "census_block": "060750124061003", "country": "US", "cross_street": "btwn Eddy and Turk St", "dma": "San Francisco-Oakland-San Jose", "formatted_address": "600 Polk St (btwn Eddy and Turk St), San Francisco, CA 94102", "locality": "San Francisco", "neighborhood": ["Civic Center"], "postcode": "94102", "region": "CA"}, "name": "Whitechapel", "related_places": {"children": [{"fsq_id": "5f25ea66b3bc6069f642ce9c", "name": "The Barbican by Whitechapel"}]}, "timezone": "America/Los_Angeles"}, {"fsq_id": "5151a10ce4b06ae7735335db", "categories": [{"id": 13032, "name": "Cafes, Coffee, and Tea Houses", "icon": {"prefix": "https://ss3.4sqi.net/img/categories_v2/food/default_", "suffix": ".png"}}], "chains": [{"id": "4e4ae03e-af8e-46a7-96ea-f71871faadb0", "name": "Philz Coffee"}], "distance": 306, "geocodes": {"main": {"latitude": 37.781359, "longitude": -122.416942}, "roof": {"latitude": 37.781359, "longitude": -122.416942}}, "link": "/v3/places/5151a10ce4b06ae7735335db", "location": {"address": "399 Golden Gate Ave", "census_block": "060750124051002", "country": "US", "cross_street": "Larkin", "dma": "San Francisco-Oakland-San Jose", "formatted_address": "399 Golden Gate Ave (Larkin), San Francisco, CA 94102", "locality": "San Francisco", "neighborhood": ["Civic Center"], "postcode": "94102", "region": "CA"}, "name": "Philz Coffee", "related_places": {}, "timezone": "America/Los_Angeles"}, {"fsq_id": "5955a2f275cb8c11484ffc5f", "categories": [{"id": 13072, "name": "Asian Restaurant", "icon": {"prefix": "https://ss3.4sqi.net/img/categories_v2/food/asian_", "suffix": ".png"}}, {"id": 13276, "name": "Sushi Restaurant", "icon": {"prefix": "https://ss3.4sqi.net/img/categories_v2/food/sushi_", "suffix": ".png"}}, {"id": 13338, "name": "Seafood Restaurant", "icon": {"prefix": "https://ss3.4sqi.net/img/categories_v2/food/seafood_", "suffix": ".png"}}], "chains": [], "distance": 312, "geocodes": {"main": {"latitude": 37.779307, "longitude": -122.423272}, "roof": {"latitude": 37.779307, "longitude": -122.423272}}, "link": "/v3/places/5955a2f275cb8c11484ffc5f", "location": {"address": "620 Gough St", "census_block": "060750162001001", "country": "US", "cross_street": "", "dma": "San Francisco-Oakland-San Jose", "formatted_address": "620 Gough St, San Francisco, CA 94102", "locality": "San Francisco", "neighborhood": ["Civic Center"], "postcode": "94102", "region": "CA"}, "name": "Robin", "related_places": {}, "timezone": "America/Los_Angeles"}, {"fsq_id": "49f356f8f964a5208a6a1fe3", "categories": [{"id": 13095, "name": "Cajun / Creole Restaurant", "icon": {"prefix": "https://ss3.4sqi.net/img/categories_v2/food/cajun_", "suffix": ".png"}}, {"id": 13148, "name": "French Restaurant", "icon": {"prefix": "https://ss3.4sqi.net/img/categories_v2/food/french_", "suffix": ".png"}}, {"id": 13344, "name": "Southern / Soul Food Restaurant", "icon": {"prefix": "https://ss3.4sqi.net/img/categories_v2/food/southern_", "suffix": ".png"}}], "chains": [], "distance": 336, "geocodes": {"main": {"latitude": 37.782806, "longitude": -122.418963}, "roof": {"latitude": 37.782806, "longitude": -122.418963}}, "link": "/v3/places/49f356f8f964a5208a6a1fe3", "location": {"address": "652 Polk St", "census_block": "060750124061002", "country": "US", "cross_street": "btwn Eddy & Turk St", "dma": "San Francisco-Oakland-San Jose", "formatted_address": "652 Polk St (btwn Eddy & Turk St), San Francisco, CA 94102", "locality": "San Francisco", "neighborhood": ["Civic Center"], "postcode": "94102", "region": "CA"}, "name": "Brenda's French Soul Food", "related_places": {}, "timezone": "America/Los_Angeles"}, {"fsq_id": "4afe6db4f964a520682f22e3", "categories": [{"id": 13009, "name": "Cocktail Bar", "icon": {"prefix": "https://ss3.4sqi.net/img/categories_v2/nightlife/cocktails_", "suffix": ".png"}}, {"id": 13023, "name": "Tiki Bar", "icon": {"prefix": "https://ss3.4sqi.net/img/categories_v2/nightlife/cocktails_", "suffix": ".png"}}, {"id": 13031, "name": "Burger Joint", "icon": {"prefix": "https://ss3.4sqi.net/img/categories_v2/food/burger_", "suffix": ".png"}}], "chains": [], "distance": 308, "geocodes": {"main": {"latitude": 37.779334, "longitude": -122.423346}, "roof": {"latitude": 37.779334, "longitude": -122.423346}}, "link": "/v3/places/4afe6db4f964a520682f22e3", "location": {"address": "650 Gough St", "census_block": "060750162001001", "country": "US", "cross_street": "at McAllister St", "dma": "San Francisco-Oakland-San Jose", "formatted_address": "650 Gough St (at McAllister St), San Francisco, CA 94102", "locality": "San Francisco", "neighborhood": ["Civic Center"], "postcode": "94102", "region": "CA"}, "name": "Smuggler's Cove", "related_places": {}, "timezone": "America/Los_Angeles"}, {"fsq_id": "5005c520e4b0a8ae9875b787", "categories": [{"id": 13334, "name": "Sandwich Restaurant", "icon": {"prefix": "https://ss3.4sqi.net/img/categories_v2/food/deli_", "suffix": ".png"}}, {"id": 13379, "name": "Vietnamese Restaurant", "icon": {"prefix": "https://ss3.4sqi.net/img/categories_v2/food/vietnamese_", "suffix": ".png"}}], "chains": [], "distance": 344, "geocodes": {"main": {"latitude": 37.778278, "longitude": -122.423068}, "roof": {"latitude": 37.778278, "longitude": -122.423068}}, "link": "/v3/places/5005c520e4b0a8ae9875b787", "location": {"address": "520 Gough St", "census_block": "060750162001002", "country": "US", "cross_street": "btwn Fulton & Grove St", "dma": "San Francisco-Oakland-San Jose", "formatted_address": "520 Gough St (btwn Fulton & Grove St), San Francisco, CA 94102", "locality": "San Francisco", "neighborhood": ["Civic Center"], "postcode": "94102", "region": "CA"}, "name": "DragonEats", "related_places": {}, "timezone": "America/Los_Angeles"}, {"fsq_id": "50f21340e4b036c5cc0d7c7d", "categories": [{"id": 10037, "name": "Concert Hall", "icon": {"prefix": "https://ss3.4sqi.net/img/categories_v2/arts_entertainment/musicvenue_", "suffix": ".png"}}, {"id": 10040, "name": "Jazz and Blues Venue", "icon": {"prefix": "https://ss3.4sqi.net/img/categories_v2/arts_entertainment/musicvenue_jazzclub_", "suffix": ".png"}}, {"id": 13065, "name": "Restaurant", "icon": {"prefix": "https://ss3.4sqi.net/img/categories_v2/food/default_", "suffix": ".png"}}], "chains": [], "distance": 427, "geocodes": {"main": {"latitude": 37.776305, "longitude": -122.421403}}, "link": "/v3/places/50f21340e4b036c5cc0d7c7d", "location": {"address": "201 Franklin St", "country": "US", "cross_street": "at Fell St", "dma": "San Francisco-Oakland-San Jose", "formatted_address": "201 Franklin St (at Fell St), San Francisco, CA 94102", "locality": "San Francisco", "neighborhood": ["Civic Center"], "postcode": "94102", "region": "CA"}, "name": "SFJAZZ Center", "related_places": {"children": []}, "timezone": "America/Los_Angeles"}, {"fsq_id": "584a0d7b349355671db7eab2", "categories": [{"id": 13072, "name": "Asian Restaurant", "icon": {"prefix": "https://ss3.4sqi.net/img/categories_v2/food/asian_", "suffix": ".png"}}, {"id": 13276, "name": "Sushi Restaurant", "icon": {"prefix": "https://ss3.4sqi.net/img/categories_v2/food/sushi_", "suffix": ".png"}}], "chains": [], "distance": 349, "geocodes": {"main": {"latitude": 37.783244, "longitude": -122.420494}, "roof": {"latitude": 37.783244, "longitude": -122.420494}}, "link": "/v3/places/584a0d7b349355671db7eab2", "location": {"address": "810 Van Ness Ave", "census_block": "060750124062001", "country": "US", "cross_street": "Eddy", "dma": "San Francisco-Oakland-San Jose", "formatted_address": "810 Van Ness Ave (Eddy), San Francisco, CA 94109", "locality": "San Francisco", "neighborhood": ["Civic Center"], "postcode": "94109", "region": "CA"}, "name": "Hinata", "related_places": {}, "timezone": "America/Los_Angeles"}, {"fsq_id": "551b7760498e1612b67f33f9", "categories": [{"id": 13025, "name": "Wine Bar", "icon": {"prefix": "https://ss3.4sqi.net/img/categories_v2/food/winery_", "suffix": ".png"}}, {"id": 13068, "name": "American Restaurant", "icon": {"prefix": "https://ss3.4sqi.net/img/categories_v2/food/default_", "suffix": ".png"}}, {"id": 13236, "name": "Italian Restaurant", "icon": {"prefix": "https://ss3.4sqi.net/img/categories_v2/food/italian_", "suffix": ".png"}}], "chains": [], "distance": 442, "geocodes": {"main": {"latitude": 37.777876, "longitude": -122.424048}, "roof": {"latitude": 37.777876, "longitude": -122.424048}}, "link": "/v3/places/551b7760498e1612b67f33f9", "location": {"address": "458 Grove St", "census_block": "060750162001003", "country": "US", "cross_street": "btwn Gough & Octavia St", "dma": "San Francisco-Oakland-San Jose", "formatted_address": "458 Grove St (btwn Gough & Octavia St), San Francisco, CA 94102", "locality": "San Francisco", "neighborhood": ["Hayes Valley"], "postcode": "94102", "region": "CA"}, "name": "Birba", "related_places": {}, "timezone": "America/Los_Angeles"}, {"fsq_id": "43eb7d31f964a520392f1fe3", "categories": [{"id": 13145, "name": "Fast Food Restaurant", "icon": {"prefix": "https://ss3.4sqi.net/img/categories_v2/food/fastfood_", "suffix": ".png"}}, {"id": 13334, "name": "Sandwich Restaurant", "icon": {"prefix": "https://ss3.4sqi.net/img/categories_v2/food/deli_", "suffix": ".png"}}, {"id": 13379, "name": "Vietnamese Restaurant", "icon": {"prefix": "https://ss3.4sqi.net/img/categories_v2/food/vietnamese_", "suffix": ".png"}}], "chains": [], "distance": 400, "geocodes": {"main": {"latitude": 37.783029, "longitude": -122.417328}, "roof": {"latitude": 37.783029, "longitude": -122.417328}}, "link": "/v3/places/43eb7d31f964a520392f1fe3", "location": {"address": "560 Larkin St", "census_block": "060750124031001", "country": "US", "cross_street": "btwn Eddy & Turk St", "dma": "San Francisco-Oakland-San Jose", "formatted_address": "560 Larkin St (btwn Eddy & Turk St), San Francisco, CA 94102", "locality": "San Francisco", "neighborhood": ["Civic Center"], "postcode": "94102", "region": "CA"}, "name": "Saigon Sandwich", "related_places": {}, "timezone": "America/Los_Angeles"}, {"fsq_id": "4d8eabc7d265236af9a71017", "categories": [{"id": 13072, "name": "Asian Restaurant", "icon": {"prefix": "https://ss3.4sqi.net/img/categories_v2/food/asian_", "suffix": ".png"}}, {"id": 13145, "name": "Fast Food Restaurant", "icon": {"prefix": "https://ss3.4sqi.net/img/categories_v2/food/fastfood_", "suffix": ".png"}}, {"id": 13272, "name": "Ramen Restaurant", "icon": {"prefix": "https://ss3.4sqi.net/img/categories_v2/food/ramen_", "suffix": ".png"}}], "chains": [], "distance": 390, "geocodes": {"main": {"latitude": 37.776511, "longitude": -122.421387}, "roof": {"latitude": 37.776511, "longitude": -122.421387}}, "link": "/v3/places/4d8eabc7d265236af9a71017", "location": {"address": "231 Franklin St", "census_block": "060750162002004", "country": "US", "cross_street": "at Linden St", "dma": "San Francisco-Oakland-San Jose", "formatted_address": "231 Franklin St (at Linden St), San Francisco, CA 94102", "locality": "San Francisco", "neighborhood": ["Civic Center"], "postcode": "94102", "region": "CA"}, "name": "Nojo", "related_places": {}, "timezone": "America/Los_Angeles"}, {"fsq_id": "53b4dd52498eef48c82d89a5", "categories": [{"id": 13148, "name": "French Restaurant", "icon": {"prefix": "https://ss3.4sqi.net/img/categories_v2/food/french_", "suffix": ".png"}}], "chains": [], "distance": 404, "geocodes": {"main": {"latitude": 37.777448, "longitude": -122.423234}, "roof": {"latitude": 37.777448, "longitude": -122.423234}}, "link": "/v3/places/53b4dd52498eef48c82d89a5", "location": {"address": "451 Gough St", "census_block": "060750162001004", "country": "US", "cross_street": "at Ivy St", "dma": "San Francisco-Oakland-San Jose", "formatted_address": "451 Gough St (at Ivy St), San Francisco, CA 94102", "locality": "San Francisco", "neighborhood": ["Civic Center"], "postcode": "94102", "region": "CA"}, "name": "Monsieur Benjamin", "related_places": {}, "timezone": "America/Los_Angeles"}, {"fsq_id": "43d3901ef964a5201f2e1fe3", "categories": [{"id": 13032, "name": "Cafes, Coffee, and Tea Houses", "icon": {"prefix": "https://ss3.4sqi.net/img/categories_v2/food/default_", "suffix": ".png"}}], "chains": [{"id": "c1f85da3-9e02-4c1f-9c30-f7f426ae078c", "name": "Blue Bottle Coffee"}], "distance": 487, "geocodes": {"main": {"latitude": 37.776304, "longitude": -122.423238}, "roof": {"latitude": 37.776304, "longitude": -122.423238}}, "link": "/v3/places/43d3901ef964a5201f2e1fe3", "location": {"address": "315 Linden St", "census_block": "060750162002003", "country": "US", "cross_street": "btwn Gough & Octavia St", "dma": "San Francisco-Oakland-San Jose", "formatted_address": "315 Linden St (btwn Gough & Octavia St), San Francisco, CA 94102", "locality": "San Francisco", "neighborhood": ["Civic Center"], "postcode": "94102", "region": "CA"}, "name": "Blue Bottle Coffee", "related_places": {}, "timezone": "America/Los_Angeles"}, {"fsq_id": "57b3c7c8498e9b9e08349941", "categories": [{"id": 13009, "name": "Cocktail Bar", "icon": {"prefix": "https://ss3.4sqi.net/img/categories_v2/nightlife/cocktails_", "suffix": ".png"}}, {"id": 13065, "name": "Restaurant", "icon": {"prefix": "https://ss3.4sqi.net/img/categories_v2/food/default_", "suffix": ".png"}}], "chains": [], "distance": 459, "geocodes": {"main": {"latitude": 37.776635, "longitude": -122.422756}, "roof": {"latitude": 37.776635, "longitude": -122.422756}}, "link": "/v3/places/57b3c7c8498e9b9e08349941", "location": {"address": "330 Gough St", "census_block": "060750162002001", "country": "US", "cross_street": "at Linden St", "dma": "San Francisco-Oakland-San Jose", "formatted_address": "330 Gough St (at Linden St), San Francisco, CA 94102", "locality": "San Francisco", "neighborhood": ["Civic Center"], "postcode": "94102", "region": "CA"}, "name": "Linden Room", "related_places": {"parent": {"fsq_id": "57b3c4c6cd10588ecc2e71e2", "name": "Nightbird"}}, "timezone": "America/Los_Angeles"}, {"fsq_id": "5907aa1c178a2a76066e0f59", "categories": [{"id": 13236, "name": "Italian Restaurant", "icon": {"prefix": "https://ss3.4sqi.net/img/categories_v2/food/italian_", "suffix": ".png"}}], "chains": [], "distance": 481, "geocodes": {"main": {"latitude": 37.776922, "longitude": -122.423705}, "roof": {"latitude": 37.776922, "longitude": -122.423705}}, "link": "/v3/places/5907aa1c178a2a76066e0f59", "location": {"address": "450 Hayes St", "census_block": "060750162001008", "country": "US", "cross_street": "Octavia Street", "dma": "San Francisco-Oakland-San Jose", "formatted_address": "450 Hayes St (Octavia Street), San Francisco, CA 94102", "locality": "San Francisco", "neighborhood": ["Alamo Square"], "postcode": "94102", "region": "CA"}, "name": "A Mano", "related_places": {}, "timezone": "America/Los_Angeles"}, {"fsq_id": "5f09357db86f39032b516f50", "categories": [{"id": 13065, "name": "Restaurant", "icon": {"prefix": "https://ss3.4sqi.net/img/categories_v2/food/default_", "suffix": ".png"}}], "chains": [], "distance": 381, "geocodes": {"main": {"latitude": 37.777188, "longitude": -122.422359}, "roof": {"latitude": 37.777188, "longitude": -122.422359}}, "link": "/v3/places/5f09357db86f39032b516f50", "location": {"address": "384 Hayes St", "census_block": "060750162001007", "country": "US", "cross_street": "Between Franklin And Gough", "dma": "San Francisco-Oakland-San Jose", "formatted_address": "384 Hayes St (Between Franklin And Gough), San Francisco, CA 94102", "locality": "San Francisco", "neighborhood": ["Alamo Square"], "postcode": "94102", "region": "CA"}, "name": "Arbor", "related_places": {}, "timezone": "America/Los_Angeles"}, {"fsq_id": "4fede2248302c7a9cbdd6fd4", "categories": [{"id": 13002, "name": "Bakery", "icon": {"prefix": "https://ss3.4sqi.net/img/categories_v2/food/bakery_", "suffix": ".png"}}, {"id": 13068, "name": "American Restaurant", "icon": {"prefix": "https://ss3.4sqi.net/img/categories_v2/food/default_", "suffix": ".png"}}], "chains": [], "distance": 319, "geocodes": {"main": {"latitude": 37.77837, "longitude": -122.423145}, "roof": {"latitude": 37.77837, "longitude": -122.423145}}, "link": "/v3/places/4fede2248302c7a9cbdd6fd4", "location": {"address": "550 Gough St", "census_block": "060750162001002", "country": "US", "cross_street": "btwn Fulton & Grove St", "dma": "San Francisco-Oakland-San Jose", "formatted_address": "550 Gough St (btwn Fulton & Grove St), San Francisco, CA 94102", "locality": "San Francisco", "neighborhood": ["Civic Center"], "postcode": "94102", "region": "CA"}, "name": "Hayes Valley Bakeworks", "related_places": {}, "timezone": "America/Los_Angeles"}, {"fsq_id": "4a0cb0fff964a52056751fe3", "categories": [{"id": 13199, "name": "Indian Restaurant", "icon": {"prefix": "https://ss3.4sqi.net/img/categories_v2/food/indian_", "suffix": ".png"}}, {"id": 13377, "name": "Vegan and Vegetarian Restaurant", "icon": {"prefix": "https://ss3.4sqi.net/img/categories_v2/food/vegetarian_", "suffix": ".png"}}], "chains": [], "distance": 410, "geocodes": {"main": {"latitude": 37.77789, "longitude": -122.416164}, "roof": {"latitude": 37.77789, "longitude": -122.416164}}, "link": "/v3/places/4a0cb0fff964a52056751fe3", "location": {"address": "1298 Market St", "census_block": "060750124051007", "country": "US", "cross_street": "at Larkin St", "dma": "San Francisco-Oakland-San Jose", "formatted_address": "1298 Market St (at Larkin St), San Francisco, CA 94102", "locality": "San Francisco", "neighborhood": ["Civic Center"], "postcode": "94102", "region": "CA"}, "name": "Ananda Fuara", "related_places": {}, "timezone": "America/Los_Angeles"}, {"fsq_id": "56170930498ec64a072b43b9", "categories": [{"id": 10039, "name": "Music Venue", "icon": {"prefix": "https://ss3.4sqi.net/img/categories_v2/arts_entertainment/musicvenue_", "suffix": ".png"}}, {"id": 13009, "name": "Cocktail Bar", "icon": {"prefix": "https://ss3.4sqi.net/img/categories_v2/nightlife/cocktails_", "suffix": ".png"}}, {"id": 13095, "name": "Cajun / Creole Restaurant", "icon": {"prefix": "https://ss3.4sqi.net/img/categories_v2/food/cajun_", "suffix": ".png"}}], "chains": [], "distance": 445, "geocodes": {"main": {"latitude": 37.776274, "longitude": -122.418506}, "roof": {"latitude": 37.776274, "longitude": -122.418506}}, "link": "/v3/places/56170930498ec64a072b43b9", "location": {"address": "39 Fell St", "census_block": "060750124052005", "country": "US", "cross_street": "", "dma": "San Francisco-Oakland-San Jose", "formatted_address": "39 Fell St, San Francisco, CA 94102", "locality": "San Francisco", "neighborhood": ["Civic Center"], "postcode": "94102", "region": "CA"}, "name": "Mr. Tipple's Recording Studio", "related_places": {}, "timezone": "America/Los_Angeles"}, {"fsq_id": "50064523e4b0f7aff2050d6a", "categories": [{"id": 13031, "name": "Burger Joint", "icon": {"prefix": "https://ss3.4sqi.net/img/categories_v2/food/burger_", "suffix": ".png"}}, {"id": 13148, "name": "French Restaurant", "icon": {"prefix": "https://ss3.4sqi.net/img/categories_v2/food/french_", "suffix": ".png"}}], "chains": [], "distance": 433, "geocodes": {"main": {"latitude": 37.776955, "longitude": -122.423277}, "roof": {"latitude": 37.776955, "longitude": -122.423277}}, "link": "/v3/places/50064523e4b0f7aff2050d6a", "location": {"address": "401 Gough St", "census_block": "060750162001008", "country": "US", "cross_street": "at Hayes St", "dma": "San Francisco-Oakland-San Jose", "formatted_address": "401 Gough St (at Hayes St), San Francisco, CA 94102", "locality": "San Francisco", "neighborhood": ["Alamo Square"], "postcode": "94102", "region": "CA"}, "name": "Chez Maman", "related_places": {}, "timezone": "America/Los_Angeles"}, {"fsq_id": "424c8f00f964a520a1201fe3", "categories": [{"id": 10041, "name": "Rock Club", "icon": {"prefix": "https://ss3.4sqi.net/img/categories_v2/arts_entertainment/musicvenue_rockclub_", "suffix": ".png"}}, {"id": 13003, "name": "Bar", "icon": {"prefix": "https://ss3.4sqi.net/img/categories_v2/nightlife/pub_", "suffix": ".png"}}, {"id": 13065, "name": "Restaurant", "icon": {"prefix": "https://ss3.4sqi.net/img/categories_v2/food/default_", "suffix": ".png"}}], "chains": [], "distance": 434, "geocodes": {"main": {"latitude": 37.776447, "longitude": -122.420523}, "roof": {"latitude": 37.776447, "longitude": -122.420523}}, "link": "/v3/places/424c8f00f964a520a1201fe3", "location": {"address": "155 Fell St", "census_block": "060750162002000", "country": "US", "cross_street": "btwn Franklin & Van Ness", "dma": "San Francisco-Oakland-San Jose", "formatted_address": "155 Fell St (btwn Franklin & Van Ness), San Francisco, CA 94102", "locality": "San Francisco", "neighborhood": ["Civic Center"], "postcode": "94102", "region": "CA"}, "name": "Rickshaw Stop", "related_places": {"children": [{"fsq_id": "545a8f43498eed3c99abb904", "name": "Grilled Cheez Guy"}]}, "timezone": "America/Los_Angeles"}, {"fsq_id": "58901f9ce18e653095361b48", "categories": [{"id": 13006, "name": "Beer Bar", "icon": {"prefix": "https://ss3.4sqi.net/img/categories_v2/nightlife/pub_", "suffix": ".png"}}, {"id": 13057, "name": "Gastropub", "icon": {"prefix": "https://ss3.4sqi.net/img/categories_v2/food/gastropub_", "suffix": ".png"}}], "chains": [], "distance": 449, "geocodes": {"main": {"latitude": 37.778427, "longitude": -122.415551}, "roof": {"latitude": 37.778427, "longitude": -122.415551}}, "link": "/v3/places/58901f9ce18e653095361b48", "location": {"address": "1230 Market St", "census_block": "060750124051007", "country": "US", "cross_street": "", "dma": "San Francisco-Oakland-San Jose", "formatted_address": "1230 Market St, San Francisco, CA 94102", "locality": "San Francisco", "neighborhood": ["Civic Center"], "postcode": "94102", "region": "CA"}, "name": "Fermentation Lab", "related_places": {}, "timezone": "America/Los_Angeles"}, {"fsq_id": "57b3c4c6cd10588ecc2e71e2", "categories": [{"id": 13068, "name": "American Restaurant", "icon": {"prefix": "https://ss3.4sqi.net/img/categories_v2/food/default_", "suffix": ".png"}}, {"id": 13377, "name": "Vegan and Vegetarian Restaurant", "icon": {"prefix": "https://ss3.4sqi.net/img/categories_v2/food/vegetarian_", "suffix": ".png"}}], "chains": [], "distance": 461, "geocodes": {"main": {"latitude": 37.77657, "longitude": -122.422752}, "roof": {"latitude": 37.77657, "longitude": -122.422752}}, "link": "/v3/places/57b3c4c6cd10588ecc2e71e2", "location": {"address": "330 Gough St", "census_block": "060750162002001", "country": "US", "cross_street": "Linden", "dma": "San Francisco-Oakland-San Jose", "formatted_address": "330 Gough St (Linden), San Francisco, CA 94102", "locality": "San Francisco", "neighborhood": ["Civic Center"], "postcode": "94102", "region": "CA"}, "name": "Nightbird", "related_places": {"children": [{"fsq_id": "57b3c7c8498e9b9e08349941", "name": "Linden Room"}]}, "timezone": "America/Los_Angeles"}, {"fsq_id": "4b6cfef3f964a52024622ce3", "categories": [{"id": 13352, "name": "Thai Restaurant", "icon": {"prefix": "https://ss3.4sqi.net/img/categories_v2/food/thai_", "suffix": ".png"}}], "chains": [], "distance": 469, "geocodes": {"main": {"latitude": 37.783976, "longitude": -122.419032}, "roof": {"latitude": 37.783976, "longitude": -122.419032}}, "link": "/v3/places/4b6cfef3f964a52024622ce3", "location": {"address": "771 Ellis St", "census_block": "060750124061000", "country": "US", "cross_street": "at Polk St", "dma": "San Francisco-Oakland-San Jose", "formatted_address": "771 Ellis St (at Polk St), San Francisco, CA 94109", "locality": "San Francisco", "neighborhood": ["Civic Center"], "postcode": "94109", "region": "CA"}, "name": "Zen Yai Thai", "related_places": {}, "timezone": "America/Los_Angeles"}, {"fsq_id": "4ebd985c6c257f09ae0c188e", "categories": [{"id": 13352, "name": "Thai Restaurant", "icon": {"prefix": "https://ss3.4sqi.net/img/categories_v2/food/thai_", "suffix": ".png"}}], "chains": [], "distance": 359, "geocodes": {"main": {"latitude": 37.776956, "longitude": -122.421556}, "roof": {"latitude": 37.776956, "longitude": -122.421556}}, "link": "/v3/places/4ebd985c6c257f09ae0c188e", "location": {"address": "307 Hayes St", "census_block": "060750162002001", "country": "US", "cross_street": "btwn Gough & Franklin St", "dma": "San Francisco-Oakland-San Jose", "formatted_address": "307 Hayes St (btwn Gough & Franklin St), San Francisco, CA 94102", "locality": "San Francisco", "neighborhood": ["Civic Center"], "postcode": "94102", "region": "CA"}, "name": "Lers Ros Thai", "related_places": {}, "timezone": "America/Los_Angeles"}, {"fsq_id": "5a33428625ecca176e716ca7", "categories": [{"id": 13009, "name": "Cocktail Bar", "icon": {"prefix": "https://ss3.4sqi.net/img/categories_v2/nightlife/cocktails_", "suffix": ".png"}}, {"id": 13065, "name": "Restaurant", "icon": {"prefix": "https://ss3.4sqi.net/img/categories_v2/food/default_", "suffix": ".png"}}], "chains": [], "distance": 341, "geocodes": {"main": {"latitude": 37.778012, "longitude": -122.422694}, "roof": {"latitude": 37.778012, "longitude": -122.422694}}, "link": "/v3/places/5a33428625ecca176e716ca7", "location": {"address": "370 Grove St", "census_block": "060750162001002", "country": "US", "cross_street": "Gough", "dma": "San Francisco-Oakland-San Jose", "formatted_address": "370 Grove St (Gough), San Francisco, CA 94102", "locality": "San Francisco", "neighborhood": ["Civic Center"], "postcode": "94102", "region": "CA"}, "name": "Phonobar", "related_places": {}, "timezone": "America/Los_Angeles"}, {"fsq_id": "4697a079f964a520e8481fe3", "categories": [{"id": 13072, "name": "Asian Restaurant", "icon": {"prefix": "https://ss3.4sqi.net/img/categories_v2/food/asian_", "suffix": ".png"}}, {"id": 13102, "name": "Cantonese Restaurant", "icon": {"prefix": "https://ss3.4sqi.net/img/categories_v2/food/asian_", "suffix": ".png"}}, {"id": 13379, "name": "Vietnamese Restaurant", "icon": {"prefix": "https://ss3.4sqi.net/img/categories_v2/food/vietnamese_", "suffix": ".png"}}], "chains": [], "distance": 502, "geocodes": {"main": {"latitude": 37.784091, "longitude": -122.417964}, "roof": {"latitude": 37.784091, "longitude": -122.417964}}, "link": "/v3/places/4697a079f964a520e8481fe3", "location": {"address": "707 Ellis St", "census_block": "060750124061000", "country": "US", "cross_street": "at Larkin St.", "dma": "San Francisco-Oakland-San Jose", "formatted_address": "707 Ellis St (at Larkin St.), San Francisco, CA 94109", "locality": "San Francisco", "neighborhood": ["Civic Center"], "postcode": "94109", "region": "CA"}, "name": "Hai Ky Mi Gia", "related_places": {}, "timezone": "America/Los_Angeles"}, {"fsq_id": "547a3a09498edded45384099", "categories": [{"id": 13072, "name": "Asian Restaurant", "icon": {"prefix": "https://ss3.4sqi.net/img/categories_v2/food/asian_", "suffix": ".png"}}, {"id": 13377, "name": "Vegan and Vegetarian Restaurant", "icon": {"prefix": "https://ss3.4sqi.net/img/categories_v2/food/vegetarian_", "suffix": ".png"}}, {"id": 13379, "name": "Vietnamese Restaurant", "icon": {"prefix": "https://ss3.4sqi.net/img/categories_v2/food/vietnamese_", "suffix": ".png"}}], "chains": [], "distance": 318, "geocodes": {"main": {"latitude": 37.781359, "longitude": -122.416942}, "roof": {"latitude": 37.781359, "longitude": -122.416942}}, "link": "/v3/places/547a3a09498edded45384099", "location": {"address": "395 Golden Gate Ave", "census_block": "060750124051002", "country": "US", "cross_street": "", "dma": "San Francisco-Oakland-San Jose", "formatted_address": "395 Golden Gate Ave, San Francisco, CA 94102", "locality": "San Francisco", "neighborhood": ["Civic Center"], "postcode": "94102", "region": "CA"}, "name": "Golden Era Vegan Restaurant", "related_places": {}, "timezone": "America/Los_Angeles"}, {"fsq_id": "537a5895498eaeb3ef2970cb", "categories": [{"id": 13303, "name": "Mexican Restaurant", "icon": {"prefix": "https://ss3.4sqi.net/img/categories_v2/food/mexican_", "suffix": ".png"}}], "chains": [], "distance": 475, "geocodes": {"main": {"latitude": 37.776646, "longitude": -122.423473}, "roof": {"latitude": 37.776646, "longitude": -122.423473}}, "link": "/v3/places/537a5895498eaeb3ef2970cb", "location": {"address": "425 Hayes St", "address_extended": "Ste A", "census_block": "060750162002002", "country": "US", "cross_street": "Gough & Hayes", "dma": "San Francisco-Oakland-San Jose", "formatted_address": "425 Hayes St (Gough & Hayes), San Francisco, CA 94102", "locality": "San Francisco", "neighborhood": ["Alamo Square"], "postcode": "94102", "region": "CA"}, "name": "Papito Hayes", "related_places": {}, "timezone": "America/Los_Angeles"}, {"fsq_id": "43e9f2f1f964a520252f1fe3", "categories": [{"id": 13065, "name": "Restaurant", "icon": {"prefix": "https://ss3.4sqi.net/img/categories_v2/food/default_", "suffix": ".png"}}], "chains": [], "distance": 138, "geocodes": {"main": {"latitude": 37.780881, "longitude": -122.420642}, "roof": {"latitude": 37.780881, "longitude": -122.420642}}, "link": "/v3/places/43e9f2f1f964a520252f1fe3", "location": {"address": "601 Van Ness Ave", "address_extended": "Ste T", "census_block": "060750160002007", "country": "US", "cross_street": "at Golden Gate Ave", "dma": "San Francisco-Oakland-San Jose", "formatted_address": "601 Van Ness Ave (at Golden Gate Ave), San Francisco, CA 94102", "locality": "San Francisco", "neighborhood": ["Civic Center"], "postcode": "94102", "region": "CA"}, "name": "Max's Opera Cafe", "related_places": {"parent": {"fsq_id": "4f446d98e4b062c961900b46", "name": "Opera Plaza"}}, "timezone": "America/Los_Angeles"}, {"fsq_id": "547cd07d498ef3265ffc5a75", "categories": [{"id": 13347, "name": "Tapas Restaurant", "icon": {"prefix": "https://ss3.4sqi.net/img/categories_v2/food/tapas_", "suffix": ".png"}}], "chains": [], "distance": 451, "geocodes": {"main": {"latitude": 37.776654, "longitude": -122.416951}, "roof": {"latitude": 37.776654, "longitude": -122.416951}}, "link": "/v3/places/547cd07d498ef3265ffc5a75", "location": {"address": "1355 Market St", "address_extended": "Ste 100", "census_block": "060750176033000", "country": "US", "cross_street": "at 10th St", "dma": "San Francisco-Oakland-San Jose", "formatted_address": "1355 Market St (at 10th St), San Francisco, CA 94103", "locality": "San Francisco", "neighborhood": ["Civic Center"], "postcode": "94103", "region": "CA"}, "name": "The Market", "related_places": {"parent": {"fsq_id": "545be834498e71dcc3a14056", "name": "Market Square"}, "children": [{"fsq_id": "5560dbdb498e91a2bcde84f6", "name": "Blue Bottle Coffee"}, {"fsq_id": "589e7a78dc3329197e59514f", "name": "Manila Bowl"}, {"fsq_id": "5e3df82dca5dbd0007c38fdc", "name": "Tortellino"}]}, "timezone": "America/Los_Angeles"}, {"fsq_id": "59cfcff3c3658821638bce70", "categories": [{"id": 13035, "name": "Coffee Shop", "icon": {"prefix": "https://ss3.4sqi.net/img/categories_v2/food/coffeeshop_", "suffix": ".png"}}, {"id": 13043, "name": "Donut Shop", "icon": {"prefix": "https://ss3.4sqi.net/img/categories_v2/food/donuts_", "suffix": ".png"}}, {"id": 13065, "name": "Restaurant", "icon": {"prefix": "https://ss3.4sqi.net/img/categories_v2/food/default_", "suffix": ".png"}}], "chains": [], "distance": 306, "geocodes": {"main": {"latitude": 37.778706, "longitude": -122.423022}, "roof": {"latitude": 37.778706, "longitude": -122.423022}}, "link": "/v3/places/59cfcff3c3658821638bce70", "location": {"address": "392 Fulton St", "census_block": "060750162001002", "country": "US", "cross_street": "Gough St", "dma": "San Francisco-Oakland-San Jose", "formatted_address": "392 Fulton St (Gough St), San Francisco, CA 94102", "locality": "San Francisco", "neighborhood": ["Civic Center"], "postcode": "94102", "region": "CA"}, "name": "Johnny Doughnuts", "related_places": {}, "timezone": "America/Los_Angeles"}, {"fsq_id": "49ee7fe2f964a52064681fe3", "categories": [{"id": 13032, "name": "Cafes, Coffee, and Tea Houses", "icon": {"prefix": "https://ss3.4sqi.net/img/categories_v2/food/default_", "suffix": ".png"}}], "chains": [{"id": "e60a5d2d-6e9e-4d3b-bfe4-5cebfc0c3d97", "name": "Peet's Coffee and Tea"}], "distance": 206, "geocodes": {"main": {"latitude": 37.781731, "longitude": -122.42105}, "roof": {"latitude": 37.781731, "longitude": -122.42105}}, "link": "/v3/places/49ee7fe2f964a52064681fe3", "location": {"address": "601 Van Ness Ave", "address_extended": "Ste A", "census_block": "060750160002006", "country": "US", "cross_street": "", "dma": "San Francisco-Oakland-San Jose", "formatted_address": "601 Van Ness Ave, San Francisco, CA 94102", "locality": "San Francisco", "neighborhood": ["Civic Center"], "postcode": "94102", "region": "CA"}, "name": "Peet's Coffee and Tea", "related_places": {"parent": {"fsq_id": "4f446d98e4b062c961900b46", "name": "Opera Plaza"}}, "timezone": "America/Los_Angeles"}, {"fsq_id": "51ce45cb498e81b2731190db", "categories": [{"id": 10032, "name": "Night Club", "icon": {"prefix": "https://ss3.4sqi.net/img/categories_v2/nightlife/nightclub_", "suffix": ".png"}}, {"id": 13010, "name": "Dive Bar", "icon": {"prefix": "https://ss3.4sqi.net/img/categories_v2/nightlife/divebar_", "suffix": ".png"}}, {"id": 13016, "name": "Lounge", "icon": {"prefix": "https://ss3.4sqi.net/img/categories_v2/nightlife/default_", "suffix": ".png"}}], "chains": [], "distance": 350, "geocodes": {"main": {"latitude": 37.782714, "longitude": -122.417166}, "roof": {"latitude": 37.782714, "longitude": -122.417166}}, "link": "/v3/places/51ce45cb498e81b2731190db", "location": {"address": "510 Larkin St", "census_block": "060750124031001", "country": "US", "cross_street": "btwn Turk & Eddy", "dma": "San Francisco-Oakland-San Jose", "formatted_address": "510 Larkin St (btwn Turk & Eddy), San Francisco, CA 94102", "locality": "San Francisco", "neighborhood": ["Civic Center"], "postcode": "94102", "region": "CA"}, "name": "Emperor Norton's Boozeland", "related_places": {}, "timezone": "America/Los_Angeles"}, {"fsq_id": "5ac91da5c5309357e35b5e75", "categories": [{"id": 13034, "name": "Caf\u00e9", "icon": {"prefix": "https://ss3.4sqi.net/img/categories_v2/food/cafe_", "suffix": ".png"}}, {"id": 13072, "name": "Asian Restaurant", "icon": {"prefix": "https://ss3.4sqi.net/img/categories_v2/food/asian_", "suffix": ".png"}}], "chains": [], "distance": 345, "geocodes": {"main": {"latitude": 37.780243, "longitude": -122.41616}, "roof": {"latitude": 37.780243, "longitude": -122.41616}}, "link": "/v3/places/5ac91da5c5309357e35b5e75", "location": {"address": "200 Larkin St", "census_block": "060750124051003", "country": "US", "cross_street": "", "dma": "San Francisco-Oakland-San Jose", "formatted_address": "200 Larkin St, San Francisco, CA 94102", "locality": "San Francisco", "neighborhood": ["Civic Center"], "postcode": "94102", "region": "CA"}, "name": "Sunday at the Museum", "related_places": {"parent": {"fsq_id": "43601880f964a5202e291fe3", "name": "Asian Art Museum"}}, "timezone": "America/Los_Angeles"}, {"fsq_id": "56227db5498efb1e8f33ef41", "categories": [{"id": 13059, "name": "Juice Bar", "icon": {"prefix": "https://ss3.4sqi.net/img/categories_v2/food/juicebar_", "suffix": ".png"}}], "chains": [], "distance": 389, "geocodes": {"main": {"latitude": 37.777161, "longitude": -122.422285}, "roof": {"latitude": 37.777161, "longitude": -122.422285}}, "link": "/v3/places/56227db5498efb1e8f33ef41", "location": {"address": "364 Hayes St", "census_block": "060750162001007", "country": "US", "cross_street": "Gough", "dma": "San Francisco-Oakland-San Jose", "formatted_address": "364 Hayes St (Gough), San Francisco, CA 94102", "locality": "San Francisco", "neighborhood": ["Civic Center"], "postcode": "94102", "region": "CA"}, "name": "Project Juice", "related_places": {}, "timezone": "America/Los_Angeles"}, {"fsq_id": "5f12638b861e253754a51b63", "categories": [{"id": 13377, "name": "Vegan and Vegetarian Restaurant", "icon": {"prefix": "https://ss3.4sqi.net/img/categories_v2/food/vegetarian_", "suffix": ".png"}}], "chains": [], "distance": 258, "geocodes": {"main": {"latitude": 37.77817, "longitude": -122.421915}, "roof": {"latitude": 37.77817, "longitude": -122.421915}}, "link": "/v3/places/5f12638b861e253754a51b63", "location": {"address": "300 Grove St", "census_block": "060750162001002", "country": "US", "cross_street": "", "dma": "San Francisco-Oakland-San Jose", "formatted_address": "300 Grove St, San Francisco, CA 94102", "locality": "San Francisco", "neighborhood": ["Civic Center"], "postcode": "94102", "region": "CA"}, "name": "Baia", "related_places": {}, "timezone": "America/Los_Angeles"}, {"fsq_id": "5eeb8d12a41b0b00085eb249", "categories": [{"id": 13035, "name": "Coffee Shop", "icon": {"prefix": "https://ss3.4sqi.net/img/categories_v2/food/coffeeshop_", "suffix": ".png"}}], "chains": [{"id": "ab4c54c0-d68a-012e-5619-003048cad9da", "name": "Starbucks"}], "distance": 313, "geocodes": {"main": {"latitude": 37.777119, "longitude": -122.419416}, "roof": {"latitude": 37.777119, "longitude": -122.419416}}, "link": "/v3/places/5eeb8d12a41b0b00085eb249", "location": {"address": "150 Van Ness Ave", "census_block": "060750124052003", "country": "US", "cross_street": "Hayes St", "dma": "San Francisco-Oakland-San Jose", "formatted_address": "150 Van Ness Ave (Hayes St), San Francisco, CA 94102", "locality": "San Francisco", "neighborhood": ["Civic Center"], "postcode": "94102", "region": "CA"}, "name": "Starbucks", "related_places": {}, "timezone": "America/Los_Angeles"}, {"fsq_id": "44e36f32f964a52041371fe3", "categories": [{"id": 13177, "name": "Greek Restaurant", "icon": {"prefix": "https://ss3.4sqi.net/img/categories_v2/food/greek_", "suffix": ".png"}}, {"id": 13302, "name": "Mediterranean Restaurant", "icon": {"prefix": "https://ss3.4sqi.net/img/categories_v2/food/mediterranean_", "suffix": ".png"}}, {"id": 13356, "name": "Turkish Restaurant", "icon": {"prefix": "https://ss3.4sqi.net/img/categories_v2/food/turkish_", "suffix": ".png"}}], "chains": [], "distance": 400, "geocodes": {"main": {"latitude": 37.77865, "longitude": -122.415636}, "roof": {"latitude": 37.77865, "longitude": -122.415636}}, "link": "/v3/places/44e36f32f964a52041371fe3", "location": {"address": "25 Grove St", "census_block": "060750124051007", "country": "US", "cross_street": "Larkin St", "dma": "San Francisco-Oakland-San Jose", "formatted_address": "25 Grove St (Larkin St), San Francisco, CA 94102", "locality": "San Francisco", "neighborhood": ["Civic Center"], "postcode": "94102", "region": "CA"}, "name": "Gyro King", "related_places": {}, "timezone": "America/Los_Angeles"}, {"fsq_id": "43f4dc37f964a5209f2f1fe3", "categories": [{"id": 13379, "name": "Vietnamese Restaurant", "icon": {"prefix": "https://ss3.4sqi.net/img/categories_v2/food/vietnamese_", "suffix": ".png"}}], "chains": [], "distance": 484, "geocodes": {"main": {"latitude": 37.783906, "longitude": -122.41781}, "roof": {"latitude": 37.783906, "longitude": -122.41781}}, "link": "/v3/places/43f4dc37f964a5209f2f1fe3", "location": {"address": "631 Larkin St", "census_block": "060750124061000", "country": "US", "cross_street": "btwn Eddy & Ellis", "dma": "San Francisco-Oakland-San Jose", "formatted_address": "631 Larkin St (btwn Eddy & Ellis), San Francisco, CA 94109", "locality": "San Francisco", "neighborhood": ["Civic Center"], "postcode": "94109", "region": "CA"}, "name": "Turtle Tower Restaurant", "related_places": {}, "timezone": "America/Los_Angeles"}, {"fsq_id": "48f88f85f964a5204e521fe3", "categories": [{"id": 13031, "name": "Burger Joint", "icon": {"prefix": "https://ss3.4sqi.net/img/categories_v2/food/burger_", "suffix": ".png"}}, {"id": 13068, "name": "American Restaurant", "icon": {"prefix": "https://ss3.4sqi.net/img/categories_v2/food/default_", "suffix": ".png"}}, {"id": 13388, "name": "Wings Joint", "icon": {"prefix": "https://ss3.4sqi.net/img/categories_v2/food/wings_", "suffix": ".png"}}], "chains": [], "distance": 428, "geocodes": {"main": {"latitude": 37.777524, "longitude": -122.423955}, "roof": {"latitude": 37.777524, "longitude": -122.423955}}, "link": "/v3/places/48f88f85f964a5204e521fe3", "location": {"address": "465 Grove St", "census_block": "060750162001004", "country": "US", "cross_street": "btw Gough & Octavia", "dma": "San Francisco-Oakland-San Jose", "formatted_address": "465 Grove St (btw Gough & Octavia), San Francisco, CA 94102", "locality": "San Francisco", "neighborhood": ["Hayes Valley"], "postcode": "94102", "region": "CA"}, "name": "Double Decker", "related_places": {"parent": {"fsq_id": "4b7492ddf964a52006e52de3", "name": "Days Inn San Francisco Downtown/Civic Center Area"}}, "timezone": "America/Los_Angeles"}, {"fsq_id": "6024d2a9e852b707c95dea42", "categories": [{"id": 13016, "name": "Lounge", "icon": {"prefix": "https://ss3.4sqi.net/img/categories_v2/nightlife/default_", "suffix": ".png"}}, {"id": 13352, "name": "Thai Restaurant", "icon": {"prefix": "https://ss3.4sqi.net/img/categories_v2/food/thai_", "suffix": ".png"}}], "chains": [], "distance": 428, "geocodes": {"main": {"latitude": 37.783516, "longitude": -122.417787}, "roof": {"latitude": 37.783516, "longitude": -122.417787}}, "link": "/v3/places/6024d2a9e852b707c95dea42", "location": {"address": "601 Larkin St", "census_block": "060750124061001", "country": "US", "cross_street": "", "dma": "San Francisco-Oakland-San Jose", "formatted_address": "601 Larkin St, San Francisco, CA 94109", "locality": "San Francisco", "neighborhood": ["Civic Center"], "postcode": "94109", "region": "CA"}, "name": "Lapats Thai Noodles Bar", "related_places": {}, "timezone": "America/Los_Angeles"}, {"fsq_id": "60e909e6ef22c4503d151e1c", "categories": [{"id": 13003, "name": "Bar", "icon": {"prefix": "https://ss3.4sqi.net/img/categories_v2/nightlife/pub_", "suffix": ".png"}}], "chains": [], "distance": 424, "geocodes": {"main": {"latitude": 37.777099, "longitude": -122.423143}}, "link": "/v3/places/60e909e6ef22c4503d151e1c", "location": {"address": "409 Gough St", "country": "US", "cross_street": "Hayes", "dma": "San Francisco-Oakland-San Jose", "formatted_address": "409 Gough St (Hayes), San Francisco, CA 94102", "locality": "San Francisco", "neighborhood": ["Alamo Square"], "postcode": "94102", "region": "CA"}, "name": "Afterwork Bar", "related_places": {}, "timezone": "America/Los_Angeles"}, {"fsq_id": "4a6f6f5cf964a52029d61fe3", "categories": [{"id": 13334, "name": "Sandwich Restaurant", "icon": {"prefix": "https://ss3.4sqi.net/img/categories_v2/food/deli_", "suffix": ".png"}}, {"id": 13379, "name": "Vietnamese Restaurant", "icon": {"prefix": "https://ss3.4sqi.net/img/categories_v2/food/vietnamese_", "suffix": ".png"}}], "chains": [], "distance": 460, "geocodes": {"main": {"latitude": 37.783581, "longitude": -122.417791}, "roof": {"latitude": 37.783581, "longitude": -122.417791}}, "link": "/v3/places/4a6f6f5cf964a52029d61fe3", "location": {"address": "625 Larkin St", "census_block": "060750124061001", "country": "US", "cross_street": "at Willow St.", "dma": "San Francisco-Oakland-San Jose", "formatted_address": "625 Larkin St (at Willow St.), San Francisco, CA 94109", "locality": "San Francisco", "neighborhood": ["Civic Center"], "postcode": "94109", "region": "CA"}, "name": "Lee's Sandwiches", "related_places": {}, "timezone": "America/Los_Angeles"}, {"fsq_id": "5e4cbf1859c391000823cf40", "categories": [{"id": 13065, "name": "Restaurant", "icon": {"prefix": "https://ss3.4sqi.net/img/categories_v2/food/default_", "suffix": ".png"}}], "chains": [], "distance": 364, "geocodes": {"main": {"latitude": 37.783299, "longitude": -122.418921}, "roof": {"latitude": 37.783299, "longitude": -122.418921}}, "link": "/v3/places/5e4cbf1859c391000823cf40", "location": {"address": "700 Polk St", "census_block": "060750124061001", "country": "US", "cross_street": "", "dma": "San Francisco-Oakland-San Jose", "formatted_address": "700 Polk St, San Francisco, CA 94109", "locality": "San Francisco", "neighborhood": ["Civic Center"], "postcode": "94109", "region": "CA"}, "name": "Son & Garden", "related_places": {}, "timezone": "America/Los_Angeles"}, {"fsq_id": "44062411f964a52043301fe3", "categories": [{"id": 13009, "name": "Cocktail Bar", "icon": {"prefix": "https://ss3.4sqi.net/img/categories_v2/nightlife/cocktails_", "suffix": ".png"}}, {"id": 13016, "name": "Lounge", "icon": {"prefix": "https://ss3.4sqi.net/img/categories_v2/nightlife/default_", "suffix": ".png"}}, {"id": 13065, "name": "Restaurant", "icon": {"prefix": "https://ss3.4sqi.net/img/categories_v2/food/default_", "suffix": ".png"}}], "chains": [], "distance": 409, "geocodes": {"main": {"latitude": 37.776863, "longitude": -122.422339}, "roof": {"latitude": 37.776863, "longitude": -122.422339}}, "link": "/v3/places/44062411f964a52043301fe3", "location": {"address": "377 Hayes St", "census_block": "060750162002001", "country": "US", "cross_street": "at Gough St", "dma": "San Francisco-Oakland-San Jose", "formatted_address": "377 Hayes St (at Gough St), San Francisco, CA 94102", "locality": "San Francisco", "neighborhood": ["Civic Center"], "postcode": "94102", "region": "CA"}, "name": "Sugar Lounge", "related_places": {}, "timezone": "America/Los_Angeles"}, {"fsq_id": "5a32df1c898bdc697497959e", "categories": [{"id": 13034, "name": "Caf\u00e9", "icon": {"prefix": "https://ss3.4sqi.net/img/categories_v2/food/cafe_", "suffix": ".png"}}, {"id": 13039, "name": "Deli", "icon": {"prefix": "https://ss3.4sqi.net/img/categories_v2/food/deli_", "suffix": ".png"}}, {"id": 13334, "name": "Sandwich Restaurant", "icon": {"prefix": "https://ss3.4sqi.net/img/categories_v2/food/deli_", "suffix": ".png"}}], "chains": [], "distance": 224, "geocodes": {"main": {"latitude": 37.781731, "longitude": -122.42105}, "roof": {"latitude": 37.781731, "longitude": -122.42105}}, "link": "/v3/places/5a32df1c898bdc697497959e", "location": {"address": "601 Van Ness Ave", "address_extended": "Ste K", "census_block": "060750160002006", "country": "US", "cross_street": "", "dma": "San Francisco-Oakland-San Jose", "formatted_address": "601 Van Ness Ave, San Francisco, CA 94102", "locality": "San Francisco", "neighborhood": ["Civic Center"], "postcode": "94102", "region": "CA"}, "name": "Cool Cravings", "related_places": {"parent": {"fsq_id": "4f446d98e4b062c961900b46", "name": "Opera Plaza"}}, "timezone": "America/Los_Angeles"}, {"fsq_id": "620e7edf1d6ad650a97e2ea1", "categories": [{"id": 13034, "name": "Caf\u00e9", "icon": {"prefix": "https://ss3.4sqi.net/img/categories_v2/food/cafe_", "suffix": ".png"}}], "chains": [], "distance": 272, "geocodes": {"main": {"latitude": 37.778928, "longitude": -122.417207}}, "link": "/v3/places/620e7edf1d6ad650a97e2ea1", "location": {"address": "52 Grove St", "country": "US", "cross_street": "", "dma": "San Francisco-Oakland-San Jose", "formatted_address": "52 Grove St, San Francisco, CA 94102", "locality": "San Francisco", "neighborhood": ["Civic Center"], "postcode": "94102", "region": "CA"}, "name": "Assembly", "related_places": {}, "timezone": "America/Los_Angeles"}, {"fsq_id": "49bee717f964a520f3541fe3", "categories": [{"id": 13035, "name": "Coffee Shop", "icon": {"prefix": "https://ss3.4sqi.net/img/categories_v2/food/coffeeshop_", "suffix": ".png"}}], "chains": [{"id": "ab4c54c0-d68a-012e-5619-003048cad9da", "name": "Starbucks"}], "distance": 401, "geocodes": {"main": {"latitude": 37.77705, "longitude": -122.417333}, "roof": {"latitude": 37.77705, "longitude": -122.417333}}, "link": "/v3/places/49bee717f964a520f3541fe3", "location": {"address": "1390 Market St", "address_extended": "Ste 107", "census_block": "060750124053010", "country": "US", "cross_street": "at Fox Plz", "dma": "San Francisco-Oakland-San Jose", "formatted_address": "1390 Market St (at Fox Plz), San Francisco, CA 94102", "locality": "San Francisco", "neighborhood": ["Civic Center"], "postcode": "94102", "region": "CA"}, "name": "Starbucks", "related_places": {"parent": {"fsq_id": "49caafa1f964a520d4581fe3", "name": "Fox Plaza"}}, "timezone": "America/Los_Angeles"}], "context": {"geo_bounds": {"circle": {"center": {"latitude": 37.78, "longitude": -122.42}, "radius": 500}}}}