{"results": [{"fsq_id": "50e1f183e4b053b500fca19b", "categories": [{"id": 13059, "name": "Juice Bar", "icon": {"prefix": "https://ss3.4sqi.net/img/categories_v2/food/juicebar_", "suffix": ".png"}}], "chains": [], "distance": 160, "geocodes": {"main": {"latitude": 37.751485, "longitude": -122.42982}, "roof": {"latitude": 37.751419, "longitude": -122.429936}}, "link": "/v3/places/50e1f183e4b053b500fca19b", "location": {"address": "3901 24th St", "census_block": "060750214003000", "country": "US", "cross_street": "Sanchez", "dma": "San Francisco-Oakland-San Jose", "formatted_address": "3901 24th St (Sanchez), San Francisco, CA 94114", "locality": "San Francisco", "neighborhood": ["Castro"], "postcode": "94114", "region": "CA"}, "name": "Pressed Juicery", "related_places": {}, "timezone": "America/Los_Angeles"}, {"fsq_id": "4f2a012ce4b0a7b3771950bb", "categories": [{"id": 13065, "name": "Restaurant", "icon": {"prefix": "https://ss3.4sqi.net/img/categories_v2/food/default_", "suffix": ".png"}}], "chains": [], "distance": 212, "geocodes": {"main": {"latitude": 37.751728, "longitude": -122.42888}, "roof": {"latitude": 37.751728, "longitude": -122.42888}}, "link": "/v3/places/4f2a012ce4b0a7b3771950bb", "location": {"address": "3856 24th St", "census_block": "060750211002008", "country": "US", "cross_street": "at Vicksburg St", "dma": "San Francisco-Oakland-San Jose", "formatted_address": "3856 24th St (at Vicksburg St), San Francisco, CA 94114", "locality": "San Francisco", "neighborhood": ["Castro"], "postcode": "94114", "region": "CA"}, "name": "Saru Sushi Bar - NOE VALLEY", "related_places": {}, "timezone": "America/Los_Angeles"}, {"fsq_id": "454f77e0f964a520db3c1fe3", "categories": [{"id": 13031, "name": "Burger Joint", "icon": {"prefix": "https://ss3.4sqi.net/img/categories_v2/food/burger_", "suffix": ".png"}}, {"id": 13036, "name": "Tea Room", "icon": {"prefix": "https://ss3.4sqi.net/img/categories_v2/food/tearoom_", "suffix": ".png"}}, {"id": 13068, "name": "American Restaurant", "icon": {"prefix": "https://ss3.4sqi.net/img/categories_v2/food/default_", "suffix": ".png"}}], "chains": [], "distance": 274, "geocodes": {"main": {"latitude": 37.749127, "longitude": -122.427006}, "roof": {"latitude": 37.749127, "longitude": -122.427006}}, "link": "/v3/places/454f77e0f964a520db3c1fe3", "location": {"address": "1351 Church St", "census_block": "060750214002006", "country": "US", "cross_street": "at Clipper St", "dma": "San Francisco-Oakland-San Jose", "formatted_address": "1351 Church St (at Clipper St), San Francisco, CA 94114", "locality": "San Francisco", "neighborhood": ["Noe Valley"], "postcode": "94114", "region": "CA"}, "name": "Lovejoy's Tea Room", "related_places": {}, "timezone": "America/Los_Angeles"}, {"fsq_id": "4a390f6cf964a520179f1fe3", "categories": [{"id": 13002, "name": "Bakery", "icon": {"prefix": "https://ss3.4sqi.net/img/categories_v2/food/bakery_", "suffix": ".png"}}, {"id": 13145, "name": "Fast Food Restaurant", "icon": {"prefix": "https://ss3.4sqi.net/img/categories_v2/food/fastfood_", "suffix": ".png"}}, {"id": 13148, "name": "French Restaurant", "icon": {"prefix": "https://ss3.4sqi.net/img/categories_v2/food/french_", "suffix": ".png"}}], "chains": [], "distance": 337, "geocodes": {"main": {"latitude": 37.751195, "longitude": -122.433291}, "roof": {"latitude": 37.751195, "longitude": -122.433291}}, "link": "/v3/places/4a390f6cf964a520179f1fe3", "location": {"address": "4073 24th St", "census_block": "060750214003001", "country": "US", "cross_street": "btwn Castro & Noe St", "dma": "San Francisco-Oakland-San Jose", "formatted_address": "4073 24th St (btwn Castro & Noe St), San Francisco, CA 94114", "locality": "San Francisco", "neighborhood": ["Dolores Heights"], "postcode": "94114", "region": "CA"}, "name": "Noe Valley Bakery", "related_places": {}, "timezone": "America/Los_Angeles"}, {"fsq_id": "5c4c85f14f0e58002cd2bdc6", "categories": [{"id": 13002, "name": "Bakery", "icon": {"prefix": "https://ss3.4sqi.net/img/categories_v2/food/bakery_", "suffix": ".png"}}, {"id": 13034, "name": "Caf\u00e9", "icon": {"prefix": "https://ss3.4sqi.net/img/categories_v2/food/cafe_", "suffix": ".png"}}, {"id": 13065, "name": "Restaurant", "icon": {"prefix": "https://ss3.4sqi.net/img/categories_v2/food/default_", "suffix": ".png"}}], "chains": [], "distance": 271, "geocodes": {"main": {"latitude": 37.751564, "longitude": -122.432739}, "roof": {"latitude": 37.751564, "longitude": -122.432739}}, "link": "/v3/places/5c4c85f14f0e58002cd2bdc6", "location": {"address": "4026 24th St", "census_block": "060750211003005", "country": "US", "cross_street": "Noe", "dma": "San Francisco-Oakland-San Jose", "formatted_address": "4026 24th St (Noe), San Francisco, CA 94114", "locality": "San Francisco", "neighborhood": ["Dolores Heights"], "postcode": "94114", "region": "CA"}, "name": "Vive La Tarte", "related_places": {}, "timezone": "America/Los_Angeles"}, {"fsq_id": "4cccf2a372106dcb93d79f99", "categories": [{"id": 13064, "name": "Pizzeria", "icon": {"prefix": "https://ss3.4sqi.net/img/categories_v2/food/pizza_", "suffix": ".png"}}], "chains": [], "distance": 297, "geocodes": {"main": {"latitude": 37.751499, "longitude": -122.432735}, "roof": {"latitude": 37.751499, "longitude": -122.432735}}, "link": "/v3/places/4cccf2a372106dcb93d79f99", "location": {"address": "4042 24th St", "census_block": "060750211003005", "country": "US", "cross_street": "btwn Castro & Noe", "dma": "San Francisco-Oakland-San Jose", "formatted_address": "4042 24th St (btwn Castro & Noe), San Francisco, CA 94114", "locality": "San Francisco", "neighborhood": ["Dolores Heights"], "postcode": "94114", "region": "CA"}, "name": "Patxi\u2019s Pizza", "related_places": {}, "timezone": "America/Los_Angeles"}, {"fsq_id": "454f85bff964a520de3c1fe3", "categories": [{"id": 13031, "name": "Burger Joint", "icon": {"prefix": "https://ss3.4sqi.net/img/categories_v2/food/burger_", "suffix": ".png"}}, {"id": 13034, "name": "Caf\u00e9", "icon": {"prefix": "https://ss3.4sqi.net/img/categories_v2/food/cafe_", "suffix": ".png"}}, {"id": 13068, "name": "American Restaurant", "icon": {"prefix": "https://ss3.4sqi.net/img/categories_v2/food/default_", "suffix": ".png"}}], "chains": [], "distance": 299, "geocodes": {"main": {"latitude": 37.748672, "longitude": -122.426979}, "roof": {"latitude": 37.748672, "longitude": -122.426979}}, "link": "/v3/places/454f85bff964a520de3c1fe3", "location": {"address": "1399 Church St", "census_block": "060750214002006", "country": "US", "cross_street": "at 26th St", "dma": "San Francisco-Oakland-San Jose", "formatted_address": "1399 Church St (at 26th St), San Francisco, CA 94114", "locality": "San Francisco", "neighborhood": ["Noe Valley"], "postcode": "94114", "region": "CA"}, "name": "Chloe's Cafe", "related_places": {}, "timezone": "America/Los_Angeles"}, {"fsq_id": "5193bb30498e0126e511f66c", "categories": [{"id": 13031, "name": "Burger Joint", "icon": {"prefix": "https://ss3.4sqi.net/img/categories_v2/food/burger_", "suffix": ".png"}}, {"id": 13068, "name": "American Restaurant", "icon": {"prefix": "https://ss3.4sqi.net/img/categories_v2/food/default_", "suffix": ".png"}}, {"id": 13332, "name": "Salad Restaurant", "icon": {"prefix": "https://ss3.4sqi.net/img/categories_v2/food/salad_", "suffix": ".png"}}], "chains": [], "distance": 243, "geocodes": {"main": {"latitude": 37.751293, "longitude": -122.432007}, "roof": {"latitude": 37.751293, "longitude": -122.432007}}, "link": "/v3/places/5193bb30498e0126e511f66c", "location": {"address": "4007 24th St", "census_block": "060750214003001", "country": "US", "cross_street": "Noe St", "dma": "San Francisco-Oakland-San Jose", "formatted_address": "4007 24th St (Noe St), San Francisco, CA 94114", "locality": "San Francisco", "neighborhood": ["Dolores Heights"], "postcode": "94114", "region": "CA"}, "name": "Griddle Fresh", "related_places": {}, "timezone": "America/Los_Angeles"}, {"fsq_id": "42474900f964a52087201fe3", "categories": [{"id": 13022, "name": "Sports Bar", "icon": {"prefix": "https://ss3.4sqi.net/img/categories_v2/nightlife/sportsbar_", "suffix": ".png"}}, {"id": 13065, "name": "Restaurant", "icon": {"prefix": "https://ss3.4sqi.net/img/categories_v2/food/default_", "suffix": ".png"}}], "chains": [], "distance": 323, "geocodes": {"main": {"latitude": 37.751542, "longitude": -122.433025}, "roof": {"latitude": 37.751542, "longitude": -122.433025}}, "link": "/v3/places/42474900f964a52087201fe3", "location": {"address": "4054 24th St", "census_block": "060750211003005", "country": "US", "cross_street": "btwn Noe & Castro St", "dma": "San Francisco-Oakland-San Jose", "formatted_address": "4054 24th St (btwn Noe & Castro St), San Francisco, CA 94114", "locality": "San Francisco", "neighborhood": ["Dolores Heights"], "postcode": "94114", "region": "CA"}, "name": "Valley Tavern", "related_places": {}, "timezone": "America/Los_Angeles"}, {"fsq_id": "49d00ea2f964a520fa5a1fe3", "categories": [{"id": 13334, "name": "Sandwich Restaurant", "icon": {"prefix": "https://ss3.4sqi.net/img/categories_v2/food/deli_", "suffix": ".png"}}], "chains": [], "distance": 395, "geocodes": {"main": {"latitude": 37.751157, "longitude": -122.43422}, "roof": {"latitude": 37.751157, "longitude": -122.43422}}, "link": "/v3/places/49d00ea2f964a520fa5a1fe3", "location": {"address": "1300 Castro St", "census_block": "060750213001000", "country": "US", "cross_street": "at 24th St", "dma": "San Francisco-Oakland-San Jose", "formatted_address": "1300 Castro St (at 24th St), San Francisco, CA 94114", "locality": "San Francisco", "neighborhood": ["Diamond Heights"], "postcode": "94114", "region": "CA"}, "name": "Subs", "related_places": {}, "timezone": "America/Los_Angeles"}, {"fsq_id": "5b2db9b3e1f228002c449e28", "categories": [{"id": 13031, "name": "Burger Joint", "icon": {"prefix": "https://ss3.4sqi.net/img/categories_v2/food/burger_", "suffix": ".png"}}, {"id": 13145, "name": "Fast Food Restaurant", "icon": {"prefix": "https://ss3.4sqi.net/img/categories_v2/food/fastfood_", "suffix": ".png"}}], "chains": [], "distance": 215, "geocodes": {"main": {"latitude": 37.751479, "longitude": -122.428722}, "roof": {"latitude": 37.751479, "longitude": -122.428722}}, "link": "/v3/places/5b2db9b3e1f228002c449e28", "location": {"address": "3853 24th St", "census_block": "060750214001005", "country": "US", "cross_street": "Vicksburg", "dma": "San Francisco-Oakland-San Jose", "formatted_address": "3853 24th St (Vicksburg), San Francisco, CA 94114", "locality": "San Francisco", "neighborhood": ["Castro"], "postcode": "94114", "region": "CA"}, "name": "Hi-Way Burger & Fry", "related_places": {}, "timezone": "America/Los_Angeles"}, {"fsq_id": "5000974ce4b077654e3efe95", "categories": [{"id": 13044, "name": "Frozen Yogurt Shop", "icon": {"prefix": "https://ss3.4sqi.net/img/categories_v2/food/frozenyogurt_", "suffix": ".png"}}, {"id": 13046, "name": "Ice Cream Parlor", "icon": {"prefix": "https://ss3.4sqi.net/img/categories_v2/food/icecream_", "suffix": ".png"}}, {"id": 13065, "name": "Restaurant", "icon": {"prefix": "https://ss3.4sqi.net/img/categories_v2/food/default_", "suffix": ".png"}}], "chains": [], "distance": 278, "geocodes": {"main": {"latitude": 37.751499, "longitude": -122.432735}, "roof": {"latitude": 37.751499, "longitude": -122.432735}}, "link": "/v3/places/5000974ce4b077654e3efe95", "location": {"address": "4028 24th St", "census_block": "060750211003005", "country": "US", "cross_street": "btwn Noe & Castro St", "dma": "San Francisco-Oakland-San Jose", "formatted_address": "4028 24th St (btwn Noe & Castro St), San Francisco, CA 94114", "locality": "San Francisco", "neighborhood": ["Dolores Heights"], "postcode": "94114", "region": "CA"}, "name": "Easy Breezy", "related_places": {}, "timezone": "America/Los_Angeles"}, {"fsq_id": "4a19b62cf964a520387a1fe3", "categories": [{"id": 13276, "name": "Sushi Restaurant", "icon": {"prefix": "https://ss3.4sqi.net/img/categories_v2/food/sushi_", "suffix": ".png"}}], "chains": [], "distance": 374, "geocodes": {"main": {"latitude": 37.750858, "longitude": -122.434274}, "roof": {"latitude": 37.750858, "longitude": -122.434274}}, "link": "/v3/places/4a19b62cf964a520387a1fe3", "location": {"address": "1332 Castro St", "census_block": "060750213001000", "country": "US", "cross_street": "btwn 24th & Jersey St", "dma": "San Francisco-Oakland-San Jose", "formatted_address": "1332 Castro St (btwn 24th & Jersey St), San Francisco, CA 94114", "locality": "San Francisco", "neighborhood": ["Dolores Heights"], "postcode": "94114", "region": "CA"}, "name": "Hamano Sushi", "related_places": {}, "timezone": "America/Los_Angeles"}, {"fsq_id": "4c21afbe34faef3b6f79586d", "categories": [{"id": 13303, "name": "Mexican Restaurant", "icon": {"prefix": "https://ss3.4sqi.net/img/categories_v2/food/mexican_", "suffix": ".png"}}], "chains": [], "distance": 429, "geocodes": {"main": {"latitude": 37.751113, "longitude": -122.434791}, "roof": {"latitude": 37.751113, "longitude": -122.434791}}, "link": "/v3/places/4c21afbe34faef3b6f79586d", "location": {"address": "4123 24th St", "census_block": "060750213001000", "country": "US", "cross_street": "btw Castro & Diamond", "dma": "San Francisco-Oakland-San Jose", "formatted_address": "4123 24th St (btw Castro & Diamond), San Francisco, CA 94114", "locality": "San Francisco", "neighborhood": ["Dolores Heights"], "postcode": "94114", "region": "CA"}, "name": "The Little Chihuahua", "related_places": {}, "timezone": "America/Los_Angeles"}, {"fsq_id": "4ab7e395f964a520597b20e3", "categories": [{"id": 13236, "name": "Italian Restaurant", "icon": {"prefix": "https://ss3.4sqi.net/img/categories_v2/food/italian_", "suffix": ".png"}}], "chains": [], "distance": 418, "geocodes": {"main": {"latitude": 37.751124, "longitude": -122.434648}, "roof": {"latitude": 37.751124, "longitude": -122.434648}}, "link": "/v3/places/4ab7e395f964a520597b20e3", "location": {"address": "4109 24th St", "census_block": "060750213001000", "country": "US", "cross_street": "btwn Castro & Diamond", "dma": "San Francisco-Oakland-San Jose", "formatted_address": "4109 24th St (btwn Castro & Diamond), San Francisco, CA 94114", "locality": "San Francisco", "neighborhood": ["Dolores Heights"], "postcode": "94114", "region": "CA"}, "name": "Lupa", "related_places": {}, "timezone": "America/Los_Angeles"}, {"fsq_id": "55078d2c498e3349e065926f", "categories": [{"id": 13065, "name": "Restaurant", "icon": {"prefix": "https://ss3.4sqi.net/img/categories_v2/food/default_", "suffix": ".png"}}], "chains": [], "distance": 250, "geocodes": {"main": {"latitude": 37.751554, "longitude": -122.432022}, "roof": {"latitude": 37.751554, "longitude": -122.432022}}, "link": "/v3/places/55078d2c498e3349e065926f", "location": {"address": "4000 24th St", "census_block": "060750211003005", "country": "US", "cross_street": "Noe", "dma": "San Francisco-Oakland-San Jose", "formatted_address": "4000 24th St (Noe), San Francisco, CA 94114", "locality": "San Francisco", "neighborhood": ["Dolores Heights"], "postcode": "94114", "region": "CA"}, "name": "NoVY Restaurant", "related_places": {}, "timezone": "America/Los_Angeles"}, {"fsq_id": "49f5f683f964a520e06b1fe3", "categories": [{"id": 13002, "name": "Bakery", "icon": {"prefix": "https://ss3.4sqi.net/img/categories_v2/food/bakery_", "suffix": ".png"}}, {"id": 13034, "name": "Caf\u00e9", "icon": {"prefix": "https://ss3.4sqi.net/img/categories_v2/food/cafe_", "suffix": ".png"}}, {"id": 13145, "name": "Fast Food Restaurant", "icon": {"prefix": "https://ss3.4sqi.net/img/categories_v2/food/fastfood_", "suffix": ".png"}}], "chains": [], "distance": 419, "geocodes": {"main": {"latitude": 37.751471, "longitude": -122.434382}, "roof": {"latitude": 37.751471, "longitude": -122.434382}}, "link": "/v3/places/49f5f683f964a520e06b1fe3", "location": {"address": "4108 24th St", "census_block": "060750212002008", "country": "US", "cross_street": "at Castro St", "dma": "San Francisco-Oakland-San Jose", "formatted_address": "4108 24th St (at Castro St), San Francisco, CA 94114", "locality": "San Francisco", "neighborhood": ["Diamond Heights"], "postcode": "94114", "region": "CA"}, "name": "Peasant Pies", "related_places": {}, "timezone": "America/Los_Angeles"}, {"fsq_id": "4a5a59b5f964a52033ba1fe3", "categories": [{"id": 13068, "name": "American Restaurant", "icon": {"prefix": "https://ss3.4sqi.net/img/categories_v2/food/default_", "suffix": ".png"}}, {"id": 13297, "name": "Latin American Restaurant", "icon": {"prefix": "https://ss3.4sqi.net/img/categories_v2/food/latinamerican_", "suffix": ".png"}}, {"id": 13322, "name": "Peruvian Restaurant", "icon": {"prefix": "https://ss3.4sqi.net/img/categories_v2/food/peruvian_", "suffix": ".png"}}], "chains": [], "distance": 178, "geocodes": {"main": {"latitude": 37.751376, "longitude": -122.430691}}, "link": "/v3/places/4a5a59b5f964a52033ba1fe3", "location": {"address": "3945 24th St", "country": "US", "cross_street": "btwn Noe & Sanchez St", "dma": "San Francisco-Oakland-San Jose", "formatted_address": "3945 24th St (btwn Noe & Sanchez St), San Francisco, CA 94114", "locality": "San Francisco", "neighborhood": ["Dolores Heights"], "postcode": "94114", "region": "CA"}, "name": "Fresca", "related_places": {}, "timezone": "America/Los_Angeles"}, {"fsq_id": "4b3eeebef964a5202fa325e3", "categories": [{"id": 13010, "name": "Dive Bar", "icon": {"prefix": "https://ss3.4sqi.net/img/categories_v2/nightlife/divebar_", "suffix": ".png"}}, {"id": 13022, "name": "Sports Bar", "icon": {"prefix": "https://ss3.4sqi.net/img/categories_v2/nightlife/sportsbar_", "suffix": ".png"}}, {"id": 13026, "name": "BBQ Joint", "icon": {"prefix": "https://ss3.4sqi.net/img/categories_v2/food/bbqalt_", "suffix": ".png"}}], "chains": [], "distance": 389, "geocodes": {"main": {"latitude": 37.750961, "longitude": -122.434208}, "roof": {"latitude": 37.750961, "longitude": -122.434208}}, "link": "/v3/places/4b3eeebef964a5202fa325e3", "location": {"address": "1316 Castro St", "census_block": "060750213001000", "country": "US", "cross_street": "Castro and 24th", "dma": "San Francisco-Oakland-San Jose", "formatted_address": "1316 Castro St (Castro and 24th), San Francisco, CA 94114", "locality": "San Francisco", "neighborhood": ["Dolores Heights"], "postcode": "94114", "region": "CA"}, "name": "The Peaks", "related_places": {}, "timezone": "America/Los_Angeles"}, {"fsq_id": "49e810e0f964a5203a651fe3", "categories": [{"id": 13035, "name": "Coffee Shop", "icon": {"prefix": "https://ss3.4sqi.net/img/categories_v2/food/coffeeshop_", "suffix": ".png"}}, {"id": 13065, "name": "Restaurant", "icon": {"prefix": "https://ss3.4sqi.net/img/categories_v2/food/default_", "suffix": ".png"}}], "chains": [], "distance": 201, "geocodes": {"main": {"latitude": 37.751581, "longitude": -122.431236}, "roof": {"latitude": 37.751581, "longitude": -122.431236}}, "link": "/v3/places/49e810e0f964a5203a651fe3", "location": {"address": "3966 24th St", "census_block": "060750211003004", "country": "US", "cross_street": "at Noe St", "dma": "San Francisco-Oakland-San Jose", "formatted_address": "3966 24th St (at Noe St), San Francisco, CA 94114", "locality": "San Francisco", "neighborhood": ["Dolores Heights"], "postcode": "94114", "region": "CA"}, "name": "Bernie's Cafe", "related_places": {}, "timezone": "America/Los_Angeles"}, {"fsq_id": "480454e2f964a520f84e1fe3", "categories": [{"id": 13035, "name": "Coffee Shop", "icon": {"prefix": "https://ss3.4sqi.net/img/categories_v2/food/coffeeshop_", "suffix": ".png"}}, {"id": 13036, "name": "Tea Room", "icon": {"prefix": "https://ss3.4sqi.net/img/categories_v2/food/tearoom_", "suffix": ".png"}}, {"id": 13068, "name": "American Restaurant", "icon": {"prefix": "https://ss3.4sqi.net/img/categories_v2/food/default_", "suffix": ".png"}}], "chains": [], "distance": 201, "geocodes": {"main": {"latitude": 37.751728, "longitude": -122.42888}, "roof": {"latitude": 37.751728, "longitude": -122.42888}}, "link": "/v3/places/480454e2f964a520f84e1fe3", "location": {"address": "3868 24th St", "census_block": "060750211002008", "country": "US", "cross_street": "btwn Sanchez & Vicksburg St", "dma": "San Francisco-Oakland-San Jose", "formatted_address": "3868 24th St (btwn Sanchez & Vicksburg St), San Francisco, CA 94114", "locality": "San Francisco", "neighborhood": ["Castro"], "postcode": "94114", "region": "CA"}, "name": "Martha & Brothers Coffee Co.", "related_places": {}, "timezone": "America/Los_Angeles"}, {"fsq_id": "4ab46c28f964a5202c7120e3", "categories": [{"id": 13026, "name": "BBQ Joint", "icon": {"prefix": "https://ss3.4sqi.net/img/categories_v2/food/bbqalt_", "suffix": ".png"}}, {"id": 13072, "name": "Asian Restaurant", "icon": {"prefix": "https://ss3.4sqi.net/img/categories_v2/food/asian_", "suffix": ".png"}}, {"id": 13102, "name": "Cantonese Restaurant", "icon": {"prefix": "https://ss3.4sqi.net/img/categories_v2/food/asian_", "suffix": ".png"}}], "chains": [], "distance": 436, "geocodes": {"main": {"latitude": 37.746791, "longitude": -122.42713}}, "link": "/v3/places/4ab46c28f964a5202c7120e3", "location": {"address": "1500 Church St", "country": "US", "cross_street": "at 27th St", "dma": "San Francisco-Oakland-San Jose", "formatted_address": "1500 Church St (at 27th St), San Francisco, CA 94131", "locality": "San Francisco", "neighborhood": ["Noe Valley"], "postcode": "94131", "region": "CA"}, "name": "Eric's Restaurant", "related_places": {}, "timezone": "America/Los_Angeles"}, {"fsq_id": "5da1563daa2e470008826445", "categories": [{"id": 13094, "name": "Burmese Restaurant", "icon": {"prefix": "https://ss3.4sqi.net/img/categories_v2/food/asian_", "suffix": ".png"}}, {"id": 13315, "name": "Noodle Restaurant", "icon": {"prefix": "https://ss3.4sqi.net/img/categories_v2/food/ramen_", "suffix": ".png"}}, {"id": 13342, "name": "Soup Restaurant", "icon": {"prefix": "https://ss3.4sqi.net/img/categories_v2/food/soup_", "suffix": ".png"}}], "chains": [], "distance": 230, "geocodes": {"main": {"latitude": 37.75033, "longitude": -122.427507}, "roof": {"latitude": 37.75033, "longitude": -122.427507}}, "link": "/v3/places/5da1563daa2e470008826445", "location": {"address": "1298 Church St", "census_block": "060750214001007", "country": "US", "cross_street": "25th St", "dma": "San Francisco-Oakland-San Jose", "formatted_address": "1298 Church St (25th St), San Francisco, CA 94114", "locality": "San Francisco", "neighborhood": ["Castro"], "postcode": "94114", "region": "CA"}, "name": "Inle Burmese Cuisine", "related_places": {}, "timezone": "America/Los_Angeles"}, {"fsq_id": "4297b480f964a52065241fe3", "categories": [{"id": 13035, "name": "Coffee Shop", "icon": {"prefix": "https://ss3.4sqi.net/img/categories_v2/food/coffeeshop_", "suffix": ".png"}}], "chains": [{"id": "ab4c54c0-d68a-012e-5619-003048cad9da", "name": "Starbucks"}], "distance": 221, "geocodes": {"main": {"latitude": 37.751353, "longitude": -122.431652}, "roof": {"latitude": 37.751353, "longitude": -122.431652}}, "link": "/v3/places/4297b480f964a52065241fe3", "location": {"address": "3995 24th St", "census_block": "060750214003000", "country": "US", "cross_street": "at Noe St", "dma": "San Francisco-Oakland-San Jose", "formatted_address": "3995 24th St (at Noe St), San Francisco, CA 94114", "locality": "San Francisco", "neighborhood": ["Dolores Heights"], "postcode": "94114", "region": "CA"}, "name": "Starbucks", "related_places": {}, "timezone": "America/Los_Angeles"}, {"fsq_id": "4ab31218f964a5206f6d20e3", "categories": [{"id": 13002, "name": "Bakery", "icon": {"prefix": "https://ss3.4sqi.net/img/categories_v2/food/bakery_", "suffix": ".png"}}, {"id": 13043, "name": "Donut Shop", "icon": {"prefix": "https://ss3.4sqi.net/img/categories_v2/food/donuts_", "suffix": ".png"}}, {"id": 13065, "name": "Restaurant", "icon": {"prefix": "https://ss3.4sqi.net/img/categories_v2/food/default_", "suffix": ".png"}}], "chains": [], "distance": 284, "geocodes": {"main": {"latitude": 37.751556, "longitude": -122.427723}, "roof": {"latitude": 37.751556, "longitude": -122.427723}}, "link": "/v3/places/4ab31218f964a5206f6d20e3", "location": {"address": "3801 24th St", "census_block": "060750214001004", "country": "US", "cross_street": "at Church", "dma": "San Francisco-Oakland-San Jose", "formatted_address": "3801 24th St (at Church), San Francisco, CA 94114", "locality": "San Francisco", "neighborhood": ["Baja Noe"], "postcode": "94114", "region": "CA"}, "name": "Happy Donuts", "related_places": {}, "timezone": "America/Los_Angeles"}, {"fsq_id": "4a6f17bcf964a5204bd51fe3", "categories": [{"id": 13001, "name": "Bagel Shop", "icon": {"prefix": "https://ss3.4sqi.net/img/categories_v2/food/bagels_", "suffix": ".png"}}, {"id": 13002, "name": "Bakery", "icon": {"prefix": "https://ss3.4sqi.net/img/categories_v2/food/bakery_", "suffix": ".png"}}, {"id": 13068, "name": "American Restaurant", "icon": {"prefix": "https://ss3.4sqi.net/img/categories_v2/food/default_", "suffix": ".png"}}], "chains": [], "distance": 181, "geocodes": {"main": {"latitude": 37.751359, "longitude": -122.430291}, "roof": {"latitude": 37.751359, "longitude": -122.430291}}, "link": "/v3/places/4a6f17bcf964a5204bd51fe3", "location": {"address": "3933 24th St", "census_block": "060750214003000", "country": "US", "cross_street": "Sanchez", "dma": "San Francisco-Oakland-San Jose", "formatted_address": "3933 24th St (Sanchez), San Francisco, CA 94114", "locality": "San Francisco", "neighborhood": ["Castro"], "postcode": "94114", "region": "CA"}, "name": "Noe Bagel", "related_places": {}, "timezone": "America/Los_Angeles"}, {"fsq_id": "49f4c7e4f964a520526b1fe3", "categories": [{"id": 13031, "name": "Burger Joint", "icon": {"prefix": "https://ss3.4sqi.net/img/categories_v2/food/burger_", "suffix": ".png"}}, {"id": 13068, "name": "American Restaurant", "icon": {"prefix": "https://ss3.4sqi.net/img/categories_v2/food/default_", "suffix": ".png"}}], "chains": [], "distance": 462, "geocodes": {"main": {"latitude": 37.751378, "longitude": -122.435165}, "roof": {"latitude": 37.751378, "longitude": -122.435165}}, "link": "/v3/places/49f4c7e4f964a520526b1fe3", "location": {"address": "4138 24th St", "census_block": "060750212002008", "country": "US", "cross_street": "btwn Castro & Diamond", "dma": "San Francisco-Oakland-San Jose", "formatted_address": "4138 24th St (btwn Castro & Diamond), San Francisco, CA 94114", "locality": "San Francisco", "neighborhood": ["Diamond Heights"], "postcode": "94114", "region": "CA"}, "name": "Barney's Gourmet Hamburgers", "related_places": {}, "timezone": "America/Los_Angeles"}, {"fsq_id": "6066a8215e6ff07710c205a5", "categories": [{"id": 13068, "name": "American Restaurant", "icon": {"prefix": "https://ss3.4sqi.net/img/categories_v2/food/default_", "suffix": ".png"}}], "chains": [], "distance": 317, "geocodes": {"main": {"latitude": 37.751856, "longitude": -122.427267}}, "link": "/v3/places/6066a8215e6ff07710c205a5", "location": {"address": "1199 Church St", "country": "US", "cross_street": "", "dma": "San Francisco-Oakland-San Jose", "formatted_address": "1199 Church St, San Francisco, CA 94114", "locality": "San Francisco", "neighborhood": ["Baja Noe"], "postcode": "94114", "region": "CA"}, "name": "Mr. Digby's", "related_places": {}, "timezone": "America/Los_Angeles"}, {"fsq_id": "412e7980f964a520150d1fe3", "categories": [{"id": 13022, "name": "Sports Bar", "icon": {"prefix": "https://ss3.4sqi.net/img/categories_v2/nightlife/sportsbar_", "suffix": ".png"}}, {"id": 13031, "name": "Burger Joint", "icon": {"prefix": "https://ss3.4sqi.net/img/categories_v2/food/burger_", "suffix": ".png"}}, {"id": 13303, "name": "Mexican Restaurant", "icon": {"prefix": "https://ss3.4sqi.net/img/categories_v2/food/mexican_", "suffix": ".png"}}], "chains": [], "distance": 236, "geocodes": {"main": {"latitude": 37.751783, "longitude": -122.428166}, "roof": {"latitude": 37.751783, "longitude": -122.428166}}, "link": "/v3/places/412e7980f964a520150d1fe3", "location": {"address": "3838 24th St", "census_block": "060750211002009", "country": "US", "cross_street": "btwn Church & Vicksburg St", "dma": "San Francisco-Oakland-San Jose", "formatted_address": "3838 24th St (btwn Church & Vicksburg St), San Francisco, CA 94114", "locality": "San Francisco", "neighborhood": ["Baja Noe"], "postcode": "94114", "region": "CA"}, "name": "The Dubliner", "related_places": {}, "timezone": "America/Los_Angeles"}, {"fsq_id": "5abaf732cd441c131a6e27a6", "categories": [{"id": 13288, "name": "Kebab Restaurant", "icon": {"prefix": "https://ss3.4sqi.net/img/categories_v2/food/middleeastern_", "suffix": ".png"}}, {"id": 13302, "name": "Mediterranean Restaurant", "icon": {"prefix": "https://ss3.4sqi.net/img/categories_v2/food/mediterranean_", "suffix": ".png"}}, {"id": 13309, "name": "Middle Eastern Restaurant", "icon": {"prefix": "https://ss3.4sqi.net/img/categories_v2/food/middleeastern_", "suffix": ".png"}}], "chains": [], "distance": 144, "geocodes": {"main": {"latitude": 37.751392, "longitude": -122.429863}, "roof": {"latitude": 37.751392, "longitude": -122.429863}}, "link": "/v3/places/5abaf732cd441c131a6e27a6", "location": {"address": "3915 24th St", "census_block": "060750214003000", "country": "US", "cross_street": "", "dma": "San Francisco-Oakland-San Jose", "formatted_address": "3915 24th St, San Francisco, CA 94114", "locality": "San Francisco", "neighborhood": ["Castro"], "postcode": "94114", "region": "CA"}, "name": "Sultan's Kebab", "related_places": {}, "timezone": "America/Los_Angeles"}, {"fsq_id": "4ab5166cf964a520617220e3", "categories": [{"id": 13001, "name": "Bagel Shop", "icon": {"prefix": "https://ss3.4sqi.net/img/categories_v2/food/bagels_", "suffix": ".png"}}, {"id": 13002, "name": "Bakery", "icon": {"prefix": "https://ss3.4sqi.net/img/categories_v2/food/bakery_", "suffix": ".png"}}, {"id": 13065, "name": "Restaurant", "icon": {"prefix": "https://ss3.4sqi.net/img/categories_v2/food/default_", "suffix": ".png"}}], "chains": [], "distance": 196, "geocodes": {"main": {"latitude": 37.751756, "longitude": -122.428953}, "roof": {"latitude": 37.751756, "longitude": -122.428953}}, "link": "/v3/places/4ab5166cf964a520617220e3", "location": {"address": "3872 24th St", "census_block": "060750211002008", "country": "US", "cross_street": "btw Sanchez & Vicksburg", "dma": "San Francisco-Oakland-San Jose", "formatted_address": "3872 24th St (btw Sanchez & Vicksburg), San Francisco, CA 94114", "locality": "San Francisco", "neighborhood": ["Castro"], "postcode": "94114", "region": "CA"}, "name": "Holey Bagel", "related_places": {}, "timezone": "America/Los_Angeles"}, {"fsq_id": "41269080f964a520530c1fe3", "categories": [{"id": 13303, "name": "Mexican Restaurant", "icon": {"prefix": "https://ss3.4sqi.net/img/categories_v2/food/mexican_", "suffix": ".png"}}], "chains": [], "distance": 169, "geocodes": {"main": {"latitude": 37.751359, "longitude": -122.430291}, "roof": {"latitude": 37.751359, "longitude": -122.430291}}, "link": "/v3/places/41269080f964a520530c1fe3", "location": {"address": "3917 24th St", "census_block": "060750214003000", "country": "US", "cross_street": "at Sanchez St", "dma": "San Francisco-Oakland-San Jose", "formatted_address": "3917 24th St (at Sanchez St), San Francisco, CA 94114", "locality": "San Francisco", "neighborhood": ["Castro"], "postcode": "94114", "region": "CA"}, "name": "Casa Mexicana II", "related_places": {}, "timezone": "America/Los_Angeles"}, {"fsq_id": "4a8f61bff964a5201d1520e3", "categories": [{"id": 13099, "name": "Chinese Restaurant", "icon": {"prefix": "https://ss3.4sqi.net/img/categories_v2/food/asian_", "suffix": ".png"}}], "chains": [], "distance": 257, "geocodes": {"main": {"latitude": 37.751282, "longitude": -122.432149}, "roof": {"latitude": 37.751282, "longitude": -122.432149}}, "link": "/v3/places/4a8f61bff964a5201d1520e3", "location": {"address": "4015 24th St", "census_block": "060750214003001", "country": "US", "cross_street": "", "dma": "San Francisco-Oakland-San Jose", "formatted_address": "4015 24th St, San Francisco, CA 94114", "locality": "San Francisco", "neighborhood": ["Dolores Heights"], "postcode": "94114", "region": "CA"}, "name": "Tung Sing Restaurant", "related_places": {}, "timezone": "America/Los_Angeles"}, {"fsq_id": "441b5c83f964a52046311fe3", "categories": [{"id": 13064, "name": "Pizzeria", "icon": {"prefix": "https://ss3.4sqi.net/img/categories_v2/food/pizza_", "suffix": ".png"}}, {"id": 13236, "name": "Italian Restaurant", "icon": {"prefix": "https://ss3.4sqi.net/img/categories_v2/food/italian_", "suffix": ".png"}}], "chains": [], "distance": 190, "geocodes": {"main": {"latitude": 37.751463, "longitude": -122.429366}, "roof": {"latitude": 37.751463, "longitude": -122.429366}}, "link": "/v3/places/441b5c83f964a52046311fe3", "location": {"address": "3881 24th St", "census_block": "060750214001005", "country": "US", "cross_street": "between Sanchez St & Vicksburg St", "dma": "San Francisco-Oakland-San Jose", "formatted_address": "3881 24th St (between Sanchez St & Vicksburg St), San Francisco, CA 94114", "locality": "San Francisco", "neighborhood": ["Castro"], "postcode": "94114", "region": "CA"}, "name": "Haystack Pizza Restaurant Pick Up & Delivery", "related_places": {}, "timezone": "America/Los_Angeles"}, {"fsq_id": "4b5a91fbf964a520d1cb28e3", "categories": [{"id": 13046, "name": "Ice Cream Parlor", "icon": {"prefix": "https://ss3.4sqi.net/img/categories_v2/food/icecream_", "suffix": ".png"}}, {"id": 13065, "name": "Restaurant", "icon": {"prefix": "https://ss3.4sqi.net/img/categories_v2/food/default_", "suffix": ".png"}}], "chains": [], "distance": 151, "geocodes": {"main": {"latitude": 37.751392, "longitude": -122.429863}, "roof": {"latitude": 37.751392, "longitude": -122.429863}}, "link": "/v3/places/4b5a91fbf964a520d1cb28e3", "location": {"address": "3901 24th St", "census_block": "060750214003000", "country": "US", "cross_street": "", "dma": "San Francisco-Oakland-San Jose", "formatted_address": "3901 24th St, San Francisco, CA 94114", "locality": "San Francisco", "neighborhood": ["Castro"], "postcode": "94114", "region": "CA"}, "name": "Belgano", "related_places": {}, "timezone": "America/Los_Angeles"}, {"fsq_id": "4a99f3d1f964a5203a3120e3", "categories": [{"id": 13046, "name": "Ice Cream Parlor", "icon": {"prefix": "https://ss3.4sqi.net/img/categories_v2/food/icecream_", "suffix": ".png"}}], "chains": [], "distance": 151, "geocodes": {"main": {"latitude": 37.751419, "longitude": -122.429936}, "roof": {"latitude": 37.751419, "longitude": -122.429936}}, "link": "/v3/places/4a99f3d1f964a5203a3120e3", "location": {"address": "3901 24th St", "census_block": "060750214003000", "country": "US", "cross_street": "", "dma": "San Francisco-Oakland-San Jose", "formatted_address": "3901 24th St, San Francisco, CA 94114", "locality": "San Francisco", "neighborhood": ["Castro"], "postcode": "94114", "region": "CA"}, "name": "Tuttimelon", "related_places": {}, "timezone": "America/Los_Angeles"}, {"fsq_id": "5fd7c93cbef3de4f4f7b6262", "categories": [{"id": 13144, "name": "Falafel Restaurant", "icon": {"prefix": "https://ss3.4sqi.net/img/categories_v2/food/falafel_", "suffix": ".png"}}], "chains": [], "distance": 160, "geocodes": {"main": {"latitude": 37.751354, "longitude": -122.429932}, "roof": {"latitude": 37.751354, "longitude": -122.429932}}, "link": "/v3/places/5fd7c93cbef3de4f4f7b6262", "location": {"address": "3915 24th St", "census_block": "060750214003000", "country": "US", "cross_street": "Sanchez", "dma": "San Francisco-Oakland-San Jose", "formatted_address": "3915 24th St (Sanchez), San Francisco, CA 94114", "locality": "San Francisco", "neighborhood": ["Castro"], "postcode": "94114", "region": "CA"}, "name": "Mesopotamia Kitchen", "related_places": {}, "timezone": "America/Los_Angeles"}, {"fsq_id": "52eb356a11d25d3099a90011", "categories": [{"id": 13002, "name": "Bakery", "icon": {"prefix": "https://ss3.4sqi.net/img/categories_v2/food/bakery_", "suffix": ".png"}}, {"id": 13042, "name": "Cupcake Shop", "icon": {"prefix": "https://ss3.4sqi.net/img/categories_v2/food/cupcakes_", "suffix": ".png"}}], "chains": [], "distance": 176, "geocodes": {"main": {"latitude": 37.751376, "longitude": -122.428787}, "roof": {"latitude": 37.751376, "longitude": -122.428787}}, "link": "/v3/places/52eb356a11d25d3099a90011", "location": {"address": "3861 24th St", "census_block": "060750214001005", "country": "US", "cross_street": "Sanchez", "dma": "San Francisco-Oakland-San Jose", "formatted_address": "3861 24th St (Sanchez), San Francisco, CA 94114", "locality": "San Francisco", "neighborhood": ["Castro"], "postcode": "94114", "region": "CA"}, "name": "Le Dix-Sept", "related_places": {}, "timezone": "America/Los_Angeles"}, {"fsq_id": "594e9b8b2a7ab62b4a353606", "categories": [{"id": 13377, "name": "Vegan and Vegetarian Restaurant", "icon": {"prefix": "https://ss3.4sqi.net/img/categories_v2/food/vegetarian_", "suffix": ".png"}}], "chains": [], "distance": 198, "geocodes": {"main": {"latitude": 37.751756, "longitude": -122.428953}, "roof": {"latitude": 37.751756, "longitude": -122.428953}}, "link": "/v3/places/594e9b8b2a7ab62b4a353606", "location": {"address": "3870 24th St", "census_block": "060750211002008", "country": "US", "cross_street": "", "dma": "San Francisco-Oakland-San Jose", "formatted_address": "3870 24th St, San Francisco, CA 94114", "locality": "San Francisco", "neighborhood": ["Castro"], "postcode": "94114", "region": "CA"}, "name": "Urban Remedy", "related_places": {}, "timezone": "America/Los_Angeles"}, {"fsq_id": "4d72888cff6ba35d6fbb6f8a", "categories": [{"id": 13303, "name": "Mexican Restaurant", "icon": {"prefix": "https://ss3.4sqi.net/img/categories_v2/food/mexican_", "suffix": ".png"}}, {"id": 13388, "name": "Wings Joint", "icon": {"prefix": "https://ss3.4sqi.net/img/categories_v2/food/wings_", "suffix": ".png"}}], "chains": [], "distance": 199, "geocodes": {"main": {"latitude": 37.751479, "longitude": -122.428722}, "roof": {"latitude": 37.751479, "longitude": -122.428722}}, "link": "/v3/places/4d72888cff6ba35d6fbb6f8a", "location": {"address": "Noe Valley Farmers Market", "census_block": "060750214001005", "country": "US", "cross_street": "24th street", "dma": "San Francisco-Oakland-San Jose", "formatted_address": "Noe Valley Farmers Market (24th street), San Francisco, CA 94114", "locality": "San Francisco", "neighborhood": ["Castro"], "postcode": "94114", "region": "CA"}, "name": "El Buen Comer", "related_places": {}, "timezone": "America/Los_Angeles"}, {"fsq_id": "4e40b1f8b61cdcbed357f03a", "categories": [{"id": 13276, "name": "Sushi Restaurant", "icon": {"prefix": "https://ss3.4sqi.net/img/categories_v2/food/sushi_", "suffix": ".png"}}], "chains": [], "distance": 429, "geocodes": {"main": {"latitude": 37.747148, "longitude": -122.426817}, "roof": {"latitude": 37.747148, "longitude": -122.426817}}, "link": "/v3/places/4e40b1f8b61cdcbed357f03a", "location": {"address": "1497 Church St", "census_block": "060750215001002", "country": "US", "cross_street": "at 27th St", "dma": "San Francisco-Oakland-San Jose", "formatted_address": "1497 Church St (at 27th St), San Francisco, CA 94131", "locality": "San Francisco", "neighborhood": ["Noe Valley"], "postcode": "94131", "region": "CA"}, "name": "Kama Sushi", "related_places": {}, "timezone": "America/Los_Angeles"}, {"fsq_id": "62115053c5f3ef4f1b029c93", "categories": [{"id": 13028, "name": "Breakfast Spot", "icon": {"prefix": "https://ss3.4sqi.net/img/categories_v2/food/breakfast_", "suffix": ".png"}}], "chains": [], "distance": 249, "geocodes": {"main": {"latitude": 37.751397, "longitude": -122.432227}}, "link": "/v3/places/62115053c5f3ef4f1b029c93", "location": {"address": "4007 24th St", "country": "US", "cross_street": "", "dma": "San Francisco-Oakland-San Jose", "formatted_address": "4007 24th St, San Francisco, CA 94114", "locality": "San Francisco", "neighborhood": ["Dolores Heights"], "postcode": "94114", "region": "CA"}, "name": "Pancake Boy", "related_places": {}, "timezone": "America/Los_Angeles"}, {"fsq_id": "58589553c0df762a78850e75", "categories": [{"id": 13148, "name": "French Restaurant", "icon": {"prefix": "https://ss3.4sqi.net/img/categories_v2/food/french_", "suffix": ".png"}}], "chains": [], "distance": 314, "geocodes": {"main": {"latitude": 37.751195, "longitude": -122.433291}, "roof": {"latitude": 37.751195, "longitude": -122.433291}}, "link": "/v3/places/58589553c0df762a78850e75", "location": {"address": "4063 24th St", "census_block": "060750214003001", "country": "US", "cross_street": "", "dma": "San Francisco-Oakland-San Jose", "formatted_address": "4063 24th St, San Francisco, CA 94114", "locality": "San Francisco", "neighborhood": ["Dolores Heights"], "postcode": "94114", "region": "CA"}, "name": "Chez Marius", "related_places": {}, "timezone": "America/Los_Angeles"}, {"fsq_id": "5cc644e460d11b002c3b7e9c", "categories": [{"id": 13064, "name": "Pizzeria", "icon": {"prefix": "https://ss3.4sqi.net/img/categories_v2/food/pizza_", "suffix": ".png"}}], "chains": [], "distance": 286, "geocodes": {"main": {"latitude": 37.74897, "longitude": -122.426925}, "roof": {"latitude": 37.74897, "longitude": -122.426925}}, "link": "/v3/places/5cc644e460d11b002c3b7e9c", "location": {"address": "1361 Church St", "census_block": "060750214002006", "country": "US", "cross_street": "", "dma": "San Francisco-Oakland-San Jose", "formatted_address": "1361 Church St, San Francisco, CA 94114", "locality": "San Francisco", "neighborhood": ["Noe Valley"], "postcode": "94114", "region": "CA"}, "name": "Bernal Heights Pizzeria", "related_places": {}, "timezone": "America/Los_Angeles"}, {"fsq_id": "61425e20de54531607965711", "categories": [{"id": 13073, "name": "Australian Restaurant", "icon": {"prefix": "https://ss3.4sqi.net/img/categories_v2/food/australian_", "suffix": ".png"}}], "chains": [], "distance": 316, "geocodes": {"main": {"latitude": 37.751161, "longitude": -122.433236}}, "link": "/v3/places/61425e20de54531607965711", "location": {"address": "4063 24th St", "country": "US", "cross_street": "", "dma": "San Francisco-Oakland-San Jose", "formatted_address": "4063 24th St, San Francisco, CA 94114", "locality": "San Francisco", "neighborhood": ["Dolores Heights"], "postcode": "94114", "region": "CA"}, "name": "Village Rotisserie", "related_places": {}, "timezone": "America/Los_Angeles"}, {"fsq_id": "5d183efae324520023c2d799", "categories": [{"id": 13218, "name": "North Indian Restaurant", "icon": {"prefix": "https://ss3.4sqi.net/img/categories_v2/food/default_", "suffix": ".png"}}], "chains": [], "distance": 511, "geocodes": {"main": {"latitude": 37.751395, "longitude": -122.43538}, "roof": {"latitude": 37.751395, "longitude": -122.43538}}, "link": "/v3/places/5d183efae324520023c2d799", "location": {"address": "4166 24th St", "census_block": "060750212002008", "country": "US", "cross_street": "", "dma": "San Francisco-Oakland-San Jose", "formatted_address": "4166 24th St, San Francisco, CA 94114", "locality": "San Francisco", "neighborhood": ["Diamond Heights"], "postcode": "94114", "region": "CA"}, "name": "Bon Appetikka", "related_places": {}, "timezone": "America/Los_Angeles"}, {"fsq_id": "61ec66895d9050173a5e2fdd", "categories": [{"id": 13329, "name": "Russian Restaurant", "icon": {"prefix": "https://ss3.4sqi.net/img/categories_v2/food/russian_", "suffix": ".png"}}], "chains": [], "distance": 390, "geocodes": {"main": {"latitude": 37.750928, "longitude": -122.434262}}, "link": "/v3/places/61ec66895d9050173a5e2fdd", "location": {"address": "1320 Castro St", "country": "US", "cross_street": "", "dma": "San Francisco-Oakland-San Jose", "formatted_address": "1320 Castro St, San Francisco, CA 94114", "locality": "San Francisco", "neighborhood": ["Dolores Heights"], "postcode": "94114", "region": "CA"}, "name": "Birch & Rye", "related_places": {}, "timezone": "America/Los_Angeles"}, {"fsq_id": "4f329fac19836c91c7e9d74e", "categories": [{"id": 13065, "name": "Restaurant", "icon": {"prefix": "https://ss3.4sqi.net/img/categories_v2/food/default_", "suffix": ".png"}}], "chains": [], "distance": 401, "geocodes": {"main": {"latitude": 37.751184, "longitude": -122.434293}, "roof": {"latitude": 37.751184, "longitude": -122.434293}}, "link": "/v3/places/4f329fac19836c91c7e9d74e", "location": {"address": "1300 Castro St", "census_block": "060750213001000", "country": "US", "dma": "San Francisco-Oakland-San Jose", "formatted_address": "1300 Castro St, San Francisco, CA 94114", "locality": "San Francisco", "neighborhood": ["Diamond Heights"], "postcode": "94114", "region": "CA"}, "name": "Isabellas Ice Cream & Desserts", "related_places": {}, "timezone": "America/Los_Angeles"}, {"fsq_id": "eae4bafbd38844a82499b413", "categories": [{"id": 13065, "name": "Restaurant", "icon": {"prefix": "https://ss3.4sqi.net/img/categories_v2/food/default_", "suffix": ".png"}}], "chains": [], "distance": 145, "geocodes": {"main": {"latitude": 37.749532, "longitude": -122.431544}, "roof": {"latitude": 37.749532, "longitude": -122.431544}}, "link": "/v3/places/eae4bafbd38844a82499b413", "location": {"address": "1207 Noe St", "census_block": "060750214003004", "country": "US", "dma": "San Francisco-Oakland-San Jose", "formatted_address": "1207 Noe St, San Francisco, CA 94114", "locality": "San Francisco", "neighborhood": ["Noe Valley"], "postcode": "94114", "region": "CA"}, "name": "Castello Noe", "related_places": {}}, {"fsq_id": "7e8dfc02d3aa4955968498c6", "categories": [{"id": 13065, "name": "Restaurant", "icon": {"prefix": "https://ss3.4sqi.net/img/categories_v2/food/default_", "suffix": ".png"}}], "chains": [], "distance": 155, "geocodes": {"main": {"latitude": 37.751392, "longitude": -122.429863}, "roof": {"latitude": 37.751392, "longitude": -122.429863}}, "link": "/v3/places/7e8dfc02d3aa4955968498c6", "location": {"address": "3915 24th St", "census_block": "060750214003000", "country": "US", "dma": "San Francisco-Oakland-San Jose", "formatted_address": "3915 24th St, San Francisco, CA 94114", "locality": "San Francisco", "neighborhood": ["Castro"], "postcode": "94114", "region": "CA"}, "name": "Souper Stop", "related_places": {}}], "context": {"geo_bounds": {"circle": {"center": {"latitude": 37.75, "longitude": -122.43}, "radius": 500}}}}