{"results": [{"fsq_id": "5643ce76498ec3c226f039e3", "categories": [{"id": 13064, "name": "Pizzeria", "icon": {"prefix": "https://ss3.4sqi.net/img/categories_v2/food/pizza_", "suffix": ".png"}}, {"id": 13236, "name": "Italian Restaurant", "icon": {"prefix": "https://ss3.4sqi.net/img/categories_v2/food/italian_", "suffix": ".png"}}], "chains": [], "distance": 120, "geocodes": {"main": {"latitude": 37.789677, "longitude": -122.411344}}, "link": "/v3/places/5643ce76498ec3c226f039e3", "location": {"address": "855 Bush St", "country": "US", "cross_street": "btwn Taylor and Mason", "dma": "San Francisco-Oakland-San Jose", "formatted_address": "855 Bush St (btwn Taylor and Mason), San Francisco, CA 94108", "locality": "San Francisco", "neighborhood": ["Lower Nob Hill"], "postcode": "94108", "region": "CA"}, "name": "Del Popolo", "related_places": {}, "timezone": "America/Los_Angeles"}, {"fsq_id": "577709b1498ec87e7dcdb1f8", "categories": [{"id": 13289, "name": "Korean Restaurant", "icon": {"prefix": "https://ss3.4sqi.net/img/categories_v2/food/korean_", "suffix": ".png"}}, {"id": 13303, "name": "Mexican Restaurant", "icon": {"prefix": "https://ss3.4sqi.net/img/categories_v2/food/mexican_", "suffix": ".png"}}], "chains": [], "distance": 74, "geocodes": {"main": {"latitude": 37.789677, "longitude": -122.410695}, "roof": {"latitude": 37.789677, "longitude": -122.410695}}, "link": "/v3/places/577709b1498ec87e7dcdb1f8", "location": {"address": "809 Bush St", "census_block": "060750121001001", "country": "US", "cross_street": "at Mason St", "dma": "San Francisco-Oakland-San Jose", "formatted_address": "809 Bush St (at Mason St), San Francisco, CA 94108", "locality": "San Francisco", "neighborhood": ["Union Square"], "postcode": "94108", "region": "CA"}, "name": "Tacorea", "related_places": {}, "timezone": "America/Los_Angeles"}, {"fsq_id": "5ee86e872d054d0007d1ac2f", "categories": [{"id": 13034, "name": "Caf\u00e9", "icon": {"prefix": "https://ss3.4sqi.net/img/categories_v2/food/cafe_", "suffix": ".png"}}, {"id": 13035, "name": "Coffee Shop", "icon": {"prefix": "https://ss3.4sqi.net/img/categories_v2/food/coffeeshop_", "suffix": ".png"}}, {"id": 13334, "name": "Sandwich Restaurant", "icon": {"prefix": "https://ss3.4sqi.net/img/categories_v2/food/deli_", "suffix": ".png"}}], "chains": [], "distance": 67, "geocodes": {"main": {"latitude": 37.790252, "longitude": -122.409152}, "roof": {"latitude": 37.790252, "longitude": -122.409152}}, "link": "/v3/places/5ee86e872d054d0007d1ac2f", "location": {"address": "724 Bush St", "census_block": "060750119022000", "country": "US", "cross_street": "", "dma": "San Francisco-Oakland-San Jose", "formatted_address": "724 Bush St, San Francisco, CA 94108", "locality": "San Francisco", "neighborhood": ["Chinatown"], "postcode": "94108", "region": "CA"}, "name": "Beanstalk Cafe", "related_places": {}, "timezone": "America/Los_Angeles"}, {"fsq_id": "4bb79b31314e95217664479d", "categories": [{"id": 13035, "name": "Coffee Shop", "icon": {"prefix": "https://ss3.4sqi.net/img/categories_v2/food/coffeeshop_", "suffix": ".png"}}, {"id": 13334, "name": "Sandwich Restaurant", "icon": {"prefix": "https://ss3.4sqi.net/img/categories_v2/food/deli_", "suffix": ".png"}}, {"id": 13379, "name": "Vietnamese Restaurant", "icon": {"prefix": "https://ss3.4sqi.net/img/categories_v2/food/vietnamese_", "suffix": ".png"}}], "chains": [], "distance": 157, "geocodes": {"main": {"latitude": 37.789877, "longitude": -122.411926}, "roof": {"latitude": 37.789877, "longitude": -122.411926}}, "link": "/v3/places/4bb79b31314e95217664479d", "location": {"address": "882 Bush St", "census_block": "060750119022001", "country": "US", "cross_street": "at Taylor St", "dma": "San Francisco-Oakland-San Jose", "formatted_address": "882 Bush St (at Taylor St), San Francisco, CA 94108", "locality": "San Francisco", "neighborhood": ["French Quarter"], "postcode": "94108", "region": "CA"}, "name": "Fresh Brew Coffee", "related_places": {}, "timezone": "America/Los_Angeles"}, {"fsq_id": "5caee35333e118002b235b71", "categories": [{"id": 13003, "name": "Bar", "icon": {"prefix": "https://ss3.4sqi.net/img/categories_v2/nightlife/pub_", "suffix": ".png"}}, {"id": 13065, "name": "Restaurant", "icon": {"prefix": "https://ss3.4sqi.net/img/categories_v2/food/default_", "suffix": ".png"}}], "chains": [], "distance": 224, "geocodes": {"main": {"latitude": 37.789443, "longitude": -122.412473}, "roof": {"latitude": 37.789443, "longitude": -122.412473}}, "link": "/v3/places/5caee35333e118002b235b71", "location": {"address": "925 Bush St", "census_block": "060750121002000", "country": "US", "cross_street": "Taylor St", "dma": "San Francisco-Oakland-San Jose", "formatted_address": "925 Bush St (Taylor St), San Francisco, CA 94109", "locality": "San Francisco", "neighborhood": ["Little Saigon"], "postcode": "94109", "region": "CA"}, "name": "Peacekeeper", "related_places": {}, "timezone": "America/Los_Angeles"}, {"fsq_id": "44931d76f964a5207b341fe3", "categories": [{"id": 13148, "name": "French Restaurant", "icon": {"prefix": "https://ss3.4sqi.net/img/categories_v2/food/french_", "suffix": ".png"}}], "chains": [], "distance": 121, "geocodes": {"main": {"latitude": 37.79107, "longitude": -122.410849}, "roof": {"latitude": 37.79107, "longitude": -122.410849}}, "link": "/v3/places/44931d76f964a5207b341fe3", "location": {"address": "900 Pine St", "census_block": "060750119021003", "country": "US", "cross_street": "", "dma": "San Francisco-Oakland-San Jose", "formatted_address": "900 Pine St, San Francisco, CA 94108", "locality": "San Francisco", "neighborhood": ["Chinatown"], "postcode": "94108", "region": "CA"}, "name": "Rue Lepic", "related_places": {}, "timezone": "America/Los_Angeles"}, {"fsq_id": "4698fe39f964a520f9481fe3", "categories": [{"id": 13065, "name": "Restaurant", "icon": {"prefix": "https://ss3.4sqi.net/img/categories_v2/food/default_", "suffix": ".png"}}], "chains": [], "distance": 266, "geocodes": {"main": {"latitude": 37.792506, "longitude": -122.410432}, "roof": {"latitude": 37.792506, "longitude": -122.410432}}, "link": "/v3/places/4698fe39f964a520f9481fe3", "location": {"address": "950 Mason St", "census_block": "060750112002001", "country": "US", "cross_street": "at California St", "dma": "San Francisco-Oakland-San Jose", "formatted_address": "950 Mason St (at California St), San Francisco, CA 94108", "locality": "San Francisco", "neighborhood": ["Chinatown"], "postcode": "94108", "region": "CA"}, "name": "The Fairmont San Francisco", "related_places": {"children": []}, "timezone": "America/Los_Angeles"}, {"fsq_id": "54024696498e2fef352d2586", "categories": [{"id": 13033, "name": "Bubble Tea Shop", "icon": {"prefix": "https://ss3.4sqi.net/img/categories_v2/food/bubble_", "suffix": ".png"}}, {"id": 13035, "name": "Coffee Shop", "icon": {"prefix": "https://ss3.4sqi.net/img/categories_v2/food/coffeeshop_", "suffix": ".png"}}, {"id": 13065, "name": "Restaurant", "icon": {"prefix": "https://ss3.4sqi.net/img/categories_v2/food/default_", "suffix": ".png"}}], "chains": [], "distance": 256, "geocodes": {"main": {"latitude": 37.789873, "longitude": -122.407265}, "roof": {"latitude": 37.789873, "longitude": -122.407265}}, "link": "/v3/places/54024696498e2fef352d2586", "location": {"address": "429 Stockton St", "census_block": "060750117004008", "country": "US", "cross_street": "", "dma": "San Francisco-Oakland-San Jose", "formatted_address": "429 Stockton St, San Francisco, CA 94108", "locality": "San Francisco", "neighborhood": ["Chinatown"], "postcode": "94108", "region": "CA"}, "name": "Boba Guys", "related_places": {}, "timezone": "America/Los_Angeles"}, {"fsq_id": "433c8000f964a52043281fe3", "categories": [{"id": 13276, "name": "Sushi Restaurant", "icon": {"prefix": "https://ss3.4sqi.net/img/categories_v2/food/sushi_", "suffix": ".png"}}, {"id": 13338, "name": "Seafood Restaurant", "icon": {"prefix": "https://ss3.4sqi.net/img/categories_v2/food/seafood_", "suffix": ".png"}}], "chains": [], "distance": 260, "geocodes": {"main": {"latitude": 37.788018, "longitude": -122.411888}, "roof": {"latitude": 37.788018, "longitude": -122.411888}}, "link": "/v3/places/433c8000f964a52043281fe3", "location": {"address": "619 Taylor St", "census_block": "060750121003000", "country": "US", "cross_street": "at Cosmo Pl", "dma": "San Francisco-Oakland-San Jose", "formatted_address": "619 Taylor St (at Cosmo Pl), San Francisco, CA 94102", "locality": "San Francisco", "neighborhood": ["Little Saigon"], "postcode": "94102", "region": "CA"}, "name": "Ryoko's Japanese Restaurant & Bar", "related_places": {}, "timezone": "America/Los_Angeles"}, {"fsq_id": "46ab3257f964a5206a491fe3", "categories": [{"id": 13009, "name": "Cocktail Bar", "icon": {"prefix": "https://ss3.4sqi.net/img/categories_v2/nightlife/cocktails_", "suffix": ".png"}}, {"id": 13065, "name": "Restaurant", "icon": {"prefix": "https://ss3.4sqi.net/img/categories_v2/food/default_", "suffix": ".png"}}], "chains": [], "distance": 91, "geocodes": {"main": {"latitude": 37.789222, "longitude": -122.409808}, "roof": {"latitude": 37.789222, "longitude": -122.409808}}, "link": "/v3/places/46ab3257f964a5206a491fe3", "location": {"address": "580 Sutter St", "census_block": "060750121001000", "country": "US", "cross_street": "btwn Mason St & Powell St", "dma": "San Francisco-Oakland-San Jose", "formatted_address": "580 Sutter St (btwn Mason St & Powell St), San Francisco, CA 94102", "locality": "San Francisco", "neighborhood": ["Union Square"], "postcode": "94102", "region": "CA"}, "name": "Pacific Cocktail Haven", "related_places": {"children": []}, "timezone": "America/Los_Angeles"}, {"fsq_id": "4ae269baf964a520248e21e3", "categories": [{"id": 10037, "name": "Concert Hall", "icon": {"prefix": "https://ss3.4sqi.net/img/categories_v2/arts_entertainment/musicvenue_", "suffix": ".png"}}, {"id": 13065, "name": "Restaurant", "icon": {"prefix": "https://ss3.4sqi.net/img/categories_v2/food/default_", "suffix": ".png"}}], "chains": [], "distance": 296, "geocodes": {"main": {"latitude": 37.791296, "longitude": -122.413013}, "roof": {"latitude": 37.791296, "longitude": -122.413013}}, "link": "/v3/places/4ae269baf964a520248e21e3", "location": {"address": "1111 California St", "census_block": "060750119012000", "country": "US", "cross_street": "btwn Jones & Taylor", "dma": "San Francisco-Oakland-San Jose", "formatted_address": "1111 California St (btwn Jones & Taylor), San Francisco, CA 94108", "locality": "San Francisco", "neighborhood": ["French Quarter"], "postcode": "94108", "region": "CA"}, "name": "The Masonic", "related_places": {"children": []}, "timezone": "America/Los_Angeles"}, {"fsq_id": "54b2ebab498e6ffea5742919", "categories": [{"id": 13009, "name": "Cocktail Bar", "icon": {"prefix": "https://ss3.4sqi.net/img/categories_v2/nightlife/cocktails_", "suffix": ".png"}}, {"id": 13016, "name": "Lounge", "icon": {"prefix": "https://ss3.4sqi.net/img/categories_v2/nightlife/default_", "suffix": ".png"}}, {"id": 13065, "name": "Restaurant", "icon": {"prefix": "https://ss3.4sqi.net/img/categories_v2/food/default_", "suffix": ".png"}}], "chains": [], "distance": 182, "geocodes": {"main": {"latitude": 37.789627, "longitude": -122.411767}, "roof": {"latitude": 37.789627, "longitude": -122.411767}}, "link": "/v3/places/54b2ebab498e6ffea5742919", "location": {"address": "895 Bush St", "census_block": "060750121001001", "country": "US", "cross_street": "", "dma": "San Francisco-Oakland-San Jose", "formatted_address": "895 Bush St, San Francisco, CA 94108", "locality": "San Francisco", "neighborhood": ["Lower Nob Hill"], "postcode": "94108", "region": "CA"}, "name": "Stookey's Club Moderne", "related_places": {}, "timezone": "America/Los_Angeles"}, {"fsq_id": "40dcbc80f964a52085011fe3", "categories": [{"id": 13065, "name": "Restaurant", "icon": {"prefix": "https://ss3.4sqi.net/img/categories_v2/food/default_", "suffix": ".png"}}], "chains": [], "distance": 287, "geocodes": {"main": {"latitude": 37.78831, "longitude": -122.412335}, "roof": {"latitude": 37.78831, "longitude": -122.412335}}, "link": "/v3/places/40dcbc80f964a52085011fe3", "location": {"address": "20 Cosmo Pl", "address_extended": "# 6413", "census_block": "060750121003000", "country": "US", "cross_street": "btwn Jones & Taylor St", "dma": "San Francisco-Oakland-San Jose", "formatted_address": "20 Cosmo Pl (btwn Jones & Taylor St), San Francisco, CA 94109", "locality": "San Francisco", "neighborhood": ["Little Saigon"], "postcode": "94109", "region": "CA"}, "name": "Le Colonial", "related_places": {"children": [{"fsq_id": "5a92513846e1b651c88fa983", "name": "721 Lounge"}]}, "timezone": "America/Los_Angeles"}, {"fsq_id": "408aff80f964a520c1f21ee3", "categories": [{"id": 13009, "name": "Cocktail Bar", "icon": {"prefix": "https://ss3.4sqi.net/img/categories_v2/nightlife/cocktails_", "suffix": ".png"}}, {"id": 13010, "name": "Dive Bar", "icon": {"prefix": "https://ss3.4sqi.net/img/categories_v2/nightlife/divebar_", "suffix": ".png"}}, {"id": 13065, "name": "Restaurant", "icon": {"prefix": "https://ss3.4sqi.net/img/categories_v2/food/default_", "suffix": ".png"}}], "chains": [], "distance": 244, "geocodes": {"main": {"latitude": 37.790133, "longitude": -122.407281}, "roof": {"latitude": 37.790133, "longitude": -122.407281}}, "link": "/v3/places/408aff80f964a520c1f21ee3", "location": {"address": "601 Bush St", "census_block": "060750117004008", "country": "US", "cross_street": "at Stockton St", "dma": "San Francisco-Oakland-San Jose", "formatted_address": "601 Bush St (at Stockton St), San Francisco, CA 94108", "locality": "San Francisco", "neighborhood": ["Chinatown"], "postcode": "94108", "region": "CA"}, "name": "Tunnel Top", "related_places": {}, "timezone": "America/Los_Angeles"}, {"fsq_id": "50ec753be4b02d8f19bea0ef", "categories": [{"id": 13025, "name": "Wine Bar", "icon": {"prefix": "https://ss3.4sqi.net/img/categories_v2/food/winery_", "suffix": ".png"}}, {"id": 13068, "name": "American Restaurant", "icon": {"prefix": "https://ss3.4sqi.net/img/categories_v2/food/default_", "suffix": ".png"}}, {"id": 13387, "name": "Winery", "icon": {"prefix": "https://ss3.4sqi.net/img/categories_v2/food/winery_", "suffix": ".png"}}], "chains": [], "distance": 314, "geocodes": {"main": {"latitude": 37.787439, "longitude": -122.408771}, "roof": {"latitude": 37.787439, "longitude": -122.408771}}, "link": "/v3/places/50ec753be4b02d8f19bea0ef", "location": {"address": "320 Geary St", "census_block": "060750123023000", "country": "US", "cross_street": "", "dma": "San Francisco-Oakland-San Jose", "formatted_address": "320 Geary St, San Francisco, CA 94102", "locality": "San Francisco", "neighborhood": ["Civic Center"], "postcode": "94102", "region": "CA"}, "name": "Eno Wine Bar", "related_places": {}, "timezone": "America/Los_Angeles"}, {"fsq_id": "51eb56cf498e1965d411fc1e", "categories": [{"id": 13065, "name": "Restaurant", "icon": {"prefix": "https://ss3.4sqi.net/img/categories_v2/food/default_", "suffix": ".png"}}], "chains": [], "distance": 23, "geocodes": {"main": {"latitude": 37.790111, "longitude": -122.410147}, "roof": {"latitude": 37.790111, "longitude": -122.410147}}, "link": "/v3/places/51eb56cf498e1965d411fc1e", "location": {"address": "786 Bush St", "census_block": "060750119022000", "country": "US", "cross_street": "at Mason St", "dma": "San Francisco-Oakland-San Jose", "formatted_address": "786 Bush St (at Mason St), San Francisco, CA 94108", "locality": "San Francisco", "neighborhood": ["Chinatown"], "postcode": "94108", "region": "CA"}, "name": "Aliment", "related_places": {}, "timezone": "America/Los_Angeles"}, {"fsq_id": "5b92f6a135d3fc002c950444", "categories": [{"id": 13033, "name": "Bubble Tea Shop", "icon": {"prefix": "https://ss3.4sqi.net/img/categories_v2/food/bubble_", "suffix": ".png"}}, {"id": 13036, "name": "Tea Room", "icon": {"prefix": "https://ss3.4sqi.net/img/categories_v2/food/tearoom_", "suffix": ".png"}}, {"id": 13065, "name": "Restaurant", "icon": {"prefix": "https://ss3.4sqi.net/img/categories_v2/food/default_", "suffix": ".png"}}], "chains": [], "distance": 429, "geocodes": {"main": {"latitude": 37.786278, "longitude": -122.410279}, "roof": {"latitude": 37.786278, "longitude": -122.410279}}, "link": "/v3/places/5b92f6a135d3fc002c950444", "location": {"address": "320 Ofarrell St", "census_block": "060750123013001", "country": "US", "cross_street": "Mason St.", "dma": "San Francisco-Oakland-San Jose", "formatted_address": "320 Ofarrell St (Mason St.), San Francisco, CA 94102", "locality": "San Francisco", "neighborhood": ["Civic Center"], "postcode": "94102", "region": "CA"}, "name": "Black Sugar", "related_places": {}, "timezone": "America/Los_Angeles"}, {"fsq_id": "43582f80f964a520e4281fe3", "categories": [{"id": 13016, "name": "Lounge", "icon": {"prefix": "https://ss3.4sqi.net/img/categories_v2/nightlife/default_", "suffix": ".png"}}, {"id": 13314, "name": "New American Restaurant", "icon": {"prefix": "https://ss3.4sqi.net/img/categories_v2/food/newamerican_", "suffix": ".png"}}, {"id": 13334, "name": "Sandwich Restaurant", "icon": {"prefix": "https://ss3.4sqi.net/img/categories_v2/food/deli_", "suffix": ".png"}}], "chains": [], "distance": 175, "geocodes": {"main": {"latitude": 37.791558, "longitude": -122.410448}, "roof": {"latitude": 37.791558, "longitude": -122.410448}}, "link": "/v3/places/43582f80f964a520e4281fe3", "location": {"address": "999 California St", "address_extended": "Fl 19", "census_block": "060750119021002", "country": "US", "cross_street": "inside the Intercontinental Mark Hopkins Hotel", "dma": "San Francisco-Oakland-San Jose", "formatted_address": "999 California St (inside the Intercontinental Mark Hopkins Hotel), San Francisco, CA 94108", "locality": "San Francisco", "neighborhood": ["Chinatown"], "postcode": "94108", "region": "CA"}, "name": "Top of the Mark", "related_places": {"parent": {"fsq_id": "4a3ef906f964a5209ba31fe3", "name": "InterContinental Mark Hopkins"}}, "timezone": "America/Los_Angeles"}, {"fsq_id": "465c2776f964a5202d471fe3", "categories": [{"id": 13068, "name": "American Restaurant", "icon": {"prefix": "https://ss3.4sqi.net/img/categories_v2/food/default_", "suffix": ".png"}}], "chains": [], "distance": 179, "geocodes": {"main": {"latitude": 37.788686, "longitude": -122.408701}, "roof": {"latitude": 37.788686, "longitude": -122.408701}}, "link": "/v3/places/465c2776f964a5202d471fe3", "location": {"address": "439 Powell St", "census_block": "060750121001003", "country": "US", "cross_street": "btwn Sutter & Post", "dma": "San Francisco-Oakland-San Jose", "formatted_address": "439 Powell St (btwn Sutter & Post), San Francisco, CA 94102", "locality": "San Francisco", "neighborhood": ["Chinatown"], "postcode": "94102", "region": "CA"}, "name": "Sears Fine Food", "related_places": {}, "timezone": "America/Los_Angeles"}, {"fsq_id": "5c43e66660255e002c0e1ce6", "categories": [{"id": 13064, "name": "Pizzeria", "icon": {"prefix": "https://ss3.4sqi.net/img/categories_v2/food/pizza_", "suffix": ".png"}}, {"id": 13236, "name": "Italian Restaurant", "icon": {"prefix": "https://ss3.4sqi.net/img/categories_v2/food/italian_", "suffix": ".png"}}], "chains": [], "distance": 429, "geocodes": {"main": {"latitude": 37.793123, "longitude": -122.412619}, "roof": {"latitude": 37.793123, "longitude": -122.412619}}, "link": "/v3/places/5c43e66660255e002c0e1ce6", "location": {"address": "1152 Taylor St", "census_block": "060750112004001", "country": "US", "cross_street": "Taylor And Clay", "dma": "San Francisco-Oakland-San Jose", "formatted_address": "1152 Taylor St (Taylor And Clay), San Francisco, CA 94108", "locality": "San Francisco", "neighborhood": ["Chinatown"], "postcode": "94108", "region": "CA"}, "name": "Nob Hill Cafe", "related_places": {}, "timezone": "America/Los_Angeles"}, {"fsq_id": "49e7e380f964a52027651fe3", "categories": [{"id": 13276, "name": "Sushi Restaurant", "icon": {"prefix": "https://ss3.4sqi.net/img/categories_v2/food/sushi_", "suffix": ".png"}}], "chains": [], "distance": 474, "geocodes": {"main": {"latitude": 37.790536, "longitude": -122.40458}, "roof": {"latitude": 37.790536, "longitude": -122.40458}}, "link": "/v3/places/49e7e380f964a52027651fe3", "location": {"address": "431 Bush St", "address_extended": "btw Claude Ln  Mark Ln", "census_block": "060750117004005", "country": "US", "cross_street": "at Mark Ln.", "dma": "San Francisco-Oakland-San Jose", "formatted_address": "431 Bush St (at Mark Ln.), San Francisco, CA 94108", "locality": "San Francisco", "neighborhood": ["Chinatown"], "postcode": "94108", "region": "CA"}, "name": "Akiko's Restaurant", "related_places": {}, "timezone": "America/Los_Angeles"}, {"fsq_id": "53e4393b498ee0a807b335a3", "categories": [{"id": 13099, "name": "Chinese Restaurant", "icon": {"prefix": "https://ss3.4sqi.net/img/categories_v2/food/asian_", "suffix": ".png"}}, {"id": 13196, "name": "Hotpot Restaurant", "icon": {"prefix": "https://ss3.4sqi.net/img/categories_v2/food/asian_", "suffix": ".png"}}, {"id": 13312, "name": "Mongolian Restaurant", "icon": {"prefix": "https://ss3.4sqi.net/img/categories_v2/food/mongolian_", "suffix": ".png"}}], "chains": [], "distance": 293, "geocodes": {"main": {"latitude": 37.787238, "longitude": -122.410121}, "roof": {"latitude": 37.787238, "longitude": -122.410121}}, "link": "/v3/places/53e4393b498ee0a807b335a3", "location": {"address": "405 Mason St", "census_block": "060750123023001", "country": "US", "cross_street": "at Geary St", "dma": "San Francisco-Oakland-San Jose", "formatted_address": "405 Mason St (at Geary St), San Francisco, CA 94102", "locality": "San Francisco", "neighborhood": ["Civic Center"], "postcode": "94102", "region": "CA"}, "name": "Little Sheep Mongolian Hot Pot", "related_places": {}, "timezone": "America/Los_Angeles"}, {"fsq_id": "4a960947f964a520de2520e3", "categories": [{"id": 13289, "name": "Korean Restaurant", "icon": {"prefix": "https://ss3.4sqi.net/img/categories_v2/food/korean_", "suffix": ".png"}}], "chains": [], "distance": 298, "geocodes": {"main": {"latitude": 37.78763, "longitude": -122.41152}}, "link": "/v3/places/4a960947f964a520de2520e3", "location": {"address": "550 Taylor St", "country": "US", "cross_street": "at Post St", "dma": "San Francisco-Oakland-San Jose", "formatted_address": "550 Taylor St (at Post St), San Francisco, CA 94102", "locality": "San Francisco", "neighborhood": ["NOMA"], "postcode": "94102", "region": "CA"}, "name": "Cocobang", "related_places": {}, "timezone": "America/Los_Angeles"}, {"fsq_id": "5d8a6ebe422f4000087ed27e", "categories": [{"id": 13035, "name": "Coffee Shop", "icon": {"prefix": "https://ss3.4sqi.net/img/categories_v2/food/coffeeshop_", "suffix": ".png"}}], "chains": [], "distance": 388, "geocodes": {"main": {"latitude": 37.791153, "longitude": -122.405907}, "roof": {"latitude": 37.791153, "longitude": -122.405907}}, "link": "/v3/places/5d8a6ebe422f4000087ed27e", "location": {"address": "455 Grant Ave", "census_block": "060750117001003", "country": "US", "cross_street": "", "dma": "San Francisco-Oakland-San Jose", "formatted_address": "455 Grant Ave, San Francisco, CA 94108", "locality": "San Francisco", "neighborhood": ["Chinatown"], "postcode": "94108", "region": "CA"}, "name": "Home", "related_places": {}, "timezone": "America/Los_Angeles"}, {"fsq_id": "469019cbf964a5209f481fe3", "categories": [{"id": 13068, "name": "American Restaurant", "icon": {"prefix": "https://ss3.4sqi.net/img/categories_v2/food/default_", "suffix": ".png"}}], "chains": [{"id": "f70506f7-aadd-42b9-8aa8-6c8c498f8471", "name": "The Cheesecake Factory"}], "distance": 369, "geocodes": {"main": {"latitude": 37.787304, "longitude": -122.407544}, "roof": {"latitude": 37.787304, "longitude": -122.407544}}, "link": "/v3/places/469019cbf964a5209f481fe3", "location": {"address": "251 Geary St", "address_extended": "Fl 8", "census_block": "060750117003012", "country": "US", "cross_street": "btwn Powell St & Stockton St", "dma": "San Francisco-Oakland-San Jose", "formatted_address": "251 Geary St (btwn Powell St & Stockton St), San Francisco, CA 94102", "locality": "San Francisco", "neighborhood": ["Chinatown"], "postcode": "94102", "region": "CA"}, "name": "The Cheesecake Factory", "related_places": {"parent": {"fsq_id": "43f8404cf964a520c22f1fe3", "name": "Macy's"}}, "timezone": "America/Los_Angeles"}, {"fsq_id": "4ede788b9adfe5cbe3f0aecf", "categories": [{"id": 13068, "name": "American Restaurant", "icon": {"prefix": "https://ss3.4sqi.net/img/categories_v2/food/default_", "suffix": ".png"}}], "chains": [{"id": "c4a6ee4c-28f5-4cea-972e-37b57852cd5f", "name": "Marriott Hotels & Resorts"}], "distance": 341, "geocodes": {"main": {"latitude": 37.791873, "longitude": -122.407168}, "roof": {"latitude": 37.791873, "longitude": -122.407168}}, "link": "/v3/places/4ede788b9adfe5cbe3f0aecf", "location": {"address": "600 Stockton St", "census_block": "060750117001002", "country": "US", "cross_street": "California Street", "dma": "San Francisco-Oakland-San Jose", "formatted_address": "600 Stockton St (California Street), San Francisco, CA 94108", "locality": "San Francisco", "neighborhood": ["Chinatown"], "postcode": "94108", "region": "CA"}, "name": "Parallel 37", "related_places": {"parent": {"fsq_id": "4857c24bf964a520bd501fe3", "name": "The Ritz-Carlton Club"}}, "timezone": "America/Los_Angeles"}, {"fsq_id": "4a671dbaf964a520edc81fe3", "categories": [{"id": 13031, "name": "Burger Joint", "icon": {"prefix": "https://ss3.4sqi.net/img/categories_v2/food/burger_", "suffix": ".png"}}, {"id": 13035, "name": "Coffee Shop", "icon": {"prefix": "https://ss3.4sqi.net/img/categories_v2/food/coffeeshop_", "suffix": ".png"}}, {"id": 13068, "name": "American Restaurant", "icon": {"prefix": "https://ss3.4sqi.net/img/categories_v2/food/default_", "suffix": ".png"}}], "chains": [], "distance": 491, "geocodes": {"main": {"latitude": 37.785763, "longitude": -122.411468}, "roof": {"latitude": 37.785763, "longitude": -122.411468}}, "link": "/v3/places/4a671dbaf964a520edc81fe3", "location": {"address": "375 Taylor St", "census_block": "060750123012000", "country": "US", "cross_street": "at O'Farrell", "dma": "San Francisco-Oakland-San Jose", "formatted_address": "375 Taylor St (at O'Farrell), San Francisco, CA 94102", "locality": "San Francisco", "neighborhood": ["NOMA"], "postcode": "94102", "region": "CA"}, "name": "Taylor Street Coffee Shop", "related_places": {}, "timezone": "America/Los_Angeles"}, {"fsq_id": "5a9c4ec9c58ed74fd59216e3", "categories": [{"id": 13065, "name": "Restaurant", "icon": {"prefix": "https://ss3.4sqi.net/img/categories_v2/food/default_", "suffix": ".png"}}], "chains": [], "distance": 390, "geocodes": {"main": {"latitude": 37.787823, "longitude": -122.413206}}, "link": "/v3/places/5a9c4ec9c58ed74fd59216e3", "location": {"address": "698 Post St", "country": "US", "cross_street": "at Jones St", "dma": "San Francisco-Oakland-San Jose", "formatted_address": "698 Post St (at Jones St), San Francisco, CA 94109", "locality": "San Francisco", "neighborhood": ["Little Saigon"], "postcode": "94109", "region": "CA"}, "name": "Lapisara Eatery", "related_places": {}, "timezone": "America/Los_Angeles"}, {"fsq_id": "49dad117f964a520b65e1fe3", "categories": [{"id": 13041, "name": "Creperie", "icon": {"prefix": "https://ss3.4sqi.net/img/categories_v2/food/creperie_", "suffix": ".png"}}, {"id": 13068, "name": "American Restaurant", "icon": {"prefix": "https://ss3.4sqi.net/img/categories_v2/food/default_", "suffix": ".png"}}, {"id": 13145, "name": "Fast Food Restaurant", "icon": {"prefix": "https://ss3.4sqi.net/img/categories_v2/food/fastfood_", "suffix": ".png"}}], "chains": [], "distance": 278, "geocodes": {"main": {"latitude": 37.787763, "longitude": -122.411371}, "roof": {"latitude": 37.787763, "longitude": -122.411371}}, "link": "/v3/places/49dad117f964a520b65e1fe3", "location": {"address": "599 Post St", "address_extended": "# 1228", "census_block": "060750123023001", "country": "US", "cross_street": "at Taylor St.", "dma": "San Francisco-Oakland-San Jose", "formatted_address": "599 Post St (at Taylor St.), San Francisco, CA 94102", "locality": "San Francisco", "neighborhood": ["Little Saigon"], "postcode": "94102", "region": "CA"}, "name": "Honey Honey Cafe & Crepery", "related_places": {"children": [{"fsq_id": "5d608519f9e1180008c1c857", "name": "Tiki Bob Pillar"}]}, "timezone": "America/Los_Angeles"}, {"fsq_id": "4e4c7fdbbd413c4cc669d6d8", "categories": [{"id": 13034, "name": "Caf\u00e9", "icon": {"prefix": "https://ss3.4sqi.net/img/categories_v2/food/cafe_", "suffix": ".png"}}, {"id": 13065, "name": "Restaurant", "icon": {"prefix": "https://ss3.4sqi.net/img/categories_v2/food/default_", "suffix": ".png"}}], "chains": [], "distance": 440, "geocodes": {"main": {"latitude": 37.787326, "longitude": -122.406288}}, "link": "/v3/places/4e4c7fdbbd413c4cc669d6d8", "location": {"address": "150 Stockton St", "country": "US", "cross_street": "at Geary St", "dma": "San Francisco-Oakland-San Jose", "formatted_address": "150 Stockton St (at Geary St), San Francisco, CA 94108", "locality": "San Francisco", "neighborhood": ["Chinatown"], "postcode": "94108", "region": "CA"}, "name": "The Rotunda at Neiman Marcus", "related_places": {"parent": {"fsq_id": "4356de00f964a520d4281fe3", "name": "Neiman Marcus"}}, "timezone": "America/Los_Angeles"}, {"fsq_id": "5171f863feac2a8ccb5ce497", "categories": [{"id": 10039, "name": "Music Venue", "icon": {"prefix": "https://ss3.4sqi.net/img/categories_v2/arts_entertainment/musicvenue_", "suffix": ".png"}}, {"id": 13003, "name": "Bar", "icon": {"prefix": "https://ss3.4sqi.net/img/categories_v2/nightlife/pub_", "suffix": ".png"}}], "chains": [], "distance": 506, "geocodes": {"main": {"latitude": 37.785574, "longitude": -122.409234}, "roof": {"latitude": 37.785574, "longitude": -122.409234}}, "link": "/v3/places/5171f863feac2a8ccb5ce497", "location": {"address": "222 Mason St", "census_block": "060750123013003", "country": "US", "cross_street": "", "dma": "San Francisco-Oakland-San Jose", "formatted_address": "222 Mason St, San Francisco, CA 94102", "locality": "San Francisco", "neighborhood": ["Civic Center"], "postcode": "94102", "region": "CA"}, "name": "Feinstein's at the Nikko", "related_places": {}, "timezone": "America/Los_Angeles"}, {"fsq_id": "4bb0e669f964a52035683ce3", "categories": [{"id": 13034, "name": "Caf\u00e9", "icon": {"prefix": "https://ss3.4sqi.net/img/categories_v2/food/cafe_", "suffix": ".png"}}, {"id": 13068, "name": "American Restaurant", "icon": {"prefix": "https://ss3.4sqi.net/img/categories_v2/food/default_", "suffix": ".png"}}, {"id": 13236, "name": "Italian Restaurant", "icon": {"prefix": "https://ss3.4sqi.net/img/categories_v2/food/italian_", "suffix": ".png"}}], "chains": [], "distance": 116, "geocodes": {"main": {"latitude": 37.789932, "longitude": -122.408631}, "roof": {"latitude": 37.789932, "longitude": -122.408631}}, "link": "/v3/places/4bb0e669f964a52035683ce3", "location": {"address": "570 Powell St", "census_block": "060750117004008", "country": "US", "cross_street": "at Bush St.", "dma": "San Francisco-Oakland-San Jose", "formatted_address": "570 Powell St (at Bush St.), San Francisco, CA 94108", "locality": "San Francisco", "neighborhood": ["Chinatown"], "postcode": "94108", "region": "CA"}, "name": "Roxanne Cafe", "related_places": {}, "timezone": "America/Los_Angeles"}, {"fsq_id": "4c53307e4623be9a0a0db5f0", "categories": [{"id": 13009, "name": "Cocktail Bar", "icon": {"prefix": "https://ss3.4sqi.net/img/categories_v2/nightlife/cocktails_", "suffix": ".png"}}, {"id": 13068, "name": "American Restaurant", "icon": {"prefix": "https://ss3.4sqi.net/img/categories_v2/food/default_", "suffix": ".png"}}, {"id": 13314, "name": "New American Restaurant", "icon": {"prefix": "https://ss3.4sqi.net/img/categories_v2/food/newamerican_", "suffix": ".png"}}], "chains": [], "distance": 428, "geocodes": {"main": {"latitude": 37.787085, "longitude": -122.412979}, "roof": {"latitude": 37.787085, "longitude": -122.412979}}, "link": "/v3/places/4c53307e4623be9a0a0db5f0", "location": {"address": "620 Jones St", "census_block": "060750123024001", "country": "US", "cross_street": "at Geary St", "dma": "San Francisco-Oakland-San Jose", "formatted_address": "620 Jones St (at Geary St), San Francisco, CA 94102", "locality": "San Francisco", "neighborhood": ["Lower Nob Hill"], "postcode": "94102", "region": "CA"}, "name": "Jones", "related_places": {"children": []}, "timezone": "America/Los_Angeles"}, {"fsq_id": "5d2d223bafbe29002386f676", "categories": [{"id": 13002, "name": "Bakery", "icon": {"prefix": "https://ss3.4sqi.net/img/categories_v2/food/bakery_", "suffix": ".png"}}, {"id": 13032, "name": "Cafes, Coffee, and Tea Houses", "icon": {"prefix": "https://ss3.4sqi.net/img/categories_v2/food/default_", "suffix": ".png"}}, {"id": 13065, "name": "Restaurant", "icon": {"prefix": "https://ss3.4sqi.net/img/categories_v2/food/default_", "suffix": ".png"}}], "chains": [], "distance": 477, "geocodes": {"main": {"latitude": 37.786328, "longitude": -122.407487}, "roof": {"latitude": 37.786328, "longitude": -122.407487}}, "link": "/v3/places/5d2d223bafbe29002386f676", "location": {"address": "165 Ofarrell St", "address_extended": "Fl 1", "census_block": "060750117003011", "country": "US", "cross_street": "", "dma": "San Francisco-Oakland-San Jose", "formatted_address": "165 Ofarrell St, San Francisco, CA 94102", "locality": "San Francisco", "neighborhood": ["Civic Center"], "postcode": "94102", "region": "CA"}, "name": "ONE65 Patisserie & Boutique", "related_places": {}, "timezone": "America/Los_Angeles"}, {"fsq_id": "4e97163f02d5458d04b57326", "categories": [{"id": 13031, "name": "Burger Joint", "icon": {"prefix": "https://ss3.4sqi.net/img/categories_v2/food/burger_", "suffix": ".png"}}, {"id": 13034, "name": "Caf\u00e9", "icon": {"prefix": "https://ss3.4sqi.net/img/categories_v2/food/cafe_", "suffix": ".png"}}, {"id": 13035, "name": "Coffee Shop", "icon": {"prefix": "https://ss3.4sqi.net/img/categories_v2/food/coffeeshop_", "suffix": ".png"}}], "chains": [], "distance": 474, "geocodes": {"main": {"latitude": 37.790173, "longitude": -122.415312}, "roof": {"latitude": 37.790173, "longitude": -122.415312}}, "link": "/v3/places/4e97163f02d5458d04b57326", "location": {"address": "1191 Pine St", "census_block": "060750119011001", "country": "US", "cross_street": "at Leavenworth St.", "dma": "San Francisco-Oakland-San Jose", "formatted_address": "1191 Pine St (at Leavenworth St.), San Francisco, CA 94109", "locality": "San Francisco", "neighborhood": ["Lower Nob Hill"], "postcode": "94109", "region": "CA"}, "name": "Another Cafe", "related_places": {}, "timezone": "America/Los_Angeles"}, {"fsq_id": "433c8000f964a52042281fe3", "categories": [{"id": 13009, "name": "Cocktail Bar", "icon": {"prefix": "https://ss3.4sqi.net/img/categories_v2/nightlife/cocktails_", "suffix": ".png"}}, {"id": 13010, "name": "Dive Bar", "icon": {"prefix": "https://ss3.4sqi.net/img/categories_v2/nightlife/divebar_", "suffix": ".png"}}, {"id": 13065, "name": "Restaurant", "icon": {"prefix": "https://ss3.4sqi.net/img/categories_v2/food/default_", "suffix": ".png"}}], "chains": [], "distance": 290, "geocodes": {"main": {"latitude": 37.787719, "longitude": -122.411942}, "roof": {"latitude": 37.787719, "longitude": -122.411942}}, "link": "/v3/places/433c8000f964a52042281fe3", "location": {"address": "601 Post St", "census_block": "060750123023001", "country": "US", "cross_street": "at Taylor", "dma": "San Francisco-Oakland-San Jose", "formatted_address": "601 Post St (at Taylor), San Francisco, CA 94109", "locality": "San Francisco", "neighborhood": ["Little Saigon"], "postcode": "94109", "region": "CA"}, "name": "Owl Tree", "related_places": {}, "timezone": "America/Los_Angeles"}, {"fsq_id": "3fd66200f964a52098ed1ee3", "categories": [{"id": 13018, "name": "Pub", "icon": {"prefix": "https://ss3.4sqi.net/img/categories_v2/nightlife/pub_", "suffix": ".png"}}, {"id": 13068, "name": "American Restaurant", "icon": {"prefix": "https://ss3.4sqi.net/img/categories_v2/food/default_", "suffix": ".png"}}, {"id": 13145, "name": "Fast Food Restaurant", "icon": {"prefix": "https://ss3.4sqi.net/img/categories_v2/food/fastfood_", "suffix": ".png"}}], "chains": [], "distance": 463, "geocodes": {"main": {"latitude": 37.790411, "longitude": -122.404931}, "roof": {"latitude": 37.790411, "longitude": -122.404931}}, "link": "/v3/places/3fd66200f964a52098ed1ee3", "location": {"address": "10 Mark Ln", "census_block": "060750117004006", "country": "US", "cross_street": "at Harlan Pl.", "dma": "San Francisco-Oakland-San Jose", "formatted_address": "10 Mark Ln (at Harlan Pl.), San Francisco, CA 94108", "locality": "San Francisco", "neighborhood": ["Chinatown"], "postcode": "94108", "region": "CA"}, "name": "The Irish Bank Bar and Restaurant", "related_places": {}, "timezone": "America/Los_Angeles"}, {"fsq_id": "4d24b237daa937040cc5c781", "categories": [{"id": 13049, "name": "Diner", "icon": {"prefix": "https://ss3.4sqi.net/img/categories_v2/food/diner_", "suffix": ".png"}}, {"id": 13068, "name": "American Restaurant", "icon": {"prefix": "https://ss3.4sqi.net/img/categories_v2/food/default_", "suffix": ".png"}}], "chains": [], "distance": 333, "geocodes": {"main": {"latitude": 37.787016, "longitude": -122.410036}, "roof": {"latitude": 37.787016, "longitude": -122.410036}}, "link": "/v3/places/4d24b237daa937040cc5c781", "location": {"address": "401 Geary St", "census_block": "060750123013001", "country": "US", "cross_street": "at Mason St", "dma": "San Francisco-Oakland-San Jose", "formatted_address": "401 Geary St (at Mason St), San Francisco, CA 94102", "locality": "San Francisco", "neighborhood": ["Civic Center"], "postcode": "94102", "region": "CA"}, "name": "Pinecrest Diner", "related_places": {}, "timezone": "America/Los_Angeles"}, {"fsq_id": "3fd66200f964a52031f11ee3", "categories": [{"id": 13003, "name": "Bar", "icon": {"prefix": "https://ss3.4sqi.net/img/categories_v2/nightlife/pub_", "suffix": ".png"}}], "chains": [], "distance": 269, "geocodes": {"main": {"latitude": 37.792333, "longitude": -122.410135}, "roof": {"latitude": 37.792333, "longitude": -122.410135}}, "link": "/v3/places/3fd66200f964a52031f11ee3", "location": {"address": "950 Mason St", "census_block": "060750112002001", "country": "US", "cross_street": "", "dma": "San Francisco-Oakland-San Jose", "formatted_address": "950 Mason St, San Francisco, CA 94108", "locality": "San Francisco", "neighborhood": ["Chinatown"], "postcode": "94108", "region": "CA"}, "name": "Tonga Room & Hurricane Bar", "related_places": {"parent": {"fsq_id": "4698fe39f964a520f9481fe3", "name": "The Fairmont San Francisco"}}, "timezone": "America/Los_Angeles"}, {"fsq_id": "4afa54a1f964a520b61722e3", "categories": [{"id": 13236, "name": "Italian Restaurant", "icon": {"prefix": "https://ss3.4sqi.net/img/categories_v2/food/italian_", "suffix": ".png"}}], "chains": [], "distance": 219, "geocodes": {"main": {"latitude": 37.787915, "longitude": -122.410233}, "roof": {"latitude": 37.787915, "longitude": -122.410233}}, "link": "/v3/places/4afa54a1f964a520b61722e3", "location": {"address": "501 Post St", "census_block": "060750123023001", "country": "US", "dma": "San Francisco-Oakland-San Jose", "formatted_address": "501 Post St, San Francisco, CA 94102", "locality": "San Francisco", "neighborhood": ["NOMA"], "postcode": "94102", "region": "CA"}, "name": "Zingari Ristorante", "related_places": {"parent": {"fsq_id": "4ba980eef964a5201b2b3ae3", "name": "Club Donatello"}}, "timezone": "America/Los_Angeles"}, {"fsq_id": "4521444bf964a520c53a1fe3", "categories": [{"id": 13001, "name": "Bagel Shop", "icon": {"prefix": "https://ss3.4sqi.net/img/categories_v2/food/bagels_", "suffix": ".png"}}, {"id": 13002, "name": "Bakery", "icon": {"prefix": "https://ss3.4sqi.net/img/categories_v2/food/bakery_", "suffix": ".png"}}, {"id": 13065, "name": "Restaurant", "icon": {"prefix": "https://ss3.4sqi.net/img/categories_v2/food/default_", "suffix": ".png"}}], "chains": [], "distance": 440, "geocodes": {"main": {"latitude": 37.789776, "longitude": -122.405109}, "roof": {"latitude": 37.789776, "longitude": -122.405109}}, "link": "/v3/places/4521444bf964a520c53a1fe3", "location": {"address": "270 Sutter St", "census_block": "060750117004005", "country": "US", "cross_street": "at Grant Ave", "dma": "San Francisco-Oakland-San Jose", "formatted_address": "270 Sutter St (at Grant Ave), San Francisco, CA 94108", "locality": "San Francisco", "neighborhood": ["Chinatown"], "postcode": "94108", "region": "CA"}, "name": "Posh Bagel", "related_places": {}, "timezone": "America/Los_Angeles"}, {"fsq_id": "500afccce4b0546b28d0ac0b", "categories": [{"id": 13034, "name": "Caf\u00e9", "icon": {"prefix": "https://ss3.4sqi.net/img/categories_v2/food/cafe_", "suffix": ".png"}}], "chains": [], "distance": 302, "geocodes": {"main": {"latitude": 37.787417, "longitude": -122.409056}, "roof": {"latitude": 37.787417, "longitude": -122.409056}}, "link": "/v3/places/500afccce4b0546b28d0ac0b", "location": {"address": "Powell St", "census_block": "060750123023000", "country": "US", "cross_street": "Geary", "dma": "San Francisco-Oakland-San Jose", "formatted_address": "Powell St (Geary), San Francisco, CA 94102", "locality": "San Francisco", "neighborhood": ["Civic Center"], "postcode": "94102", "region": "CA"}, "name": "Caruso's at The Westin St Francis", "related_places": {"parent": {"fsq_id": "42bf4180f964a520b1251fe3", "name": "The Westin St Francis San Francisco on Union Square"}}, "timezone": "America/Los_Angeles"}, {"fsq_id": "51ddf548498ee432772457db", "categories": [{"id": 13006, "name": "Beer Bar", "icon": {"prefix": "https://ss3.4sqi.net/img/categories_v2/nightlife/pub_", "suffix": ".png"}}, {"id": 13022, "name": "Sports Bar", "icon": {"prefix": "https://ss3.4sqi.net/img/categories_v2/nightlife/sportsbar_", "suffix": ".png"}}, {"id": 13068, "name": "American Restaurant", "icon": {"prefix": "https://ss3.4sqi.net/img/categories_v2/food/default_", "suffix": ".png"}}], "chains": [], "distance": 158, "geocodes": {"main": {"latitude": 37.789065, "longitude": -122.408867}, "roof": {"latitude": 37.789065, "longitude": -122.408867}}, "link": "/v3/places/51ddf548498ee432772457db", "location": {"address": "525 Sutter St", "address_extended": "Fl 2", "census_block": "060750121001003", "country": "US", "cross_street": "at Sutter St", "dma": "San Francisco-Oakland-San Jose", "formatted_address": "525 Sutter St (at Sutter St), San Francisco, CA 94102", "locality": "San Francisco", "neighborhood": ["Chinatown"], "postcode": "94102", "region": "CA"}, "name": "Golden Gate Tap Room", "related_places": {}, "timezone": "America/Los_Angeles"}, {"fsq_id": "3fd66200f964a52090ed1ee3", "categories": [{"id": 13072, "name": "Asian Restaurant", "icon": {"prefix": "https://ss3.4sqi.net/img/categories_v2/food/asian_", "suffix": ".png"}}, {"id": 13099, "name": "Chinese Restaurant", "icon": {"prefix": "https://ss3.4sqi.net/img/categories_v2/food/asian_", "suffix": ".png"}}], "chains": [], "distance": 368, "geocodes": {"main": {"latitude": 37.789749, "longitude": -122.405896}, "roof": {"latitude": 37.789749, "longitude": -122.405896}}, "link": "/v3/places/3fd66200f964a52090ed1ee3", "location": {"address": "314 Sutter St", "census_block": "060750117004007", "country": "US", "cross_street": "at Grant", "dma": "San Francisco-Oakland-San Jose", "formatted_address": "314 Sutter St (at Grant), San Francisco, CA 94108", "locality": "San Francisco", "neighborhood": ["Chinatown"], "postcode": "94108", "region": "CA"}, "name": "E & O Trading Company Restaurants", "related_places": {}, "timezone": "America/Los_Angeles"}, {"fsq_id": "5886c46651666a3dfa1c3aa0", "categories": [{"id": 13145, "name": "Fast Food Restaurant", "icon": {"prefix": "https://ss3.4sqi.net/img/categories_v2/food/fastfood_", "suffix": ".png"}}, {"id": 13302, "name": "Mediterranean Restaurant", "icon": {"prefix": "https://ss3.4sqi.net/img/categories_v2/food/mediterranean_", "suffix": ".png"}}, {"id": 13309, "name": "Middle Eastern Restaurant", "icon": {"prefix": "https://ss3.4sqi.net/img/categories_v2/food/middleeastern_", "suffix": ".png"}}], "chains": [], "distance": 433, "geocodes": {"main": {"latitude": 37.786278, "longitude": -122.410279}, "roof": {"latitude": 37.786278, "longitude": -122.410279}}, "link": "/v3/places/5886c46651666a3dfa1c3aa0", "location": {"address": "336 Ofarrell St", "census_block": "060750123013001", "country": "US", "cross_street": "Mason St", "dma": "San Francisco-Oakland-San Jose", "formatted_address": "336 Ofarrell St (Mason St), San Francisco, CA 94102", "locality": "San Francisco", "neighborhood": ["Civic Center"], "postcode": "94102", "region": "CA"}, "name": "The Halal Guys", "related_places": {}, "timezone": "America/Los_Angeles"}, {"fsq_id": "4aa20c78f964a520c24120e3", "categories": [{"id": 13065, "name": "Restaurant", "icon": {"prefix": "https://ss3.4sqi.net/img/categories_v2/food/default_", "suffix": ".png"}}], "chains": [], "distance": 307, "geocodes": {"main": {"latitude": 37.78948, "longitude": -122.413264}, "roof": {"latitude": 37.78948, "longitude": -122.413264}}, "link": "/v3/places/4aa20c78f964a520c24120e3", "location": {"address": "985 Bush St", "census_block": "060750121002000", "country": "US", "cross_street": "at Jones St", "dma": "San Francisco-Oakland-San Jose", "formatted_address": "985 Bush St (at Jones St), San Francisco, CA 94109", "locality": "San Francisco", "neighborhood": ["French Quarter"], "postcode": "94109", "region": "CA"}, "name": "Market Mayflower & Deli", "related_places": {}, "timezone": "America/Los_Angeles"}, {"fsq_id": "4be5efc0bcef2d7f5f9004e5", "categories": [{"id": 13065, "name": "Restaurant", "icon": {"prefix": "https://ss3.4sqi.net/img/categories_v2/food/default_", "suffix": ".png"}}], "chains": [], "distance": 386, "geocodes": {"main": {"latitude": 37.786798, "longitude": -122.41117}, "roof": {"latitude": 37.786798, "longitude": -122.41117}}, "link": "/v3/places/4be5efc0bcef2d7f5f9004e5", "location": {"address": "495 Geary St", "census_block": "060750123013001", "country": "US", "cross_street": "at Taylor St", "dma": "San Francisco-Oakland-San Jose", "formatted_address": "495 Geary St (at Taylor St), San Francisco, CA 94102", "locality": "San Francisco", "neighborhood": ["NOMA"], "postcode": "94102", "region": "CA"}, "name": "Velvet Room", "related_places": {"parent": {"fsq_id": "42accc80f964a52050251fe3", "name": "The Clift Royal Sonesta Hotel"}}, "timezone": "America/Los_Angeles"}, {"fsq_id": "4a9f30d3f964a520de3c20e3", "categories": [{"id": 13065, "name": "Restaurant", "icon": {"prefix": "https://ss3.4sqi.net/img/categories_v2/food/default_", "suffix": ".png"}}], "chains": [], "distance": 434, "geocodes": {"main": {"latitude": 37.790427, "longitude": -122.405147}, "roof": {"latitude": 37.790427, "longitude": -122.405147}}, "link": "/v3/places/4a9f30d3f964a520de3c20e3", "location": {"address": "453 Bush St", "census_block": "060750117004006", "country": "US", "cross_street": "btwn Kearny & Grant", "dma": "San Francisco-Oakland-San Jose", "formatted_address": "453 Bush St (btwn Kearny & Grant), San Francisco, CA 94108", "locality": "San Francisco", "neighborhood": ["Chinatown"], "postcode": "94108", "region": "CA"}, "name": "Le Central", "related_places": {}, "timezone": "America/Los_Angeles"}, {"fsq_id": "55fe2f5d498e201b2d44584b", "categories": [{"id": 13289, "name": "Korean Restaurant", "icon": {"prefix": "https://ss3.4sqi.net/img/categories_v2/food/korean_", "suffix": ".png"}}], "chains": [], "distance": 328, "geocodes": {"main": {"latitude": 37.787687, "longitude": -122.41237}, "roof": {"latitude": 37.787687, "longitude": -122.41237}}, "link": "/v3/places/55fe2f5d498e201b2d44584b", "location": {"address": "643 Post St", "census_block": "060750123023002", "country": "US", "cross_street": "", "dma": "San Francisco-Oakland-San Jose", "formatted_address": "643 Post St, San Francisco, CA 94109", "locality": "San Francisco", "neighborhood": ["Little Saigon"], "postcode": "94109", "region": "CA"}, "name": "Zzan", "related_places": {}, "timezone": "America/Los_Angeles"}, {"fsq_id": "4a64cbcef964a520b5c61fe3", "categories": [{"id": 13065, "name": "Restaurant", "icon": {"prefix": "https://ss3.4sqi.net/img/categories_v2/food/default_", "suffix": ".png"}}], "chains": [], "distance": 123, "geocodes": {"main": {"latitude": 37.78952, "longitude": -122.408894}, "roof": {"latitude": 37.78952, "longitude": -122.408894}}, "link": "/v3/places/4a64cbcef964a520b5c61fe3", "location": {"address": "529 Powell St", "census_block": "060750121001000", "country": "US", "cross_street": "at Sutter St", "dma": "San Francisco-Oakland-San Jose", "formatted_address": "529 Powell St (at Sutter St), San Francisco, CA 94108", "locality": "San Francisco", "neighborhood": ["Chinatown"], "postcode": "94108", "region": "CA"}, "name": "Maru Sushi", "related_places": {}, "timezone": "America/Los_Angeles"}], "context": {"geo_bounds": {"circle": {"center": {"latitude": 37.79, "longitude": -122.41}, "radius": 500}}}}