{"results": [{"fsq_id": "4a0e123af964a520c2751fe3", "categories": [{"id": 13068, "name": "American Restaurant", "icon": {"prefix": "https://ss3.4sqi.net/img/categories_v2/food/default_", "suffix": ".png"}}, {"id": 13307, "name": "Tex-Mex Restaurant", "icon": {"prefix": "https://ss3.4sqi.net/img/categories_v2/food/mexican_", "suffix": ".png"}}, {"id": 13338, "name": "Seafood Restaurant", "icon": {"prefix": "https://ss3.4sqi.net/img/categories_v2/food/seafood_", "suffix": ".png"}}], "chains": [], "distance": 266, "geocodes": {"main": {"latitude": 37.721199, "longitude": -122.437264}}, "link": "/v3/places/4a0e123af964a520c2751fe3", "location": {"address": "4817 Mission St", "country": "US", "cross_street": "at Onondaga St", "dma": "San Francisco-Oakland-San Jose", "formatted_address": "4817 Mission St (at Onondaga St), San Francisco, CA 94112", "locality": "San Francisco", "neighborhood": ["Crocker-Amazon"], "postcode": "94112", "region": "CA"}, "name": "El Farolito", "related_places": {}, "timezone": "America/Los_Angeles"}, {"fsq_id": "546960f7498eac74bd5baf47", "categories": [{"id": 13030, "name": "Buffet", "icon": {"prefix": "https://ss3.4sqi.net/img/categories_v2/food/default_", "suffix": ".png"}}, {"id": 13276, "name": "Sushi Restaurant", "icon": {"prefix": "https://ss3.4sqi.net/img/categories_v2/food/sushi_", "suffix": ".png"}}], "chains": [], "distance": 235, "geocodes": {"main": {"latitude": 37.720944, "longitude": -122.437876}, "roof": {"latitude": 37.720944, "longitude": -122.437876}}, "link": "/v3/places/546960f7498eac74bd5baf47", "location": {"address": "4808 Mission St", "census_block": "060750261001006", "country": "US", "cross_street": "Onondaga Ave", "dma": "San Francisco-Oakland-San Jose", "formatted_address": "4808 Mission St (Onondaga Ave), San Francisco, CA 94112", "locality": "San Francisco", "neighborhood": ["Crocker-Amazon"], "postcode": "94112", "region": "CA"}, "name": "Tao Sushi", "related_places": {}, "timezone": "America/Los_Angeles"}, {"fsq_id": "4b63b31cf964a520d28c2ae3", "categories": [{"id": 13064, "name": "Pizzeria", "icon": {"prefix": "https://ss3.4sqi.net/img/categories_v2/food/pizza_", "suffix": ".png"}}], "chains": [], "distance": 169, "geocodes": {"main": {"latitude": 37.718372, "longitude": -122.439873}, "roof": {"latitude": 37.718372, "longitude": -122.439873}}, "link": "/v3/places/4b63b31cf964a520d28c2ae3", "location": {"address": "5006 Mission St", "census_block": "060750261001006", "country": "US", "dma": "San Francisco-Oakland-San Jose", "formatted_address": "5006 Mission St, San Francisco, CA 94112", "locality": "San Francisco", "neighborhood": ["Crocker-Amazon"], "postcode": "94112", "region": "CA"}, "name": "Little Joe's Pizza", "related_places": {}, "timezone": "America/Los_Angeles"}, {"fsq_id": "4ec020bbb8f7963bcdde0f6b", "categories": [{"id": 13003, "name": "Bar", "icon": {"prefix": "https://ss3.4sqi.net/img/categories_v2/nightlife/pub_", "suffix": ".png"}}, {"id": 13068, "name": "American Restaurant", "icon": {"prefix": "https://ss3.4sqi.net/img/categories_v2/food/default_", "suffix": ".png"}}, {"id": 13303, "name": "Mexican Restaurant", "icon": {"prefix": "https://ss3.4sqi.net/img/categories_v2/food/mexican_", "suffix": ".png"}}], "chains": [], "distance": 431, "geocodes": {"main": {"latitude": 37.71591, "longitude": -122.440443}, "roof": {"latitude": 37.71591, "longitude": -122.440443}}, "link": "/v3/places/4ec020bbb8f7963bcdde0f6b", "location": {"address": "942 Geneva Ave", "census_block": "060750263012002", "country": "US", "cross_street": "at Mission St", "dma": "San Francisco-Oakland-San Jose", "formatted_address": "942 Geneva Ave (at Mission St), San Francisco, CA 94112", "locality": "San Francisco", "neighborhood": ["Crocker-Amazon"], "postcode": "94112", "region": "CA"}, "name": "The Dark Horse Inn", "related_places": {}, "timezone": "America/Los_Angeles"}, {"fsq_id": "4ceec3b83b03f04de88d3bdc", "categories": [{"id": 13072, "name": "Asian Restaurant", "icon": {"prefix": "https://ss3.4sqi.net/img/categories_v2/food/asian_", "suffix": ".png"}}, {"id": 13102, "name": "Cantonese Restaurant", "icon": {"prefix": "https://ss3.4sqi.net/img/categories_v2/food/asian_", "suffix": ".png"}}, {"id": 13116, "name": "Hunan Restaurant", "icon": {"prefix": "https://ss3.4sqi.net/img/categories_v2/food/asian_", "suffix": ".png"}}], "chains": [], "distance": 385, "geocodes": {"main": {"latitude": 37.722262, "longitude": -122.43645}, "roof": {"latitude": 37.722262, "longitude": -122.43645}}, "link": "/v3/places/4ceec3b83b03f04de88d3bdc", "location": {"address": "4753 Mission St", "census_block": "060750260014000", "country": "US", "dma": "San Francisco-Oakland-San Jose", "formatted_address": "4753 Mission St, San Francisco, CA 94112", "locality": "San Francisco", "neighborhood": ["Bayshore"], "postcode": "94112", "region": "CA"}, "name": "Henry's Hunan Restaurant", "related_places": {}, "timezone": "America/Los_Angeles"}, {"fsq_id": "4b3d2bc9f964a520808f25e3", "categories": [{"id": 13072, "name": "Asian Restaurant", "icon": {"prefix": "https://ss3.4sqi.net/img/categories_v2/food/asian_", "suffix": ".png"}}, {"id": 13099, "name": "Chinese Restaurant", "icon": {"prefix": "https://ss3.4sqi.net/img/categories_v2/food/asian_", "suffix": ".png"}}, {"id": 13146, "name": "Filipino Restaurant", "icon": {"prefix": "https://ss3.4sqi.net/img/categories_v2/food/filipino_", "suffix": ".png"}}], "chains": [], "distance": 128, "geocodes": {"main": {"latitude": 37.719664, "longitude": -122.438373}, "roof": {"latitude": 37.719664, "longitude": -122.438373}}, "link": "/v3/places/4b3d2bc9f964a520808f25e3", "location": {"address": "4919 Mission St", "address_extended": "# 3415", "census_block": "060750260041007", "country": "US", "cross_street": "", "dma": "San Francisco-Oakland-San Jose", "formatted_address": "4919 Mission St, San Francisco, CA 94112", "locality": "San Francisco", "neighborhood": ["Crocker-Amazon"], "postcode": "94112", "region": "CA"}, "name": "Super Star Restaurant", "related_places": {}, "timezone": "America/Los_Angeles"}, {"fsq_id": "52fa8f4511d2aee7d4af7824", "categories": [{"id": 13072, "name": "Asian Restaurant", "icon": {"prefix": "https://ss3.4sqi.net/img/categories_v2/food/asian_", "suffix": ".png"}}, {"id": 13334, "name": "Sandwich Restaurant", "icon": {"prefix": "https://ss3.4sqi.net/img/categories_v2/food/deli_", "suffix": ".png"}}, {"id": 13379, "name": "Vietnamese Restaurant", "icon": {"prefix": "https://ss3.4sqi.net/img/categories_v2/food/vietnamese_", "suffix": ".png"}}], "chains": [], "distance": 258, "geocodes": {"main": {"latitude": 37.721079, "longitude": -122.437383}, "roof": {"latitude": 37.721079, "longitude": -122.437383}}, "link": "/v3/places/52fa8f4511d2aee7d4af7824", "location": {"address": "4829 Mission St", "census_block": "060750260041000", "country": "US", "cross_street": "at Onondaga Ave", "dma": "San Francisco-Oakland-San Jose", "formatted_address": "4829 Mission St (at Onondaga Ave), San Francisco, CA 94112", "locality": "San Francisco", "neighborhood": ["Crocker-Amazon"], "postcode": "94112", "region": "CA"}, "name": "Ty Sandwich", "related_places": {}, "timezone": "America/Los_Angeles"}, {"fsq_id": "4b064e19f964a52094ea22e3", "categories": [{"id": 13064, "name": "Pizzeria", "icon": {"prefix": "https://ss3.4sqi.net/img/categories_v2/food/pizza_", "suffix": ".png"}}, {"id": 13236, "name": "Italian Restaurant", "icon": {"prefix": "https://ss3.4sqi.net/img/categories_v2/food/italian_", "suffix": ".png"}}], "chains": [], "distance": 388, "geocodes": {"main": {"latitude": 37.716539, "longitude": -122.440767}, "roof": {"latitude": 37.716539, "longitude": -122.440767}}, "link": "/v3/places/4b064e19f964a52094ea22e3", "location": {"address": "5145 Mission St", "census_block": "060750263011008", "country": "US", "cross_street": "at Geneva Ave", "dma": "San Francisco-Oakland-San Jose", "formatted_address": "5145 Mission St (at Geneva Ave), San Francisco, CA 94112", "locality": "San Francisco", "neighborhood": ["Crocker-Amazon"], "postcode": "94112", "region": "CA"}, "name": "Bravo Pizza", "related_places": {}, "timezone": "America/Los_Angeles"}, {"fsq_id": "4b244110f964a520c76424e3", "categories": [{"id": 13145, "name": "Fast Food Restaurant", "icon": {"prefix": "https://ss3.4sqi.net/img/categories_v2/food/fastfood_", "suffix": ".png"}}, {"id": 13297, "name": "Latin American Restaurant", "icon": {"prefix": "https://ss3.4sqi.net/img/categories_v2/food/latinamerican_", "suffix": ".png"}}, {"id": 13305, "name": "Burrito Restaurant", "icon": {"prefix": "https://ss3.4sqi.net/img/categories_v2/food/burrito_", "suffix": ".png"}}], "chains": [], "distance": 248, "geocodes": {"main": {"latitude": 37.721329, "longitude": -122.437541}, "roof": {"latitude": 37.721329, "longitude": -122.437541}}, "link": "/v3/places/4b244110f964a520c76424e3", "location": {"address": "4798 Mission St", "census_block": "060750261001007", "country": "US", "cross_street": "at Onondaga Ave", "dma": "San Francisco-Oakland-San Jose", "formatted_address": "4798 Mission St (at Onondaga Ave), San Francisco, CA 94112", "locality": "San Francisco", "neighborhood": ["Crocker-Amazon"], "postcode": "94112", "region": "CA"}, "name": "Taqueria Guadalajara", "related_places": {}, "timezone": "America/Los_Angeles"}, {"fsq_id": "5dd0a5be28236a00081a4a54", "categories": [{"id": 13095, "name": "Cajun / Creole Restaurant", "icon": {"prefix": "https://ss3.4sqi.net/img/categories_v2/food/cajun_", "suffix": ".png"}}, {"id": 13343, "name": "South American Restaurant", "icon": {"prefix": "https://ss3.4sqi.net/img/categories_v2/food/argentinian_", "suffix": ".png"}}], "chains": [], "distance": 213, "geocodes": {"main": {"latitude": 37.720933, "longitude": -122.438019}, "roof": {"latitude": 37.720933, "longitude": -122.438019}}, "link": "/v3/places/5dd0a5be28236a00081a4a54", "location": {"address": "4826 Mission St", "census_block": "060750261001006", "country": "US", "cross_street": "Onondaga St.", "dma": "San Francisco-Oakland-San Jose", "formatted_address": "4826 Mission St (Onondaga St.), San Francisco, CA 94112", "locality": "San Francisco", "neighborhood": ["Crocker-Amazon"], "postcode": "94112", "region": "CA"}, "name": "Gentilly", "related_places": {}, "timezone": "America/Los_Angeles"}, {"fsq_id": "4b4feb23f964a520831927e3", "categories": [{"id": 13016, "name": "Lounge", "icon": {"prefix": "https://ss3.4sqi.net/img/categories_v2/nightlife/default_", "suffix": ".png"}}, {"id": 13334, "name": "Sandwich Restaurant", "icon": {"prefix": "https://ss3.4sqi.net/img/categories_v2/food/deli_", "suffix": ".png"}}], "chains": [], "distance": 219, "geocodes": {"main": {"latitude": 37.720906, "longitude": -122.437945}, "roof": {"latitude": 37.720906, "longitude": -122.437945}}, "link": "/v3/places/4b4feb23f964a520831927e3", "location": {"address": "4826 Mission St", "census_block": "060750261001006", "country": "US", "cross_street": "at Onondaga Ave", "dma": "San Francisco-Oakland-San Jose", "formatted_address": "4826 Mission St (at Onondaga Ave), San Francisco, CA 94112", "locality": "San Francisco", "neighborhood": ["Crocker-Amazon"], "postcode": "94112", "region": "CA"}, "name": "Witch Doctor's Lounge", "related_places": {}, "timezone": "America/Los_Angeles"}, {"fsq_id": "54a0709c498e74b7b1cc1713", "categories": [{"id": 13034, "name": "Caf\u00e9", "icon": {"prefix": "https://ss3.4sqi.net/img/categories_v2/food/cafe_", "suffix": ".png"}}, {"id": 13046, "name": "Ice Cream Parlor", "icon": {"prefix": "https://ss3.4sqi.net/img/categories_v2/food/icecream_", "suffix": ".png"}}, {"id": 13145, "name": "Fast Food Restaurant", "icon": {"prefix": "https://ss3.4sqi.net/img/categories_v2/food/fastfood_", "suffix": ".png"}}], "chains": [], "distance": 451, "geocodes": {"main": {"latitude": 37.723245, "longitude": -122.443029}}, "link": "/v3/places/54a0709c498e74b7b1cc1713", "location": {"address": "296 Ocean Ave", "country": "US", "cross_street": "at Delano Ave", "dma": "San Francisco-Oakland-San Jose", "formatted_address": "296 Ocean Ave (at Delano Ave), San Francisco, CA 94112", "locality": "San Francisco", "neighborhood": ["Crocker-Amazon"], "postcode": "94112", "region": "CA"}, "name": "Pineapples", "related_places": {}, "timezone": "America/Los_Angeles"}, {"fsq_id": "4e80eef293adc9619543bbc9", "categories": [{"id": 13072, "name": "Asian Restaurant", "icon": {"prefix": "https://ss3.4sqi.net/img/categories_v2/food/asian_", "suffix": ".png"}}, {"id": 13099, "name": "Chinese Restaurant", "icon": {"prefix": "https://ss3.4sqi.net/img/categories_v2/food/asian_", "suffix": ".png"}}, {"id": 13379, "name": "Vietnamese Restaurant", "icon": {"prefix": "https://ss3.4sqi.net/img/categories_v2/food/vietnamese_", "suffix": ".png"}}], "chains": [], "distance": 229, "geocodes": {"main": {"latitude": 37.720938, "longitude": -122.437518}, "roof": {"latitude": 37.720938, "longitude": -122.437518}}, "link": "/v3/places/4e80eef293adc9619543bbc9", "location": {"address": "4845 Mission St", "census_block": "060750260041000", "country": "US", "cross_street": "", "dma": "San Francisco-Oakland-San Jose", "formatted_address": "4845 Mission St, San Francisco, CA 94112", "locality": "San Francisco", "neighborhood": ["Crocker-Amazon"], "postcode": "94112", "region": "CA"}, "name": "Mission Noodle House", "related_places": {}, "timezone": "America/Los_Angeles"}, {"fsq_id": "4b889473f964a5202a0232e3", "categories": [{"id": 10045, "name": "Pool Hall", "icon": {"prefix": "https://ss3.4sqi.net/img/categories_v2/arts_entertainment/billiards_", "suffix": ".png"}}, {"id": 13003, "name": "Bar", "icon": {"prefix": "https://ss3.4sqi.net/img/categories_v2/nightlife/pub_", "suffix": ".png"}}], "chains": [], "distance": 474, "geocodes": {"main": {"latitude": 37.715818, "longitude": -122.441225}, "roof": {"latitude": 37.715818, "longitude": -122.441225}}, "link": "/v3/places/4b889473f964a5202a0232e3", "location": {"address": "5179 Mission St", "census_block": "060750263012002", "country": "US", "cross_street": "Rolph st", "dma": "San Francisco-Oakland-San Jose", "formatted_address": "5179 Mission St (Rolph st), San Francisco, CA 94112", "locality": "San Francisco", "neighborhood": ["Crocker-Amazon"], "postcode": "94112", "region": "CA"}, "name": "Billiard Palacade", "related_places": {}, "timezone": "America/Los_Angeles"}, {"fsq_id": "4d8e960d5091a1cdea139401", "categories": [{"id": 13040, "name": "Dessert Shop", "icon": {"prefix": "https://ss3.4sqi.net/img/categories_v2/food/dessert_", "suffix": ".png"}}, {"id": 13058, "name": "Hot Dog Joint", "icon": {"prefix": "https://ss3.4sqi.net/img/categories_v2/food/hotdog_", "suffix": ".png"}}, {"id": 13068, "name": "American Restaurant", "icon": {"prefix": "https://ss3.4sqi.net/img/categories_v2/food/default_", "suffix": ".png"}}], "chains": [], "distance": 378, "geocodes": {"main": {"latitude": 37.716561, "longitude": -122.441341}, "roof": {"latitude": 37.716561, "longitude": -122.441341}}, "link": "/v3/places/4d8e960d5091a1cdea139401", "location": {"address": "888 Geneva Ave", "census_block": "060750261002003", "country": "US", "cross_street": "Mission", "dma": "San Francisco-Oakland-San Jose", "formatted_address": "888 Geneva Ave (Mission), San Francisco, CA 94112", "locality": "San Francisco", "neighborhood": ["Crocker-Amazon"], "postcode": "94112", "region": "CA"}, "name": "Batter Up", "related_places": {}, "timezone": "America/Los_Angeles"}, {"fsq_id": "4aff274cf964a5200b3522e3", "categories": [{"id": 13026, "name": "BBQ Joint", "icon": {"prefix": "https://ss3.4sqi.net/img/categories_v2/food/bbqalt_", "suffix": ".png"}}, {"id": 13145, "name": "Fast Food Restaurant", "icon": {"prefix": "https://ss3.4sqi.net/img/categories_v2/food/fastfood_", "suffix": ".png"}}, {"id": 13192, "name": "Hawaiian Restaurant", "icon": {"prefix": "https://ss3.4sqi.net/img/categories_v2/food/default_", "suffix": ".png"}}], "chains": [], "distance": 262, "geocodes": {"main": {"latitude": 37.721155, "longitude": -122.437244}, "roof": {"latitude": 37.721155, "longitude": -122.437244}}, "link": "/v3/places/4aff274cf964a5200b3522e3", "location": {"address": "4827 Mission St", "census_block": "060750260041000", "country": "US", "dma": "San Francisco-Oakland-San Jose", "formatted_address": "4827 Mission St, San Francisco, CA 94112", "locality": "San Francisco", "neighborhood": ["Crocker-Amazon"], "postcode": "94112", "region": "CA"}, "name": "Hawaiian Drive Inn", "related_places": {}, "timezone": "America/Los_Angeles"}, {"fsq_id": "4b54d614f964a520f1ce27e3", "categories": [{"id": 13031, "name": "Burger Joint", "icon": {"prefix": "https://ss3.4sqi.net/img/categories_v2/food/burger_", "suffix": ".png"}}, {"id": 13068, "name": "American Restaurant", "icon": {"prefix": "https://ss3.4sqi.net/img/categories_v2/food/default_", "suffix": ".png"}}, {"id": 13334, "name": "Sandwich Restaurant", "icon": {"prefix": "https://ss3.4sqi.net/img/categories_v2/food/deli_", "suffix": ".png"}}], "chains": [], "distance": 439, "geocodes": {"main": {"latitude": 37.716084, "longitude": -122.44074}, "roof": {"latitude": 37.716084, "longitude": -122.44074}}, "link": "/v3/places/4b54d614f964a520f1ce27e3", "location": {"address": "932 Geneva Ave", "census_block": "060750263012002", "country": "US", "cross_street": "Mission", "dma": "San Francisco-Oakland-San Jose", "formatted_address": "932 Geneva Ave (Mission), San Francisco, CA 94112", "locality": "San Francisco", "neighborhood": ["Crocker-Amazon"], "postcode": "94112", "region": "CA"}, "name": "Phillies", "related_places": {}, "timezone": "America/Los_Angeles"}, {"fsq_id": "4f3d6810e4b081122435450d", "categories": [{"id": 13039, "name": "Deli", "icon": {"prefix": "https://ss3.4sqi.net/img/categories_v2/food/deli_", "suffix": ".png"}}, {"id": 13334, "name": "Sandwich Restaurant", "icon": {"prefix": "https://ss3.4sqi.net/img/categories_v2/food/deli_", "suffix": ".png"}}], "chains": [], "distance": 376, "geocodes": {"main": {"latitude": 37.722018, "longitude": -122.43665}, "roof": {"latitude": 37.722018, "longitude": -122.43665}}, "link": "/v3/places/4f3d6810e4b081122435450d", "location": {"address": "4763 Mission St", "census_block": "060750260014000", "country": "US", "cross_street": "Russia Ave.", "dma": "San Francisco-Oakland-San Jose", "formatted_address": "4763 Mission St (Russia Ave.), San Francisco, CA 94112", "locality": "San Francisco", "neighborhood": ["Bayshore"], "postcode": "94112", "region": "CA"}, "name": "Calabria Bros", "related_places": {}, "timezone": "America/Los_Angeles"}, {"fsq_id": "4bcff5c641b9ef3bae61f9e5", "categories": [{"id": 13297, "name": "Latin American Restaurant", "icon": {"prefix": "https://ss3.4sqi.net/img/categories_v2/food/latinamerican_", "suffix": ".png"}}, {"id": 13305, "name": "Burrito Restaurant", "icon": {"prefix": "https://ss3.4sqi.net/img/categories_v2/food/burrito_", "suffix": ".png"}}], "chains": [], "distance": 428, "geocodes": {"main": {"latitude": 37.716111, "longitude": -122.440813}, "roof": {"latitude": 37.716111, "longitude": -122.440813}}, "link": "/v3/places/4bcff5c641b9ef3bae61f9e5", "location": {"address": "928 Geneva Ave", "address_extended": "# 3403", "census_block": "060750263012002", "country": "US", "cross_street": "at Mission St.", "dma": "San Francisco-Oakland-San Jose", "formatted_address": "928 Geneva Ave (at Mission St.), San Francisco, CA 94112", "locality": "San Francisco", "neighborhood": ["Crocker-Amazon"], "postcode": "94112", "region": "CA"}, "name": "Taqueria La Iguana Azul", "related_places": {}, "timezone": "America/Los_Angeles"}, {"fsq_id": "4d9b5a26ffafdcb3ed82acf4", "categories": [{"id": 13035, "name": "Coffee Shop", "icon": {"prefix": "https://ss3.4sqi.net/img/categories_v2/food/coffeeshop_", "suffix": ".png"}}], "chains": [], "distance": 432, "geocodes": {"main": {"latitude": 37.722641, "longitude": -122.436616}, "roof": {"latitude": 37.722641, "longitude": -122.436616}}, "link": "/v3/places/4d9b5a26ffafdcb3ed82acf4", "location": {"address": "4726 Mission St", "census_block": "060750261001002", "country": "US", "cross_street": "btwn Leo & Ruth St", "dma": "San Francisco-Oakland-San Jose", "formatted_address": "4726 Mission St (btwn Leo & Ruth St), San Francisco, CA 94112", "locality": "San Francisco", "neighborhood": ["Bayshore"], "postcode": "94112", "region": "CA"}, "name": "Cumaica Coffee Co #2", "related_places": {}, "timezone": "America/Los_Angeles"}, {"fsq_id": "4d02a4e12f96f04d79fe1254", "categories": [{"id": 13068, "name": "American Restaurant", "icon": {"prefix": "https://ss3.4sqi.net/img/categories_v2/food/default_", "suffix": ".png"}}, {"id": 13332, "name": "Salad Restaurant", "icon": {"prefix": "https://ss3.4sqi.net/img/categories_v2/food/salad_", "suffix": ".png"}}, {"id": 13334, "name": "Sandwich Restaurant", "icon": {"prefix": "https://ss3.4sqi.net/img/categories_v2/food/deli_", "suffix": ".png"}}], "chains": [], "distance": 508, "geocodes": {"main": {"latitude": 37.722718, "longitude": -122.435617}, "roof": {"latitude": 37.722718, "longitude": -122.435617}}, "link": "/v3/places/4d02a4e12f96f04d79fe1254", "location": {"address": "400 London St", "census_block": "060750260014000", "country": "US", "cross_street": "at Persia", "dma": "San Francisco-Oakland-San Jose", "formatted_address": "400 London St (at Persia), San Francisco, CA 94112", "locality": "San Francisco", "neighborhood": ["Bayshore"], "postcode": "94112", "region": "CA"}, "name": "The Salad Place", "related_places": {}, "timezone": "America/Los_Angeles"}, {"fsq_id": "517dd1e6e4b060f529f68c7d", "categories": [{"id": 13379, "name": "Vietnamese Restaurant", "icon": {"prefix": "https://ss3.4sqi.net/img/categories_v2/food/vietnamese_", "suffix": ".png"}}], "chains": [], "distance": 376, "geocodes": {"main": {"latitude": 37.716902, "longitude": -122.441576}, "roof": {"latitude": 37.716902, "longitude": -122.441576}}, "link": "/v3/places/517dd1e6e4b060f529f68c7d", "location": {"address": "880 Geneva Ave", "census_block": "060750261002003", "country": "US", "cross_street": "Mission St", "dma": "San Francisco-Oakland-San Jose", "formatted_address": "880 Geneva Ave (Mission St), San Francisco, CA 94112", "locality": "San Francisco", "neighborhood": ["Crocker-Amazon"], "postcode": "94112", "region": "CA"}, "name": "Pho Nice Vietnamese Restaurant", "related_places": {"children": [{"fsq_id": "5ce8af4c2a7ab6002c6bc236", "name": "Teazzert Pho You"}]}, "timezone": "America/Los_Angeles"}, {"fsq_id": "4bf04c36c8d920a103b39430", "categories": [{"id": 13297, "name": "Latin American Restaurant", "icon": {"prefix": "https://ss3.4sqi.net/img/categories_v2/food/latinamerican_", "suffix": ".png"}}, {"id": 13303, "name": "Mexican Restaurant", "icon": {"prefix": "https://ss3.4sqi.net/img/categories_v2/food/mexican_", "suffix": ".png"}}, {"id": 13333, "name": "Salvadoran Restaurant", "icon": {"prefix": "https://ss3.4sqi.net/img/categories_v2/food/latinamerican_", "suffix": ".png"}}], "chains": [], "distance": 505, "geocodes": {"main": {"latitude": 37.722929, "longitude": -122.435845}, "roof": {"latitude": 37.722929, "longitude": -122.435845}}, "link": "/v3/places/4bf04c36c8d920a103b39430", "location": {"address": "12 Persia Ave", "census_block": "060750260014000", "country": "US", "cross_street": "Ocean", "dma": "San Francisco-Oakland-San Jose", "formatted_address": "12 Persia Ave (Ocean), San Francisco, CA 94112", "locality": "San Francisco", "neighborhood": ["Bayshore"], "postcode": "94112", "region": "CA"}, "name": "Los Planes De Renderos", "related_places": {}, "timezone": "America/Los_Angeles"}, {"fsq_id": "4a91a3faf964a520171b20e3", "categories": [{"id": 13099, "name": "Chinese Restaurant", "icon": {"prefix": "https://ss3.4sqi.net/img/categories_v2/food/asian_", "suffix": ".png"}}], "chains": [], "distance": 470, "geocodes": {"main": {"latitude": 37.723379, "longitude": -122.437232}, "roof": {"latitude": 37.723379, "longitude": -122.437232}}, "link": "/v3/places/4a91a3faf964a520171b20e3", "location": {"address": "1801 Alemany Blvd", "census_block": "060750261001002", "country": "US", "cross_street": "at Ocean Ave", "dma": "San Francisco-Oakland-San Jose", "formatted_address": "1801 Alemany Blvd (at Ocean Ave), San Francisco, CA 94112", "locality": "San Francisco", "neighborhood": ["Mission Terrace"], "postcode": "94112", "region": "CA"}, "name": "Beijing Restaurant", "related_places": {}, "timezone": "America/Los_Angeles"}, {"fsq_id": "4b49043ef964a520286226e3", "categories": [{"id": 13145, "name": "Fast Food Restaurant", "icon": {"prefix": "https://ss3.4sqi.net/img/categories_v2/food/fastfood_", "suffix": ".png"}}, {"id": 13039, "name": "Deli", "icon": {"prefix": "https://ss3.4sqi.net/img/categories_v2/food/deli_", "suffix": ".png"}}], "chains": [{"id": "ab4bee40-d68a-012e-5619-003048cad9da", "name": "Subway"}], "distance": 237, "geocodes": {"main": {"latitude": 37.720976, "longitude": -122.437448}, "roof": {"latitude": 37.720976, "longitude": -122.437448}}, "link": "/v3/places/4b49043ef964a520286226e3", "location": {"address": "4841 Mission St", "census_block": "060750260041000", "country": "US", "cross_street": "at Onondaga Ave", "dma": "San Francisco-Oakland-San Jose", "formatted_address": "4841 Mission St (at Onondaga Ave), San Francisco, CA 94112", "locality": "San Francisco", "neighborhood": ["Crocker-Amazon"], "postcode": "94112", "region": "CA"}, "name": "Subway", "related_places": {}, "timezone": "America/Los_Angeles"}, {"fsq_id": "4bf4ad786a31d13aaa1d962e", "categories": [{"id": 13064, "name": "Pizzeria", "icon": {"prefix": "https://ss3.4sqi.net/img/categories_v2/food/pizza_", "suffix": ".png"}}], "chains": [], "distance": 330, "geocodes": {"main": {"latitude": 37.721812, "longitude": -122.436781}, "roof": {"latitude": 37.721812, "longitude": -122.436781}}, "link": "/v3/places/4bf4ad786a31d13aaa1d962e", "location": {"address": "4787 Mission St", "census_block": "060750260014000", "country": "US", "cross_street": "", "dma": "San Francisco-Oakland-San Jose", "formatted_address": "4787 Mission St, San Francisco, CA 94112", "locality": "San Francisco", "neighborhood": ["Bayshore"], "postcode": "94112", "region": "CA"}, "name": "North Beach Pizza", "related_places": {}, "timezone": "America/Los_Angeles"}, {"fsq_id": "55397523498e9909f3edd32d", "categories": [{"id": 13026, "name": "BBQ Joint", "icon": {"prefix": "https://ss3.4sqi.net/img/categories_v2/food/bbqalt_", "suffix": ".png"}}, {"id": 13099, "name": "Chinese Restaurant", "icon": {"prefix": "https://ss3.4sqi.net/img/categories_v2/food/asian_", "suffix": ".png"}}, {"id": 13192, "name": "Hawaiian Restaurant", "icon": {"prefix": "https://ss3.4sqi.net/img/categories_v2/food/default_", "suffix": ".png"}}], "chains": [], "distance": 130, "geocodes": {"main": {"latitude": 37.71942, "longitude": -122.438574}, "roof": {"latitude": 37.71942, "longitude": -122.438574}}, "link": "/v3/places/55397523498e9909f3edd32d", "location": {"address": "4935 Mission St", "census_block": "060750260041007", "country": "US", "cross_street": "btwn Italy Ave & Kenny Alley", "dma": "San Francisco-Oakland-San Jose", "formatted_address": "4935 Mission St (btwn Italy Ave & Kenny Alley), San Francisco, CA 94112", "locality": "San Francisco", "neighborhood": ["Crocker-Amazon"], "postcode": "94112", "region": "CA"}, "name": "Aloha BBQ", "related_places": {}, "timezone": "America/Los_Angeles"}, {"fsq_id": "4c1591807f7f2d7fe5c4e268", "categories": [{"id": 13034, "name": "Caf\u00e9", "icon": {"prefix": "https://ss3.4sqi.net/img/categories_v2/food/cafe_", "suffix": ".png"}}, {"id": 13099, "name": "Chinese Restaurant", "icon": {"prefix": "https://ss3.4sqi.net/img/categories_v2/food/asian_", "suffix": ".png"}}], "chains": [], "distance": 131, "geocodes": {"main": {"latitude": 37.719241, "longitude": -122.438778}, "roof": {"latitude": 37.719241, "longitude": -122.438778}}, "link": "/v3/places/4c1591807f7f2d7fe5c4e268", "location": {"address": "4935 Mission St", "census_block": "060750260041008", "country": "US", "cross_street": "btwn Italy Ave. & France Ave.", "dma": "San Francisco-Oakland-San Jose", "formatted_address": "4935 Mission St (btwn Italy Ave. & France Ave.), San Francisco, CA 94112", "locality": "San Francisco", "neighborhood": ["Crocker-Amazon"], "postcode": "94112", "region": "CA"}, "name": "Lin's Cafe", "related_places": {}, "timezone": "America/Los_Angeles"}, {"fsq_id": "4c6854d231ba2d7ff180f772", "categories": [{"id": 13028, "name": "Breakfast Spot", "icon": {"prefix": "https://ss3.4sqi.net/img/categories_v2/food/breakfast_", "suffix": ".png"}}], "chains": [], "distance": 134, "geocodes": {"main": {"latitude": 37.718942, "longitude": -122.439691}, "roof": {"latitude": 37.718942, "longitude": -122.439691}}, "link": "/v3/places/4c6854d231ba2d7ff180f772", "location": {"address": "Mission Street", "census_block": "060750261001006", "country": "US", "cross_street": "Italy Street", "dma": "San Francisco-Oakland-San Jose", "formatted_address": "Mission Street (Italy Street), San Francisco, CA 94112", "locality": "San Francisco", "neighborhood": ["Crocker-Amazon"], "postcode": "94112", "region": "CA"}, "name": "Kim And Elvin's B&B", "related_places": {}, "timezone": "America/Los_Angeles"}, {"fsq_id": "4fc80458e4b03c037533c9a7", "categories": [{"id": 13027, "name": "Bistro", "icon": {"prefix": "https://ss3.4sqi.net/img/categories_v2/food/default_", "suffix": ".png"}}, {"id": 13068, "name": "American Restaurant", "icon": {"prefix": "https://ss3.4sqi.net/img/categories_v2/food/default_", "suffix": ".png"}}, {"id": 13146, "name": "Filipino Restaurant", "icon": {"prefix": "https://ss3.4sqi.net/img/categories_v2/food/filipino_", "suffix": ".png"}}], "chains": [], "distance": 156, "geocodes": {"main": {"latitude": 37.718693, "longitude": -122.439533}, "roof": {"latitude": 37.718693, "longitude": -122.439533}}, "link": "/v3/places/4fc80458e4b03c037533c9a7", "location": {"address": "4994 Mission St", "census_block": "060750261001006", "country": "US", "cross_street": "", "dma": "San Francisco-Oakland-San Jose", "formatted_address": "4994 Mission St, San Francisco, CA 94112", "locality": "San Francisco", "neighborhood": ["Crocker-Amazon"], "postcode": "94112", "region": "CA"}, "name": "Kuta Bistro", "related_places": {}, "timezone": "America/Los_Angeles"}, {"fsq_id": "5169bf93e4b085f7cd5ed477", "categories": [{"id": 13297, "name": "Latin American Restaurant", "icon": {"prefix": "https://ss3.4sqi.net/img/categories_v2/food/latinamerican_", "suffix": ".png"}}, {"id": 13333, "name": "Salvadoran Restaurant", "icon": {"prefix": "https://ss3.4sqi.net/img/categories_v2/food/latinamerican_", "suffix": ".png"}}], "chains": [], "distance": 157, "geocodes": {"main": {"latitude": 37.719832, "longitude": -122.438312}, "roof": {"latitude": 37.719832, "longitude": -122.438312}}, "link": "/v3/places/5169bf93e4b085f7cd5ed477", "location": {"address": "4901 Mission St", "census_block": "060750260041007", "country": "US", "cross_street": "France", "dma": "San Francisco-Oakland-San Jose", "formatted_address": "4901 Mission St (France), San Francisco, CA 94112", "locality": "San Francisco", "neighborhood": ["Crocker-Amazon"], "postcode": "94112", "region": "CA"}, "name": "Panchitas", "related_places": {}, "timezone": "America/Los_Angeles"}, {"fsq_id": "4dd9b627ae60680f153f1372", "categories": [{"id": 13379, "name": "Vietnamese Restaurant", "icon": {"prefix": "https://ss3.4sqi.net/img/categories_v2/food/vietnamese_", "suffix": ".png"}}], "chains": [], "distance": 180, "geocodes": {"main": {"latitude": 37.718481, "longitude": -122.439306}, "roof": {"latitude": 37.718481, "longitude": -122.439306}}, "link": "/v3/places/4dd9b627ae60680f153f1372", "location": {"address": "4995 Mission St", "census_block": "060750260041008", "country": "US", "cross_street": "Italy St.", "dma": "San Francisco-Oakland-San Jose", "formatted_address": "4995 Mission St (Italy St.), San Francisco, CA 94112", "locality": "San Francisco", "neighborhood": ["Crocker-Amazon"], "postcode": "94112", "region": "CA"}, "name": "Cafe Bar Grill Vietnamese", "related_places": {}, "timezone": "America/Los_Angeles"}, {"fsq_id": "4ae3412af964a520629221e3", "categories": [{"id": 13031, "name": "Burger Joint", "icon": {"prefix": "https://ss3.4sqi.net/img/categories_v2/food/burger_", "suffix": ".png"}}, {"id": 13035, "name": "Coffee Shop", "icon": {"prefix": "https://ss3.4sqi.net/img/categories_v2/food/coffeeshop_", "suffix": ".png"}}, {"id": 13303, "name": "Mexican Restaurant", "icon": {"prefix": "https://ss3.4sqi.net/img/categories_v2/food/mexican_", "suffix": ".png"}}], "chains": [], "distance": 434, "geocodes": {"main": {"latitude": 37.716138, "longitude": -122.440027}, "roof": {"latitude": 37.716138, "longitude": -122.440027}}, "link": "/v3/places/4ae3412af964a520629221e3", "location": {"address": "951 Geneva Ave", "census_block": "060750263011007", "country": "US", "cross_street": "at London St", "dma": "San Francisco-Oakland-San Jose", "formatted_address": "951 Geneva Ave (at London St), San Francisco, CA 94112", "locality": "San Francisco", "neighborhood": ["Crocker-Amazon"], "postcode": "94112", "region": "CA"}, "name": "Claddagh Coffee", "related_places": {}, "timezone": "America/Los_Angeles"}, {"fsq_id": "4b03984ff964a520db4f22e3", "categories": [{"id": 13009, "name": "Cocktail Bar", "icon": {"prefix": "https://ss3.4sqi.net/img/categories_v2/nightlife/cocktails_", "suffix": ".png"}}, {"id": 13016, "name": "Lounge", "icon": {"prefix": "https://ss3.4sqi.net/img/categories_v2/nightlife/default_", "suffix": ".png"}}, {"id": 13065, "name": "Restaurant", "icon": {"prefix": "https://ss3.4sqi.net/img/categories_v2/food/default_", "suffix": ".png"}}], "chains": [], "distance": 472, "geocodes": {"main": {"latitude": 37.722886, "longitude": -122.436415}, "roof": {"latitude": 37.722886, "longitude": -122.436415}}, "link": "/v3/places/4b03984ff964a520db4f22e3", "location": {"address": "4704 Mission St", "census_block": "060750261001002", "country": "US", "cross_street": "at Persia Ave", "dma": "San Francisco-Oakland-San Jose", "formatted_address": "4704 Mission St (at Persia Ave), San Francisco, CA 94112", "locality": "San Francisco", "neighborhood": ["Bayshore"], "postcode": "94112", "region": "CA"}, "name": "Bottoms Up Bar & Lounge", "related_places": {}, "timezone": "America/Los_Angeles"}, {"fsq_id": "6085c4da94b1336604ce0634", "categories": [{"id": 13002, "name": "Bakery", "icon": {"prefix": "https://ss3.4sqi.net/img/categories_v2/food/bakery_", "suffix": ".png"}}], "chains": [], "distance": 238, "geocodes": {"main": {"latitude": 37.720766, "longitude": -122.437444}}, "link": "/v3/places/6085c4da94b1336604ce0634", "location": {"address": "4845 Mission St", "country": "US", "cross_street": "", "dma": "San Francisco-Oakland-San Jose", "formatted_address": "4845 Mission St, San Francisco, CA 94112", "locality": "San Francisco", "neighborhood": ["Crocker-Amazon"], "postcode": "94112", "region": "CA"}, "name": "Heavenly Bakery", "related_places": {}, "timezone": "America/Los_Angeles"}, {"fsq_id": "4ad9272df964a5209f1821e3", "categories": [{"id": 13026, "name": "BBQ Joint", "icon": {"prefix": "https://ss3.4sqi.net/img/categories_v2/food/bbqalt_", "suffix": ".png"}}, {"id": 13031, "name": "Burger Joint", "icon": {"prefix": "https://ss3.4sqi.net/img/categories_v2/food/burger_", "suffix": ".png"}}, {"id": 13146, "name": "Filipino Restaurant", "icon": {"prefix": "https://ss3.4sqi.net/img/categories_v2/food/filipino_", "suffix": ".png"}}], "chains": [], "distance": 263, "geocodes": {"main": {"latitude": 37.721394, "longitude": -122.437545}, "roof": {"latitude": 37.721394, "longitude": -122.437545}}, "link": "/v3/places/4ad9272df964a5209f1821e3", "location": {"address": "4794 Mission St", "census_block": "060750261001007", "country": "US", "cross_street": "", "dma": "San Francisco-Oakland-San Jose", "formatted_address": "4794 Mission St, San Francisco, CA 94112", "locality": "San Francisco", "neighborhood": ["Crocker-Amazon"], "postcode": "94112", "region": "CA"}, "name": "Kadoks", "related_places": {}, "timezone": "America/Los_Angeles"}, {"fsq_id": "4ce8842bd99f721e032db173", "categories": [{"id": 13064, "name": "Pizzeria", "icon": {"prefix": "https://ss3.4sqi.net/img/categories_v2/food/pizza_", "suffix": ".png"}}, {"id": 13236, "name": "Italian Restaurant", "icon": {"prefix": "https://ss3.4sqi.net/img/categories_v2/food/italian_", "suffix": ".png"}}], "chains": [], "distance": 310, "geocodes": {"main": {"latitude": 37.717272, "longitude": -122.440166}, "roof": {"latitude": 37.717272, "longitude": -122.440166}}, "link": "/v3/places/4ce8842bd99f721e032db173", "location": {"address": "5099 Mission St", "census_block": "060750260041009", "country": "US", "cross_street": "", "dma": "San Francisco-Oakland-San Jose", "formatted_address": "5099 Mission St, San Francisco, CA 94112", "locality": "San Francisco", "neighborhood": ["Crocker-Amazon"], "postcode": "94112", "region": "CA"}, "name": "Roma Pizzeria", "related_places": {}, "timezone": "America/Los_Angeles"}, {"fsq_id": "4a9ef404f964a520ec3b20e3", "categories": [{"id": 13297, "name": "Latin American Restaurant", "icon": {"prefix": "https://ss3.4sqi.net/img/categories_v2/food/latinamerican_", "suffix": ".png"}}, {"id": 13303, "name": "Mexican Restaurant", "icon": {"prefix": "https://ss3.4sqi.net/img/categories_v2/food/mexican_", "suffix": ".png"}}, {"id": 13333, "name": "Salvadoran Restaurant", "icon": {"prefix": "https://ss3.4sqi.net/img/categories_v2/food/latinamerican_", "suffix": ".png"}}], "chains": [], "distance": 313, "geocodes": {"main": {"latitude": 37.717266, "longitude": -122.440667}, "roof": {"latitude": 37.717266, "longitude": -122.440667}}, "link": "/v3/places/4a9ef404f964a520ec3b20e3", "location": {"address": "5080 Mission St", "census_block": "060750261002002", "country": "US", "cross_street": "", "dma": "San Francisco-Oakland-San Jose", "formatted_address": "5080 Mission St, San Francisco, CA 94112", "locality": "San Francisco", "neighborhood": ["Crocker-Amazon"], "postcode": "94112", "region": "CA"}, "name": "Rincon Latino", "related_places": {}, "timezone": "America/Los_Angeles"}, {"fsq_id": "4ac81456f964a5208cbb20e3", "categories": [{"id": 13145, "name": "Fast Food Restaurant", "icon": {"prefix": "https://ss3.4sqi.net/img/categories_v2/food/fastfood_", "suffix": ".png"}}, {"id": 13068, "name": "American Restaurant", "icon": {"prefix": "https://ss3.4sqi.net/img/categories_v2/food/default_", "suffix": ".png"}}], "chains": [{"id": "16e41ab0-992b-0132-fd75-7a163eb2a6fc", "name": "Popeyes Louisiana Kitchen"}], "distance": 399, "geocodes": {"main": {"latitude": 37.716468, "longitude": -122.441264}, "roof": {"latitude": 37.716468, "longitude": -122.441264}}, "link": "/v3/places/4ac81456f964a5208cbb20e3", "location": {"address": "890 Geneva Ave", "census_block": "060750261002003", "country": "US", "cross_street": "at Mission St", "dma": "San Francisco-Oakland-San Jose", "formatted_address": "890 Geneva Ave (at Mission St), San Francisco, CA 94112", "locality": "San Francisco", "neighborhood": ["Crocker-Amazon"], "postcode": "94112", "region": "CA"}, "name": "Popeyes Louisiana Kitchen", "related_places": {}, "timezone": "America/Los_Angeles"}, {"fsq_id": "5f25b8aed2f1f83020f60ec7", "categories": [{"id": 13303, "name": "Mexican Restaurant", "icon": {"prefix": "https://ss3.4sqi.net/img/categories_v2/food/mexican_", "suffix": ".png"}}], "chains": [], "distance": 339, "geocodes": {"main": {"latitude": 37.721617, "longitude": -122.43677}, "roof": {"latitude": 37.721617, "longitude": -122.43677}}, "link": "/v3/places/5f25b8aed2f1f83020f60ec7", "location": {"address": "4791 Mission St", "census_block": "060750260014000", "country": "US", "cross_street": "", "dma": "San Francisco-Oakland-San Jose", "formatted_address": "4791 Mission St, San Francisco, CA 94112", "locality": "San Francisco", "neighborhood": ["Bayshore"], "postcode": "94112", "region": "CA"}, "name": "Ocean Taqueria", "related_places": {}, "timezone": "America/Los_Angeles"}, {"fsq_id": "4c45bcd274ffc928925377cc", "categories": [{"id": 13001, "name": "Bagel Shop", "icon": {"prefix": "https://ss3.4sqi.net/img/categories_v2/food/bagels_", "suffix": ".png"}}, {"id": 13043, "name": "Donut Shop", "icon": {"prefix": "https://ss3.4sqi.net/img/categories_v2/food/donuts_", "suffix": ".png"}}, {"id": 13145, "name": "Fast Food Restaurant", "icon": {"prefix": "https://ss3.4sqi.net/img/categories_v2/food/fastfood_", "suffix": ".png"}}], "chains": [], "distance": 342, "geocodes": {"main": {"latitude": 37.717027, "longitude": -122.440366}, "roof": {"latitude": 37.717027, "longitude": -122.440366}}, "link": "/v3/places/4c45bcd274ffc928925377cc", "location": {"address": "5101 Mission St", "census_block": "060750263011008", "country": "US", "cross_street": "at Amazon Ave.", "dma": "San Francisco-Oakland-San Jose", "formatted_address": "5101 Mission St (at Amazon Ave.), San Francisco, CA 94112", "locality": "San Francisco", "neighborhood": ["Crocker-Amazon"], "postcode": "94112", "region": "CA"}, "name": "Western Donut Shop", "related_places": {}, "timezone": "America/Los_Angeles"}, {"fsq_id": "54d84575498e446845ad37d4", "categories": [{"id": 13099, "name": "Chinese Restaurant", "icon": {"prefix": "https://ss3.4sqi.net/img/categories_v2/food/asian_", "suffix": ".png"}}], "chains": [], "distance": 364, "geocodes": {"main": {"latitude": 37.716859, "longitude": -122.440428}, "roof": {"latitude": 37.716859, "longitude": -122.440428}}, "link": "/v3/places/54d84575498e446845ad37d4", "location": {"address": "5125 Mission St", "census_block": "060750263011008", "country": "US", "cross_street": "", "dma": "San Francisco-Oakland-San Jose", "formatted_address": "5125 Mission St, San Francisco, CA 94112", "locality": "San Francisco", "neighborhood": ["Crocker-Amazon"], "postcode": "94112", "region": "CA"}, "name": "Ying Hui Chinese Restaurant", "related_places": {}, "timezone": "America/Los_Angeles"}, {"fsq_id": "4a917817f964a5204a1a20e3", "categories": [{"id": 13002, "name": "Bakery", "icon": {"prefix": "https://ss3.4sqi.net/img/categories_v2/food/bakery_", "suffix": ".png"}}, {"id": 13065, "name": "Restaurant", "icon": {"prefix": "https://ss3.4sqi.net/img/categories_v2/food/default_", "suffix": ".png"}}], "chains": [], "distance": 365, "geocodes": {"main": {"latitude": 37.721812, "longitude": -122.436781}, "roof": {"latitude": 37.721812, "longitude": -122.436781}}, "link": "/v3/places/4a917817f964a5204a1a20e3", "location": {"address": "4773 Mission St", "census_block": "060750260014000", "country": "US", "cross_street": "btwn Persia Ave. & Russia Ave.", "dma": "San Francisco-Oakland-San Jose", "formatted_address": "4773 Mission St (btwn Persia Ave. & Russia Ave.), San Francisco, CA 94112", "locality": "San Francisco", "neighborhood": ["Bayshore"], "postcode": "94112", "region": "CA"}, "name": "Royal Bakery", "related_places": {}, "timezone": "America/Los_Angeles"}, {"fsq_id": "4d0ed2065b8a8cfa0c8fec83", "categories": [{"id": 13297, "name": "Latin American Restaurant", "icon": {"prefix": "https://ss3.4sqi.net/img/categories_v2/food/latinamerican_", "suffix": ".png"}}, {"id": 13333, "name": "Salvadoran Restaurant", "icon": {"prefix": "https://ss3.4sqi.net/img/categories_v2/food/latinamerican_", "suffix": ".png"}}], "chains": [], "distance": 365, "geocodes": {"main": {"latitude": 37.721991, "longitude": -122.436577}, "roof": {"latitude": 37.721991, "longitude": -122.436577}}, "link": "/v3/places/4d0ed2065b8a8cfa0c8fec83", "location": {"address": "4769 Mission St", "census_block": "060750260014000", "country": "US", "cross_street": "btw Leo St & Russia Ave", "dma": "San Francisco-Oakland-San Jose", "formatted_address": "4769 Mission St (btw Leo St & Russia Ave), San Francisco, CA 94112", "locality": "San Francisco", "neighborhood": ["Bayshore"], "postcode": "94112", "region": "CA"}, "name": "Pupuseria Metapan", "related_places": {}, "timezone": "America/Los_Angeles"}, {"fsq_id": "4dc9dd392271a5cb223f30c3", "categories": [{"id": 13099, "name": "Chinese Restaurant", "icon": {"prefix": "https://ss3.4sqi.net/img/categories_v2/food/asian_", "suffix": ".png"}}, {"id": 13145, "name": "Fast Food Restaurant", "icon": {"prefix": "https://ss3.4sqi.net/img/categories_v2/food/fastfood_", "suffix": ".png"}}], "chains": [], "distance": 365, "geocodes": {"main": {"latitude": 37.716859, "longitude": -122.440428}, "roof": {"latitude": 37.716859, "longitude": -122.440428}}, "link": "/v3/places/4dc9dd392271a5cb223f30c3", "location": {"address": "5125 Mission St", "census_block": "060750263011008", "country": "US", "cross_street": "btwn Amazon Ave. & Geneva Ave.", "dma": "San Francisco-Oakland-San Jose", "formatted_address": "5125 Mission St (btwn Amazon Ave. & Geneva Ave.), San Francisco, CA 94112", "locality": "San Francisco", "neighborhood": ["Crocker-Amazon"], "postcode": "94112", "region": "CA"}, "name": "Wally's Restaurant", "related_places": {}, "timezone": "America/Los_Angeles"}, {"fsq_id": "5ce8af4c2a7ab6002c6bc236", "categories": [{"id": 13034, "name": "Caf\u00e9", "icon": {"prefix": "https://ss3.4sqi.net/img/categories_v2/food/cafe_", "suffix": ".png"}}, {"id": 13040, "name": "Dessert Shop", "icon": {"prefix": "https://ss3.4sqi.net/img/categories_v2/food/dessert_", "suffix": ".png"}}, {"id": 13379, "name": "Vietnamese Restaurant", "icon": {"prefix": "https://ss3.4sqi.net/img/categories_v2/food/vietnamese_", "suffix": ".png"}}], "chains": [], "distance": 375, "geocodes": {"main": {"latitude": 37.716734, "longitude": -122.441638}, "roof": {"latitude": 37.716734, "longitude": -122.441638}}, "link": "/v3/places/5ce8af4c2a7ab6002c6bc236", "location": {"address": "880 Geneva Ave", "census_block": "060750261002003", "country": "US", "cross_street": "Mission St.", "dma": "San Francisco-Oakland-San Jose", "formatted_address": "880 Geneva Ave (Mission St.), San Francisco, CA 94112", "locality": "San Francisco", "neighborhood": ["Crocker-Amazon"], "postcode": "94112", "region": "CA"}, "name": "Teazzert Pho You", "related_places": {"parent": {"fsq_id": "517dd1e6e4b060f529f68c7d", "name": "Pho Nice Vietnamese Restaurant"}}, "timezone": "America/Los_Angeles"}, {"fsq_id": "4f1f7042e4b0fa52e434a353", "categories": [{"id": 13002, "name": "Bakery", "icon": {"prefix": "https://ss3.4sqi.net/img/categories_v2/food/bakery_", "suffix": ".png"}}, {"id": 13035, "name": "Coffee Shop", "icon": {"prefix": "https://ss3.4sqi.net/img/categories_v2/food/coffeeshop_", "suffix": ".png"}}, {"id": 13334, "name": "Sandwich Restaurant", "icon": {"prefix": "https://ss3.4sqi.net/img/categories_v2/food/deli_", "suffix": ".png"}}], "chains": [], "distance": 378, "geocodes": {"main": {"latitude": 37.716577, "longitude": -122.440697}, "roof": {"latitude": 37.716577, "longitude": -122.440697}}, "link": "/v3/places/4f1f7042e4b0fa52e434a353", "location": {"address": "5131 Mission St", "census_block": "060750263011008", "country": "US", "cross_street": "Geneva Ave", "dma": "San Francisco-Oakland-San Jose", "formatted_address": "5131 Mission St (Geneva Ave), San Francisco, CA 94112", "locality": "San Francisco", "neighborhood": ["Crocker-Amazon"], "postcode": "94112", "region": "CA"}, "name": "McGarden Bakery", "related_places": {}, "timezone": "America/Los_Angeles"}, {"fsq_id": "4bab9f89f964a52036ba3ae3", "categories": [{"id": 13039, "name": "Deli", "icon": {"prefix": "https://ss3.4sqi.net/img/categories_v2/food/deli_", "suffix": ".png"}}], "chains": [], "distance": 381, "geocodes": {"main": {"latitude": 37.722018, "longitude": -122.43665}, "roof": {"latitude": 37.722018, "longitude": -122.43665}}, "link": "/v3/places/4bab9f89f964a52036ba3ae3", "location": {"address": "4763 Mission St", "census_block": "060750260014000", "country": "US", "cross_street": "btwn Russia Ave. & Persia Ave.", "dma": "San Francisco-Oakland-San Jose", "formatted_address": "4763 Mission St (btwn Russia Ave. & Persia Ave.), San Francisco, CA 94112", "locality": "San Francisco", "neighborhood": ["Bayshore"], "postcode": "94112", "region": "CA"}, "name": "Sorrento Delicatessen", "related_places": {}, "timezone": "America/Los_Angeles"}, {"fsq_id": "4e4d4ab1bd413c4cc66ff7ce", "categories": [{"id": 13303, "name": "Mexican Restaurant", "icon": {"prefix": "https://ss3.4sqi.net/img/categories_v2/food/mexican_", "suffix": ".png"}}, {"id": 13338, "name": "Seafood Restaurant", "icon": {"prefix": "https://ss3.4sqi.net/img/categories_v2/food/seafood_", "suffix": ".png"}}], "chains": [], "distance": 397, "geocodes": {"main": {"latitude": 37.716539, "longitude": -122.440767}, "roof": {"latitude": 37.716539, "longitude": -122.440767}}, "link": "/v3/places/4e4d4ab1bd413c4cc66ff7ce", "location": {"address": "901 Geneva Ave", "census_block": "060750263011008", "country": "US", "dma": "San Francisco-Oakland-San Jose", "formatted_address": "901 Geneva Ave, San Francisco, CA 94112", "locality": "San Francisco", "neighborhood": ["Crocker-Amazon"], "postcode": "94112", "region": "CA"}, "name": "Las Casuelas", "related_places": {}, "timezone": "America/Los_Angeles"}, {"fsq_id": "57a0e3b3498eda89ed033dcd", "categories": [{"id": 13068, "name": "American Restaurant", "icon": {"prefix": "https://ss3.4sqi.net/img/categories_v2/food/default_", "suffix": ".png"}}, {"id": 13383, "name": "Steakhouse", "icon": {"prefix": "https://ss3.4sqi.net/img/categories_v2/food/steakhouse_", "suffix": ".png"}}], "chains": [], "distance": 409, "geocodes": {"main": {"latitude": 37.716468, "longitude": -122.441264}, "roof": {"latitude": 37.716468, "longitude": -122.441264}}, "link": "/v3/places/57a0e3b3498eda89ed033dcd", "location": {"address": "5130 Mission St", "census_block": "060750261002003", "country": "US", "cross_street": "", "dma": "San Francisco-Oakland-San Jose", "formatted_address": "5130 Mission St, San Francisco, CA 94112", "locality": "San Francisco", "neighborhood": ["Crocker-Amazon"], "postcode": "94112", "region": "CA"}, "name": "Geneva Steak", "related_places": {}, "timezone": "America/Los_Angeles"}], "context": {"geo_bounds": {"circle": {"center": {"latitude": 37.72, "longitude": -122.44}, "radius": 500}}}}