{"results": [{"fsq_id": "5272781811d2ce55eb5981df", "categories": [{"id": 13002, "name": "Bakery", "icon": {"prefix": "https://ss3.4sqi.net/img/categories_v2/food/bakery_", "suffix": ".png"}}, {"id": 13065, "name": "Restaurant", "icon": {"prefix": "https://ss3.4sqi.net/img/categories_v2/food/default_", "suffix": ".png"}}], "chains": [], "distance": 158, "geocodes": {"main": {"latitude": 37.759732, "longitude": -122.388215}, "roof": {"latitude": 37.759732, "longitude": -122.388215}}, "link": "/v3/places/5272781811d2ce55eb5981df", "location": {"address": "2343 3rd St", "census_block": "060750226001000", "country": "US", "cross_street": "at 20th St", "dma": "San Francisco-Oakland-San Jose", "formatted_address": "2343 3rd St (at 20th St), San Francisco, CA 94107", "locality": "San Francisco", "neighborhood": ["Central Waterfront"], "postcode": "94107", "region": "CA"}, "name": "Neighbor Bakehouse", "related_places": {}, "timezone": "America/Los_Angeles"}, {"fsq_id": "52fa76e6498ee6bf78da4fc1", "categories": [{"id": 13064, "name": "Pizzeria", "icon": {"prefix": "https://ss3.4sqi.net/img/categories_v2/food/pizza_", "suffix": ".png"}}], "chains": [], "distance": 158, "geocodes": {"main": {"latitude": 37.759667, "longitude": -122.388211}, "roof": {"latitude": 37.759667, "longitude": -122.388211}}, "link": "/v3/places/52fa76e6498ee6bf78da4fc1", "location": {"address": "2347 3rd St", "census_block": "060750226001000", "country": "US", "cross_street": "btwn 22nd St & 20th St", "dma": "San Francisco-Oakland-San Jose", "formatted_address": "2347 3rd St (btwn 22nd St & 20th St), San Francisco, CA 94107", "locality": "San Francisco", "neighborhood": ["Central Waterfront"], "postcode": "94107", "region": "CA"}, "name": "Long Bridge Pizza Co", "related_places": {}, "timezone": "America/Los_Angeles"}, {"fsq_id": "5aa43078829b0c28375e513b", "categories": [{"id": 13032, "name": "Cafes, Coffee, and Tea Houses", "icon": {"prefix": "https://ss3.4sqi.net/img/categories_v2/food/default_", "suffix": ".png"}}, {"id": 13072, "name": "Asian Restaurant", "icon": {"prefix": "https://ss3.4sqi.net/img/categories_v2/food/asian_", "suffix": ".png"}}, {"id": 13334, "name": "Sandwich Restaurant", "icon": {"prefix": "https://ss3.4sqi.net/img/categories_v2/food/deli_", "suffix": ".png"}}], "chains": [], "distance": 152, "geocodes": {"main": {"latitude": 37.760643, "longitude": -122.388268}, "roof": {"latitude": 37.760643, "longitude": -122.388268}}, "link": "/v3/places/5aa43078829b0c28375e513b", "location": {"address": "2295 3rd St", "census_block": "060750226002011", "country": "US", "cross_street": "at 20th St", "dma": "San Francisco-Oakland-San Jose", "formatted_address": "2295 3rd St (at 20th St), San Francisco, CA 94107", "locality": "San Francisco", "neighborhood": ["Central Waterfront"], "postcode": "94107", "region": "CA"}, "name": "Wooly Pig", "related_places": {}, "timezone": "America/Los_Angeles"}, {"fsq_id": "52a67af3498ef4359edd85f4", "categories": [{"id": 13009, "name": "Cocktail Bar", "icon": {"prefix": "https://ss3.4sqi.net/img/categories_v2/nightlife/cocktails_", "suffix": ".png"}}, {"id": 13065, "name": "Restaurant", "icon": {"prefix": "https://ss3.4sqi.net/img/categories_v2/food/default_", "suffix": ".png"}}], "chains": [], "distance": 164, "geocodes": {"main": {"latitude": 37.760665, "longitude": -122.387983}, "roof": {"latitude": 37.760665, "longitude": -122.387983}}, "link": "/v3/places/52a67af3498ef4359edd85f4", "location": {"address": "628 20th St", "census_block": "060750226002011", "country": "US", "cross_street": "at 3rd St", "dma": "San Francisco-Oakland-San Jose", "formatted_address": "628 20th St (at 3rd St), San Francisco, CA 94107", "locality": "San Francisco", "neighborhood": ["Central Waterfront"], "postcode": "94107", "region": "CA"}, "name": "Third Rail", "related_places": {}, "timezone": "America/Los_Angeles"}, {"fsq_id": "4f8b1e6bbe77b15e3ac57be0", "categories": [{"id": 13236, "name": "Italian Restaurant", "icon": {"prefix": "https://ss3.4sqi.net/img/categories_v2/food/italian_", "suffix": ".png"}}], "chains": [], "distance": 232, "geocodes": {"main": {"latitude": 37.758095, "longitude": -122.389122}, "roof": {"latitude": 37.758095, "longitude": -122.389122}}, "link": "/v3/places/4f8b1e6bbe77b15e3ac57be0", "location": {"address": "1099 Tennessee St", "census_block": "060750226001001", "country": "US", "cross_street": "at 22nd St", "dma": "San Francisco-Oakland-San Jose", "formatted_address": "1099 Tennessee St (at 22nd St), San Francisco, CA 94107", "locality": "San Francisco", "neighborhood": ["Central Waterfront"], "postcode": "94107", "region": "CA"}, "name": "Marcella's Lasagneria & Cucina", "related_places": {}, "timezone": "America/Los_Angeles"}, {"fsq_id": "5a2a0e714b78c5232ff48747", "categories": [{"id": 13025, "name": "Wine Bar", "icon": {"prefix": "https://ss3.4sqi.net/img/categories_v2/food/winery_", "suffix": ".png"}}, {"id": 13068, "name": "American Restaurant", "icon": {"prefix": "https://ss3.4sqi.net/img/categories_v2/food/default_", "suffix": ".png"}}, {"id": 13347, "name": "Tapas Restaurant", "icon": {"prefix": "https://ss3.4sqi.net/img/categories_v2/food/tapas_", "suffix": ".png"}}], "chains": [], "distance": 188, "geocodes": {"main": {"latitude": 37.759119, "longitude": -122.388107}, "roof": {"latitude": 37.759119, "longitude": -122.388107}}, "link": "/v3/places/5a2a0e714b78c5232ff48747", "location": {"address": "2419 3rd St", "census_block": "060750226001000", "country": "US", "cross_street": "", "dma": "San Francisco-Oakland-San Jose", "formatted_address": "2419 3rd St, San Francisco, CA 94107", "locality": "San Francisco", "neighborhood": ["Central Waterfront"], "postcode": "94107", "region": "CA"}, "name": "Ungrafted", "related_places": {}, "timezone": "America/Los_Angeles"}, {"fsq_id": "50d4e073e4b05cc5cff67c78", "categories": [{"id": 13002, "name": "Bakery", "icon": {"prefix": "https://ss3.4sqi.net/img/categories_v2/food/bakery_", "suffix": ".png"}}, {"id": 13039, "name": "Deli", "icon": {"prefix": "https://ss3.4sqi.net/img/categories_v2/food/deli_", "suffix": ".png"}}, {"id": 13334, "name": "Sandwich Restaurant", "icon": {"prefix": "https://ss3.4sqi.net/img/categories_v2/food/deli_", "suffix": ".png"}}], "chains": [], "distance": 190, "geocodes": {"main": {"latitude": 37.758821, "longitude": -122.388161}, "roof": {"latitude": 37.758821, "longitude": -122.388161}}, "link": "/v3/places/50d4e073e4b05cc5cff67c78", "location": {"address": "2425 3rd St", "census_block": "060750226001000", "country": "US", "cross_street": "Tennessee St", "dma": "San Francisco-Oakland-San Jose", "formatted_address": "2425 3rd St (Tennessee St), San Francisco, CA 94107", "locality": "San Francisco", "neighborhood": ["Central Waterfront"], "postcode": "94107", "region": "CA"}, "name": "La Fromagerie", "related_places": {}, "timezone": "America/Los_Angeles"}, {"fsq_id": "4a6f9b3af964a52097d61fe3", "categories": [{"id": 13064, "name": "Pizzeria", "icon": {"prefix": "https://ss3.4sqi.net/img/categories_v2/food/pizza_", "suffix": ".png"}}, {"id": 13236, "name": "Italian Restaurant", "icon": {"prefix": "https://ss3.4sqi.net/img/categories_v2/food/italian_", "suffix": ".png"}}], "chains": [], "distance": 251, "geocodes": {"main": {"latitude": 37.757704, "longitude": -122.389959}, "roof": {"latitude": 37.757704, "longitude": -122.389959}}, "link": "/v3/places/4a6f9b3af964a52097d61fe3", "location": {"address": "1001 Minnesota St", "census_block": "060750226001006", "country": "US", "cross_street": "at 22nd St", "dma": "San Francisco-Oakland-San Jose", "formatted_address": "1001 Minnesota St (at 22nd St), San Francisco, CA 94107", "locality": "San Francisco", "neighborhood": ["Central Waterfront"], "postcode": "94107", "region": "CA"}, "name": "Piccino", "related_places": {}, "timezone": "America/Los_Angeles"}, {"fsq_id": "43dc10aef964a5209a2e1fe3", "categories": [{"id": 13068, "name": "American Restaurant", "icon": {"prefix": "https://ss3.4sqi.net/img/categories_v2/food/default_", "suffix": ".png"}}, {"id": 13095, "name": "Cajun / Creole Restaurant", "icon": {"prefix": "https://ss3.4sqi.net/img/categories_v2/food/cajun_", "suffix": ".png"}}], "chains": [], "distance": 245, "geocodes": {"main": {"latitude": 37.758051, "longitude": -122.388833}, "roof": {"latitude": 37.758051, "longitude": -122.388833}}, "link": "/v3/places/43dc10aef964a5209a2e1fe3", "location": {"address": "732 22nd St", "census_block": "060750226001001", "country": "US", "cross_street": "btwn Tennessee & 3rd St", "dma": "San Francisco-Oakland-San Jose", "formatted_address": "732 22nd St (btwn Tennessee & 3rd St), San Francisco, CA 94107", "locality": "San Francisco", "neighborhood": ["Central Waterfront"], "postcode": "94107", "region": "CA"}, "name": "Just For You Cafe", "related_places": {}, "timezone": "America/Los_Angeles"}, {"fsq_id": "47970b1ff964a5205d4d1fe3", "categories": [{"id": 13009, "name": "Cocktail Bar", "icon": {"prefix": "https://ss3.4sqi.net/img/categories_v2/nightlife/cocktails_", "suffix": ".png"}}, {"id": 13022, "name": "Sports Bar", "icon": {"prefix": "https://ss3.4sqi.net/img/categories_v2/nightlife/sportsbar_", "suffix": ".png"}}, {"id": 13068, "name": "American Restaurant", "icon": {"prefix": "https://ss3.4sqi.net/img/categories_v2/food/default_", "suffix": ".png"}}], "chains": [], "distance": 260, "geocodes": {"main": {"latitude": 37.758035, "longitude": -122.388617}, "roof": {"latitude": 37.758035, "longitude": -122.388617}}, "link": "/v3/places/47970b1ff964a5205d4d1fe3", "location": {"address": "2496 3rd St", "census_block": "060750226001001", "country": "US", "cross_street": "at 22nd St", "dma": "San Francisco-Oakland-San Jose", "formatted_address": "2496 3rd St (at 22nd St), San Francisco, CA 94107", "locality": "San Francisco", "neighborhood": ["Central Waterfront"], "postcode": "94107", "region": "CA"}, "name": "Dogpatch Saloon", "related_places": {}, "timezone": "America/Los_Angeles"}, {"fsq_id": "4bf313f7370e76b0c956bd4a", "categories": [{"id": 13046, "name": "Ice Cream Parlor", "icon": {"prefix": "https://ss3.4sqi.net/img/categories_v2/food/icecream_", "suffix": ".png"}}, {"id": 13065, "name": "Restaurant", "icon": {"prefix": "https://ss3.4sqi.net/img/categories_v2/food/default_", "suffix": ".png"}}], "chains": [], "distance": 291, "geocodes": {"main": {"latitude": 37.75778, "longitude": -122.3881}, "roof": {"latitude": 37.75778, "longitude": -122.3881}}, "link": "/v3/places/4bf313f7370e76b0c956bd4a", "location": {"address": "699 22nd St", "census_block": "060750226001008", "country": "US", "cross_street": "at 3rd St", "dma": "San Francisco-Oakland-San Jose", "formatted_address": "699 22nd St (at 3rd St), San Francisco, CA 94107", "locality": "San Francisco", "neighborhood": ["Central Waterfront"], "postcode": "94107", "region": "CA"}, "name": "Mr. & Mrs. Miscellaneous", "related_places": {}, "timezone": "America/Los_Angeles"}, {"fsq_id": "46840627f964a5202d481fe3", "categories": [{"id": 13026, "name": "BBQ Joint", "icon": {"prefix": "https://ss3.4sqi.net/img/categories_v2/food/bbqalt_", "suffix": ".png"}}, {"id": 13068, "name": "American Restaurant", "icon": {"prefix": "https://ss3.4sqi.net/img/categories_v2/food/default_", "suffix": ".png"}}, {"id": 13344, "name": "Southern / Soul Food Restaurant", "icon": {"prefix": "https://ss3.4sqi.net/img/categories_v2/food/southern_", "suffix": ".png"}}], "chains": [], "distance": 308, "geocodes": {"main": {"latitude": 37.757422, "longitude": -122.388509}, "roof": {"latitude": 37.757422, "longitude": -122.388509}}, "link": "/v3/places/46840627f964a5202d481fe3", "location": {"address": "2526 3rd St", "census_block": "060750226001007", "country": "US", "cross_street": "at 22nd St", "dma": "San Francisco-Oakland-San Jose", "formatted_address": "2526 3rd St (at 22nd St), San Francisco, CA 94107", "locality": "San Francisco", "neighborhood": ["Central Waterfront"], "postcode": "94107", "region": "CA"}, "name": "Hard Knox Cafe", "related_places": {}, "timezone": "America/Los_Angeles"}, {"fsq_id": "49c7d2bbf964a520c7571fe3", "categories": [{"id": 13002, "name": "Bakery", "icon": {"prefix": "https://ss3.4sqi.net/img/categories_v2/food/bakery_", "suffix": ".png"}}, {"id": 13068, "name": "American Restaurant", "icon": {"prefix": "https://ss3.4sqi.net/img/categories_v2/food/default_", "suffix": ".png"}}, {"id": 13303, "name": "Mexican Restaurant", "icon": {"prefix": "https://ss3.4sqi.net/img/categories_v2/food/mexican_", "suffix": ".png"}}], "chains": [], "distance": 179, "geocodes": {"main": {"latitude": 37.760068, "longitude": -122.388091}, "roof": {"latitude": 37.760068, "longitude": -122.388091}}, "link": "/v3/places/49c7d2bbf964a520c7571fe3", "location": {"address": "2325 3rd St", "census_block": "060750226001000", "country": "US", "cross_street": "20th", "dma": "San Francisco-Oakland-San Jose", "formatted_address": "2325 3rd St (20th), San Francisco, CA 94107", "locality": "San Francisco", "neighborhood": ["Central Waterfront"], "postcode": "94107", "region": "CA"}, "name": "Jolt N Bolt", "related_places": {}, "timezone": "America/Los_Angeles"}, {"fsq_id": "53583898498e7059d4ce6206", "categories": [{"id": 13009, "name": "Cocktail Bar", "icon": {"prefix": "https://ss3.4sqi.net/img/categories_v2/nightlife/cocktails_", "suffix": ".png"}}, {"id": 13338, "name": "Seafood Restaurant", "icon": {"prefix": "https://ss3.4sqi.net/img/categories_v2/food/seafood_", "suffix": ".png"}}], "chains": [], "distance": 154, "geocodes": {"main": {"latitude": 37.76067, "longitude": -122.388342}, "roof": {"latitude": 37.76067, "longitude": -122.388342}}, "link": "/v3/places/53583898498e7059d4ce6206", "location": {"address": "2289 3rd St", "census_block": "060750226002011", "country": "US", "cross_street": "at 20th St", "dma": "San Francisco-Oakland-San Jose", "formatted_address": "2289 3rd St (at 20th St), San Francisco, CA 94107", "locality": "San Francisco", "neighborhood": ["Central Waterfront"], "postcode": "94107", "region": "CA"}, "name": "Sea Star", "related_places": {}, "timezone": "America/Los_Angeles"}, {"fsq_id": "5add271ea795bd5ffaea4105", "categories": [{"id": 13009, "name": "Cocktail Bar", "icon": {"prefix": "https://ss3.4sqi.net/img/categories_v2/nightlife/cocktails_", "suffix": ".png"}}, {"id": 13297, "name": "Latin American Restaurant", "icon": {"prefix": "https://ss3.4sqi.net/img/categories_v2/food/latinamerican_", "suffix": ".png"}}, {"id": 13303, "name": "Mexican Restaurant", "icon": {"prefix": "https://ss3.4sqi.net/img/categories_v2/food/mexican_", "suffix": ".png"}}], "chains": [], "distance": 200, "geocodes": {"main": {"latitude": 37.761527, "longitude": -122.389109}, "roof": {"latitude": 37.761527, "longitude": -122.389109}}, "link": "/v3/places/5add271ea795bd5ffaea4105", "location": {"address": "601 19th St", "census_block": "060750226002012", "country": "US", "cross_street": "", "dma": "San Francisco-Oakland-San Jose", "formatted_address": "601 19th St, San Francisco, CA 94107", "locality": "San Francisco", "neighborhood": ["Central Waterfront"], "postcode": "94107", "region": "CA"}, "name": "School Night", "related_places": {"parent": {"fsq_id": "572aa1f2498ea7e4be7d1aaf", "name": "The Pearl"}}, "timezone": "America/Los_Angeles"}, {"fsq_id": "44d3809ef964a52046361fe3", "categories": [{"id": 13025, "name": "Wine Bar", "icon": {"prefix": "https://ss3.4sqi.net/img/categories_v2/food/winery_", "suffix": ".png"}}, {"id": 13065, "name": "Restaurant", "icon": {"prefix": "https://ss3.4sqi.net/img/categories_v2/food/default_", "suffix": ".png"}}], "chains": [], "distance": 242, "geocodes": {"main": {"latitude": 37.7581, "longitude": -122.388621}, "roof": {"latitude": 37.7581, "longitude": -122.388621}}, "link": "/v3/places/44d3809ef964a52046361fe3", "location": {"address": "2490 3rd St", "census_block": "060750226001001", "country": "US", "cross_street": "at 22nd St", "dma": "San Francisco-Oakland-San Jose", "formatted_address": "2490 3rd St (at 22nd St), San Francisco, CA 94107", "locality": "San Francisco", "neighborhood": ["Central Waterfront"], "postcode": "94107", "region": "CA"}, "name": "Yield Wine Bar", "related_places": {"children": [{"fsq_id": "61ec41e25d9050173ae5cda4", "name": "Margaritas Coffee"}]}, "timezone": "America/Los_Angeles"}, {"fsq_id": "4ea18fc0b8f7e4911e3c42ae", "categories": [{"id": 13046, "name": "Ice Cream Parlor", "icon": {"prefix": "https://ss3.4sqi.net/img/categories_v2/food/icecream_", "suffix": ".png"}}, {"id": 13145, "name": "Fast Food Restaurant", "icon": {"prefix": "https://ss3.4sqi.net/img/categories_v2/food/fastfood_", "suffix": ".png"}}], "chains": [], "distance": 240, "geocodes": {"main": {"latitude": 37.757737, "longitude": -122.389531}, "roof": {"latitude": 37.757737, "longitude": -122.389531}}, "link": "/v3/places/4ea18fc0b8f7e4911e3c42ae", "location": {"address": "807 22nd St", "census_block": "060750226001006", "country": "US", "cross_street": "", "dma": "San Francisco-Oakland-San Jose", "formatted_address": "807 22nd St, San Francisco, CA 94107", "locality": "San Francisco", "neighborhood": ["Central Waterfront"], "postcode": "94107", "region": "CA"}, "name": "Little Nib", "related_places": {}, "timezone": "America/Los_Angeles"}, {"fsq_id": "601b2e2116bf8956e4a2560d", "categories": [{"id": 13033, "name": "Bubble Tea Shop", "icon": {"prefix": "https://ss3.4sqi.net/img/categories_v2/food/bubble_", "suffix": ".png"}}], "chains": [], "distance": 256, "geocodes": {"main": {"latitude": 37.757617, "longitude": -122.389381}, "roof": {"latitude": 37.757617, "longitude": -122.389381}}, "link": "/v3/places/601b2e2116bf8956e4a2560d", "location": {"address": "801 22nd St", "census_block": "060750226001006", "country": "US", "cross_street": "", "dma": "San Francisco-Oakland-San Jose", "formatted_address": "801 22nd St, San Francisco, CA 94107", "locality": "San Francisco", "neighborhood": ["Central Waterfront"], "postcode": "94107", "region": "CA"}, "name": "Honey Bear Boba", "related_places": {}, "timezone": "America/Los_Angeles"}, {"fsq_id": "535c5ea0498e8eb351bb4e8c", "categories": [{"id": 13003, "name": "Bar", "icon": {"prefix": "https://ss3.4sqi.net/img/categories_v2/nightlife/pub_", "suffix": ".png"}}, {"id": 13029, "name": "Brewery", "icon": {"prefix": "https://ss3.4sqi.net/img/categories_v2/food/brewery_", "suffix": ".png"}}, {"id": 13068, "name": "American Restaurant", "icon": {"prefix": "https://ss3.4sqi.net/img/categories_v2/food/default_", "suffix": ".png"}}], "chains": [], "distance": 293, "geocodes": {"main": {"latitude": 37.757818, "longitude": -122.388031}, "roof": {"latitude": 37.757818, "longitude": -122.388031}}, "link": "/v3/places/535c5ea0498e8eb351bb4e8c", "location": {"address": "2505 3rd St", "census_block": "060750226001008", "country": "US", "cross_street": "at 22nd St", "dma": "San Francisco-Oakland-San Jose", "formatted_address": "2505 3rd St (at 22nd St), San Francisco, CA 94107", "locality": "San Francisco", "neighborhood": ["Central Waterfront"], "postcode": "94107", "region": "CA"}, "name": "Magnolia Brewing Company", "related_places": {"children": [{"fsq_id": "541e02fd498e5af2958c8b1b", "name": "Smokestack"}]}, "timezone": "America/Los_Angeles"}, {"fsq_id": "4bae7604f964a5203bb53be3", "categories": [{"id": 13025, "name": "Wine Bar", "icon": {"prefix": "https://ss3.4sqi.net/img/categories_v2/food/winery_", "suffix": ".png"}}, {"id": 13035, "name": "Coffee Shop", "icon": {"prefix": "https://ss3.4sqi.net/img/categories_v2/food/coffeeshop_", "suffix": ".png"}}, {"id": 13236, "name": "Italian Restaurant", "icon": {"prefix": "https://ss3.4sqi.net/img/categories_v2/food/italian_", "suffix": ".png"}}], "chains": [], "distance": 374, "geocodes": {"main": {"latitude": 37.757478, "longitude": -122.392934}}, "link": "/v3/places/4bae7604f964a5203bb53be3", "location": {"address": "701 Pennsylvania Ave", "address_extended": "Apt 101", "country": "US", "cross_street": "at 22nd St", "dma": "San Francisco-Oakland-San Jose", "formatted_address": "701 Pennsylvania Ave (at 22nd St), San Francisco, CA 94107", "locality": "San Francisco", "neighborhood": ["Dogpatch"], "postcode": "94107", "region": "CA"}, "name": "La Stazione Coffee & Wine Bar", "related_places": {}, "timezone": "America/Los_Angeles"}, {"fsq_id": "40870b00f964a520b6f21ee3", "categories": [{"id": 13276, "name": "Sushi Restaurant", "icon": {"prefix": "https://ss3.4sqi.net/img/categories_v2/food/sushi_", "suffix": ".png"}}], "chains": [], "distance": 361, "geocodes": {"main": {"latitude": 37.763267, "longitude": -122.388996}, "roof": {"latitude": 37.763267, "longitude": -122.388996}}, "link": "/v3/places/40870b00f964a520b6f21ee3", "location": {"address": "2092 3rd St", "census_block": "060750226002008", "country": "US", "cross_street": "at 18th St", "dma": "San Francisco-Oakland-San Jose", "formatted_address": "2092 3rd St (at 18th St), San Francisco, CA 94107", "locality": "San Francisco", "neighborhood": ["Central Waterfront"], "postcode": "94107", "region": "CA"}, "name": "Moshi Moshi", "related_places": {}, "timezone": "America/Los_Angeles"}, {"fsq_id": "52ede361498e9f88569d05f6", "categories": [{"id": 13025, "name": "Wine Bar", "icon": {"prefix": "https://ss3.4sqi.net/img/categories_v2/food/winery_", "suffix": ".png"}}, {"id": 13029, "name": "Brewery", "icon": {"prefix": "https://ss3.4sqi.net/img/categories_v2/food/brewery_", "suffix": ".png"}}, {"id": 13065, "name": "Restaurant", "icon": {"prefix": "https://ss3.4sqi.net/img/categories_v2/food/default_", "suffix": ".png"}}], "chains": [], "distance": 183, "geocodes": {"main": {"latitude": 37.761125, "longitude": -122.388368}, "roof": {"latitude": 37.761125, "longitude": -122.388368}}, "link": "/v3/places/52ede361498e9f88569d05f6", "location": {"address": "2245 3rd St", "census_block": "060750226002011", "country": "US", "cross_street": "btwn 19th & 20th St", "dma": "San Francisco-Oakland-San Jose", "formatted_address": "2245 3rd St (btwn 19th & 20th St), San Francisco, CA 94107", "locality": "San Francisco", "neighborhood": ["Central Waterfront"], "postcode": "94107", "region": "CA"}, "name": "Triple Voodoo Brewery & Tap Room", "related_places": {}, "timezone": "America/Los_Angeles"}, {"fsq_id": "4e3dad67c65b4ec275e64620", "categories": [{"id": 10037, "name": "Concert Hall", "icon": {"prefix": "https://ss3.4sqi.net/img/categories_v2/arts_entertainment/musicvenue_", "suffix": ".png"}}, {"id": 13065, "name": "Restaurant", "icon": {"prefix": "https://ss3.4sqi.net/img/categories_v2/food/default_", "suffix": ".png"}}, {"id": 13387, "name": "Winery", "icon": {"prefix": "https://ss3.4sqi.net/img/categories_v2/food/winery_", "suffix": ".png"}}], "chains": [], "distance": 238, "geocodes": {"main": {"latitude": 37.758496, "longitude": -122.388142}, "roof": {"latitude": 37.758496, "longitude": -122.388142}}, "link": "/v3/places/4e3dad67c65b4ec275e64620", "location": {"address": "2455 3rd St", "census_block": "060750226001000", "country": "US", "cross_street": "btwn 20th and 22nd", "dma": "San Francisco-Oakland-San Jose", "formatted_address": "2455 3rd St (btwn 20th and 22nd), San Francisco, CA 94107", "locality": "San Francisco", "neighborhood": ["Central Waterfront"], "postcode": "94107", "region": "CA"}, "name": "Dogpatch WineWorks", "related_places": {}, "timezone": "America/Los_Angeles"}, {"fsq_id": "5973c9feda2e0076a02de8a2", "categories": [{"id": 13065, "name": "Restaurant", "icon": {"prefix": "https://ss3.4sqi.net/img/categories_v2/food/default_", "suffix": ".png"}}], "chains": [], "distance": 393, "geocodes": {"main": {"latitude": 37.763375, "longitude": -122.388429}, "roof": {"latitude": 37.763375, "longitude": -122.388429}}, "link": "/v3/places/5973c9feda2e0076a02de8a2", "location": {"address": "2071 3rd St", "census_block": "060750226002002", "country": "US", "cross_street": "", "dma": "San Francisco-Oakland-San Jose", "formatted_address": "2071 3rd St, San Francisco, CA 94107", "locality": "San Francisco", "neighborhood": ["Central Waterfront"], "postcode": "94107", "region": "CA"}, "name": "The Boba Shop", "related_places": {}, "timezone": "America/Los_Angeles"}, {"fsq_id": "574f5d10498e762865de2b90", "categories": [{"id": 13334, "name": "Sandwich Restaurant", "icon": {"prefix": "https://ss3.4sqi.net/img/categories_v2/food/deli_", "suffix": ".png"}}], "chains": [], "distance": 417, "geocodes": {"main": {"latitude": 37.76343, "longitude": -122.388575}, "roof": {"latitude": 37.76343, "longitude": -122.388575}}, "link": "/v3/places/574f5d10498e762865de2b90", "location": {"address": "2071 3rd St", "census_block": "060750226002002", "country": "US", "cross_street": "at 18th St", "dma": "San Francisco-Oakland-San Jose", "formatted_address": "2071 3rd St (at 18th St), San Francisco, CA 94107", "locality": "San Francisco", "neighborhood": ["Central Waterfront"], "postcode": "94107", "region": "CA"}, "name": "The Sandwich Shop", "related_places": {}, "timezone": "America/Los_Angeles"}, {"fsq_id": "55d1fee1498eecb7875f29a1", "categories": [{"id": 13034, "name": "Caf\u00e9", "icon": {"prefix": "https://ss3.4sqi.net/img/categories_v2/food/cafe_", "suffix": ".png"}}, {"id": 13334, "name": "Sandwich Restaurant", "icon": {"prefix": "https://ss3.4sqi.net/img/categories_v2/food/deli_", "suffix": ".png"}}, {"id": 13377, "name": "Vegan and Vegetarian Restaurant", "icon": {"prefix": "https://ss3.4sqi.net/img/categories_v2/food/vegetarian_", "suffix": ".png"}}], "chains": [], "distance": 145, "geocodes": {"main": {"latitude": 37.759927, "longitude": -122.388226}, "roof": {"latitude": 37.759927, "longitude": -122.388226}}, "link": "/v3/places/55d1fee1498eecb7875f29a1", "location": {"address": "2335 3rd St", "census_block": "060750226001000", "country": "US", "cross_street": "20th", "dma": "San Francisco-Oakland-San Jose", "formatted_address": "2335 3rd St (20th), San Francisco, CA 94107", "locality": "San Francisco", "neighborhood": ["Central Waterfront"], "postcode": "94107", "region": "CA"}, "name": "The Plant Cafe Organic", "related_places": {"children": []}, "timezone": "America/Los_Angeles"}, {"fsq_id": "5c76f49761f070002c257037", "categories": [{"id": 13033, "name": "Bubble Tea Shop", "icon": {"prefix": "https://ss3.4sqi.net/img/categories_v2/food/bubble_", "suffix": ".png"}}, {"id": 13046, "name": "Ice Cream Parlor", "icon": {"prefix": "https://ss3.4sqi.net/img/categories_v2/food/icecream_", "suffix": ".png"}}, {"id": 13065, "name": "Restaurant", "icon": {"prefix": "https://ss3.4sqi.net/img/categories_v2/food/default_", "suffix": ".png"}}], "chains": [], "distance": 167, "geocodes": {"main": {"latitude": 37.760746, "longitude": -122.388203}, "roof": {"latitude": 37.760746, "longitude": -122.388203}}, "link": "/v3/places/5c76f49761f070002c257037", "location": {"address": "2291 3rd St", "census_block": "060750226002011", "country": "US", "cross_street": "20th", "dma": "San Francisco-Oakland-San Jose", "formatted_address": "2291 3rd St (20th), San Francisco, CA 94107", "locality": "San Francisco", "neighborhood": ["Central Waterfront"], "postcode": "94107", "region": "CA"}, "name": "Happy Cow Creamery & Tea", "related_places": {"children": [{"fsq_id": "5d83f92de01e04000782bbde", "name": "Hu Tong Jian Bing"}]}, "timezone": "America/Los_Angeles"}, {"fsq_id": "4f0e490ee4b03684a54372c6", "categories": [{"id": 13068, "name": "American Restaurant", "icon": {"prefix": "https://ss3.4sqi.net/img/categories_v2/food/default_", "suffix": ".png"}}, {"id": 13297, "name": "Latin American Restaurant", "icon": {"prefix": "https://ss3.4sqi.net/img/categories_v2/food/latinamerican_", "suffix": ".png"}}, {"id": 13303, "name": "Mexican Restaurant", "icon": {"prefix": "https://ss3.4sqi.net/img/categories_v2/food/mexican_", "suffix": ".png"}}], "chains": [], "distance": 212, "geocodes": {"main": {"latitude": 37.758886, "longitude": -122.388165}, "roof": {"latitude": 37.758886, "longitude": -122.388165}}, "link": "/v3/places/4f0e490ee4b03684a54372c6", "location": {"address": "2427 3rd St", "address_extended": "# 2429", "census_block": "060750226001000", "country": "US", "cross_street": "at 20th St", "dma": "San Francisco-Oakland-San Jose", "formatted_address": "2427 3rd St (at 20th St), San Francisco, CA 94107", "locality": "San Francisco", "neighborhood": ["Central Waterfront"], "postcode": "94107", "region": "CA"}, "name": "Gilberth's Rotisserie & Grill", "related_places": {}, "timezone": "America/Los_Angeles"}, {"fsq_id": "49e4de1df964a52060631fe3", "categories": [{"id": 13031, "name": "Burger Joint", "icon": {"prefix": "https://ss3.4sqi.net/img/categories_v2/food/burger_", "suffix": ".png"}}, {"id": 13309, "name": "Middle Eastern Restaurant", "icon": {"prefix": "https://ss3.4sqi.net/img/categories_v2/food/middleeastern_", "suffix": ".png"}}], "chains": [], "distance": 491, "geocodes": {"main": {"latitude": 37.762577, "longitude": -122.394188}, "roof": {"latitude": 37.762577, "longitude": -122.394188}}, "link": "/v3/places/49e4de1df964a52060631fe3", "location": {"address": "1135 18th St", "census_block": "060750227022001", "country": "US", "cross_street": "at Mississippi", "dma": "San Francisco-Oakland-San Jose", "formatted_address": "1135 18th St (at Mississippi), San Francisco, CA 94107", "locality": "San Francisco", "neighborhood": ["Potrero District"], "postcode": "94107", "region": "CA"}, "name": "Ganim's Market", "related_places": {}, "timezone": "America/Los_Angeles"}, {"fsq_id": "5b8a1684bcbf7a002cf3b708", "categories": [{"id": 13009, "name": "Cocktail Bar", "icon": {"prefix": "https://ss3.4sqi.net/img/categories_v2/nightlife/cocktails_", "suffix": ".png"}}, {"id": 13022, "name": "Sports Bar", "icon": {"prefix": "https://ss3.4sqi.net/img/categories_v2/nightlife/sportsbar_", "suffix": ".png"}}, {"id": 13347, "name": "Tapas Restaurant", "icon": {"prefix": "https://ss3.4sqi.net/img/categories_v2/food/tapas_", "suffix": ".png"}}], "chains": [], "distance": 115, "geocodes": {"main": {"latitude": 37.759428, "longitude": -122.38877}, "roof": {"latitude": 37.759428, "longitude": -122.38877}}, "link": "/v3/places/5b8a1684bcbf7a002cf3b708", "location": {"address": "2368 3rd St", "census_block": "060750226001001", "country": "US", "cross_street": "", "dma": "San Francisco-Oakland-San Jose", "formatted_address": "2368 3rd St, San Francisco, CA 94107", "locality": "San Francisco", "neighborhood": ["Central Waterfront"], "postcode": "94107", "region": "CA"}, "name": "Aura", "related_places": {}, "timezone": "America/Los_Angeles"}, {"fsq_id": "550c684a498ea3cffda59bed", "categories": [{"id": 13031, "name": "Burger Joint", "icon": {"prefix": "https://ss3.4sqi.net/img/categories_v2/food/burger_", "suffix": ".png"}}, {"id": 13303, "name": "Mexican Restaurant", "icon": {"prefix": "https://ss3.4sqi.net/img/categories_v2/food/mexican_", "suffix": ".png"}}, {"id": 13314, "name": "New American Restaurant", "icon": {"prefix": "https://ss3.4sqi.net/img/categories_v2/food/newamerican_", "suffix": ".png"}}], "chains": [], "distance": 133, "geocodes": {"main": {"latitude": 37.759803, "longitude": -122.387717}, "roof": {"latitude": 37.759803, "longitude": -122.387717}}, "link": "/v3/places/550c684a498ea3cffda59bed", "location": {"address": "958 Illinois St", "census_block": "060750226001000", "country": "US", "cross_street": "20th", "dma": "San Francisco-Oakland-San Jose", "formatted_address": "958 Illinois St (20th), San Francisco, CA 94107", "locality": "San Francisco", "neighborhood": ["Central Waterfront"], "postcode": "94107", "region": "CA"}, "name": "Plant Cafe", "related_places": {}, "timezone": "America/Los_Angeles"}, {"fsq_id": "51885e68498ef7f58cf01d05", "categories": [{"id": 13003, "name": "Bar", "icon": {"prefix": "https://ss3.4sqi.net/img/categories_v2/nightlife/pub_", "suffix": ".png"}}], "chains": [], "distance": 145, "geocodes": {"main": {"latitude": 37.76067, "longitude": -122.388342}, "roof": {"latitude": 37.76067, "longitude": -122.388342}}, "link": "/v3/places/51885e68498ef7f58cf01d05", "location": {"address": "2289 3rd St", "census_block": "060750226002011", "country": "US", "cross_street": "20th", "dma": "San Francisco-Oakland-San Jose", "formatted_address": "2289 3rd St (20th), San Francisco, CA 94107", "locality": "San Francisco", "neighborhood": ["Central Waterfront"], "postcode": "94107", "region": "CA"}, "name": "Hogan's Goat Tavern", "related_places": {}, "timezone": "America/Los_Angeles"}, {"fsq_id": "49f105c8f964a5207d691fe3", "categories": [{"id": 13035, "name": "Coffee Shop", "icon": {"prefix": "https://ss3.4sqi.net/img/categories_v2/food/coffeeshop_", "suffix": ".png"}}, {"id": 13065, "name": "Restaurant", "icon": {"prefix": "https://ss3.4sqi.net/img/categories_v2/food/default_", "suffix": ".png"}}], "chains": [], "distance": 168, "geocodes": {"main": {"latitude": 37.760643, "longitude": -122.388268}, "roof": {"latitude": 37.760643, "longitude": -122.388268}}, "link": "/v3/places/49f105c8f964a5207d691fe3", "location": {"address": "2295 3rd St", "census_block": "060750226002011", "country": "US", "cross_street": "20th St", "dma": "San Francisco-Oakland-San Jose", "formatted_address": "2295 3rd St (20th St), San Francisco, CA 94107", "locality": "San Francisco", "neighborhood": ["Central Waterfront"], "postcode": "94107", "region": "CA"}, "name": "Sundance Coffee", "related_places": {}, "timezone": "America/Los_Angeles"}, {"fsq_id": "5d83f92de01e04000782bbde", "categories": [{"id": 13041, "name": "Creperie", "icon": {"prefix": "https://ss3.4sqi.net/img/categories_v2/food/creperie_", "suffix": ".png"}}, {"id": 13099, "name": "Chinese Restaurant", "icon": {"prefix": "https://ss3.4sqi.net/img/categories_v2/food/asian_", "suffix": ".png"}}], "chains": [], "distance": 177, "geocodes": {"main": {"latitude": 37.760643, "longitude": -122.388268}, "roof": {"latitude": 37.760643, "longitude": -122.388268}}, "link": "/v3/places/5d83f92de01e04000782bbde", "location": {"address": "2291 3rd St", "census_block": "060750226002011", "country": "US", "cross_street": "20th St", "dma": "San Francisco-Oakland-San Jose", "formatted_address": "2291 3rd St (20th St), San Francisco, CA 94107", "locality": "San Francisco", "neighborhood": ["Central Waterfront"], "postcode": "94107", "region": "CA"}, "name": "Hu Tong Jian Bing", "related_places": {"parent": {"fsq_id": "5c76f49761f070002c257037", "name": "Happy Cow Creamery & Tea"}}, "timezone": "America/Los_Angeles"}, {"fsq_id": "5711a4aa498e506ec44d57f4", "categories": [{"id": 13026, "name": "BBQ Joint", "icon": {"prefix": "https://ss3.4sqi.net/img/categories_v2/food/bbqalt_", "suffix": ".png"}}], "chains": [], "distance": 186, "geocodes": {"main": {"latitude": 37.761191, "longitude": -122.388372}, "roof": {"latitude": 37.761191, "longitude": -122.388372}}, "link": "/v3/places/5711a4aa498e506ec44d57f4", "location": {"address": "2245 3rd St", "census_block": "060750226002011", "country": "US", "cross_street": "20th St", "dma": "San Francisco-Oakland-San Jose", "formatted_address": "2245 3rd St (20th St), San Francisco, CA 94107", "locality": "San Francisco", "neighborhood": ["Central Waterfront"], "postcode": "94107", "region": "CA"}, "name": "Native Sons BBQ", "related_places": {}, "timezone": "America/Los_Angeles"}, {"fsq_id": "4b61d0e9f964a520bc242ae3", "categories": [{"id": 13040, "name": "Dessert Shop", "icon": {"prefix": "https://ss3.4sqi.net/img/categories_v2/food/dessert_", "suffix": ".png"}}], "chains": [], "distance": 190, "geocodes": {"main": {"latitude": 37.75926, "longitude": -122.387972}, "roof": {"latitude": 37.75926, "longitude": -122.387972}}, "link": "/v3/places/4b61d0e9f964a520bc242ae3", "location": {"address": "950 Illinois St", "census_block": "060750226001000", "country": "US", "cross_street": "20th St.", "dma": "San Francisco-Oakland-San Jose", "formatted_address": "950 Illinois St (20th St.), San Francisco, CA 94107", "locality": "San Francisco", "neighborhood": ["Central Waterfront"], "postcode": "94107", "region": "CA"}, "name": "Gerhard Michler/Creative International", "related_places": {}, "timezone": "America/Los_Angeles"}, {"fsq_id": "5cfafc9bfbcf0b002ddec97b", "categories": [{"id": 13001, "name": "Bagel Shop", "icon": {"prefix": "https://ss3.4sqi.net/img/categories_v2/food/bagels_", "suffix": ".png"}}, {"id": 13035, "name": "Coffee Shop", "icon": {"prefix": "https://ss3.4sqi.net/img/categories_v2/food/coffeeshop_", "suffix": ".png"}}, {"id": 13065, "name": "Restaurant", "icon": {"prefix": "https://ss3.4sqi.net/img/categories_v2/food/default_", "suffix": ".png"}}], "chains": [], "distance": 335, "geocodes": {"main": {"latitude": 37.757206, "longitude": -122.387923}, "roof": {"latitude": 37.757206, "longitude": -122.387923}}, "link": "/v3/places/5cfafc9bfbcf0b002ddec97b", "location": {"address": "2535 3rd St", "census_block": "060750226001008", "country": "US", "cross_street": "22nd St", "dma": "San Francisco-Oakland-San Jose", "formatted_address": "2535 3rd St (22nd St), San Francisco, CA 94107", "locality": "San Francisco", "neighborhood": ["Central Waterfront"], "postcode": "94107", "region": "CA"}, "name": "Daily Driver", "related_places": {}, "timezone": "America/Los_Angeles"}, {"fsq_id": "50afdca7e4b099c54a1196ea", "categories": [{"id": 13040, "name": "Dessert Shop", "icon": {"prefix": "https://ss3.4sqi.net/img/categories_v2/food/dessert_", "suffix": ".png"}}, {"id": 13065, "name": "Restaurant", "icon": {"prefix": "https://ss3.4sqi.net/img/categories_v2/food/default_", "suffix": ".png"}}], "chains": [], "distance": 197, "geocodes": {"main": {"latitude": 37.760394, "longitude": -122.38811}, "roof": {"latitude": 37.760394, "longitude": -122.38811}}, "link": "/v3/places/50afdca7e4b099c54a1196ea", "location": {"address": "2325 3rd St", "address_extended": "Ste 326", "census_block": "060750226001000", "country": "US", "cross_street": "", "dma": "San Francisco-Oakland-San Jose", "formatted_address": "2325 3rd St, San Francisco, CA 94107", "locality": "San Francisco", "neighborhood": ["Central Waterfront"], "postcode": "94107", "region": "CA"}, "name": "Nosh This", "related_places": {}, "timezone": "America/Los_Angeles"}, {"fsq_id": "515f891de4b06eb71b5ecb22", "categories": [{"id": 13040, "name": "Dessert Shop", "icon": {"prefix": "https://ss3.4sqi.net/img/categories_v2/food/dessert_", "suffix": ".png"}}], "chains": [], "distance": 199, "geocodes": {"main": {"latitude": 37.760703, "longitude": -122.387913}, "roof": {"latitude": 37.760703, "longitude": -122.387913}}, "link": "/v3/places/515f891de4b06eb71b5ecb22", "location": {"address": "2325 3rd St", "address_extended": "Ste 326", "census_block": "060750226002011", "country": "US", "cross_street": "", "dma": "San Francisco-Oakland-San Jose", "formatted_address": "2325 3rd St, San Francisco, CA 94107", "locality": "San Francisco", "neighborhood": ["Central Waterfront"], "postcode": "94107", "region": "CA"}, "name": "NoshThis World HQ", "related_places": {}, "timezone": "America/Los_Angeles"}, {"fsq_id": "4b22aacbf964a520624b24e3", "categories": [{"id": 13068, "name": "American Restaurant", "icon": {"prefix": "https://ss3.4sqi.net/img/categories_v2/food/default_", "suffix": ".png"}}], "chains": [], "distance": 202, "geocodes": {"main": {"latitude": 37.76015, "longitude": -122.388311}, "roof": {"latitude": 37.76015, "longitude": -122.388311}}, "link": "/v3/places/4b22aacbf964a520624b24e3", "location": {"address": "2325 3rd St", "address_extended": "Ste 330", "census_block": "060750226001000", "country": "US", "cross_street": "20th St.", "dma": "San Francisco-Oakland-San Jose", "formatted_address": "2325 3rd St (20th St.), San Francisco, CA 94107", "locality": "San Francisco", "neighborhood": ["Central Waterfront"], "postcode": "94107", "region": "CA"}, "name": "Hands On Gourmet", "related_places": {}, "timezone": "America/Los_Angeles"}, {"fsq_id": "50dce194e4b0049915b56762", "categories": [{"id": 13046, "name": "Ice Cream Parlor", "icon": {"prefix": "https://ss3.4sqi.net/img/categories_v2/food/icecream_", "suffix": ".png"}}, {"id": 13145, "name": "Fast Food Restaurant", "icon": {"prefix": "https://ss3.4sqi.net/img/categories_v2/food/fastfood_", "suffix": ".png"}}], "chains": [], "distance": 234, "geocodes": {"main": {"latitude": 37.757737, "longitude": -122.389531}, "roof": {"latitude": 37.757737, "longitude": -122.389531}}, "link": "/v3/places/50dce194e4b0049915b56762", "location": {"address": "801 22nd St", "census_block": "060750226001006", "country": "US", "cross_street": "Tennessee", "dma": "San Francisco-Oakland-San Jose", "formatted_address": "801 22nd St (Tennessee), San Francisco, CA 94107", "locality": "San Francisco", "neighborhood": ["Central Waterfront"], "postcode": "94107", "region": "CA"}, "name": "Chocolate Lab", "related_places": {}, "timezone": "America/Los_Angeles"}, {"fsq_id": "51114be8e4b09371813cf410", "categories": [{"id": 13059, "name": "Juice Bar", "icon": {"prefix": "https://ss3.4sqi.net/img/categories_v2/food/juicebar_", "suffix": ".png"}}], "chains": [], "distance": 240, "geocodes": {"main": {"latitude": 37.75823, "longitude": -122.388628}, "roof": {"latitude": 37.75823, "longitude": -122.388628}}, "link": "/v3/places/51114be8e4b09371813cf410", "location": {"address": "2490 3rd St", "census_block": "060750226001001", "country": "US", "cross_street": "22nd", "dma": "San Francisco-Oakland-San Jose", "formatted_address": "2490 3rd St (22nd), San Francisco, CA 94107", "locality": "San Francisco", "neighborhood": ["Central Waterfront"], "postcode": "94107", "region": "CA"}, "name": "S\u014dw", "related_places": {}, "timezone": "America/Los_Angeles"}, {"fsq_id": "4f321d3a19836c91c7b753b1", "categories": [{"id": 13064, "name": "Pizzeria", "icon": {"prefix": "https://ss3.4sqi.net/img/categories_v2/food/pizza_", "suffix": ".png"}}, {"id": 13097, "name": "Caribbean Restaurant", "icon": {"prefix": "https://ss3.4sqi.net/img/categories_v2/food/caribbean_", "suffix": ".png"}}, {"id": 13236, "name": "Italian Restaurant", "icon": {"prefix": "https://ss3.4sqi.net/img/categories_v2/food/italian_", "suffix": ".png"}}], "chains": [], "distance": 246, "geocodes": {"main": {"latitude": 37.758029, "longitude": -122.389118}, "roof": {"latitude": 37.758029, "longitude": -122.389118}}, "link": "/v3/places/4f321d3a19836c91c7b753b1", "location": {"address": "1099 Tennessee St", "census_block": "060750226001001", "country": "US", "dma": "San Francisco-Oakland-San Jose", "formatted_address": "1099 Tennessee St, San Francisco, CA 94107", "locality": "San Francisco", "neighborhood": ["Central Waterfront"], "postcode": "94107", "region": "CA"}, "name": "Massimo's Organic Gourmet", "related_places": {}, "timezone": "America/Los_Angeles"}, {"fsq_id": "60566f8912b070014149fc00", "categories": [{"id": 13065, "name": "Restaurant", "icon": {"prefix": "https://ss3.4sqi.net/img/categories_v2/food/default_", "suffix": ".png"}}], "chains": [], "distance": 251, "geocodes": {"main": {"latitude": 37.75872, "longitude": -122.387634}}, "link": "/v3/places/60566f8912b070014149fc00", "location": {"address": "1030 Illinois St", "country": "US", "cross_street": "", "dma": "San Francisco-Oakland-San Jose", "formatted_address": "1030 Illinois St, San Francisco, CA 94107", "locality": "San Francisco", "neighborhood": ["Central Waterfront"], "postcode": "94107", "region": "CA"}, "name": "Rocket Bird", "related_places": {}, "timezone": "America/Los_Angeles"}, {"fsq_id": "5edef7c93e671b100bdb5d04", "categories": [{"id": 13036, "name": "Tea Room", "icon": {"prefix": "https://ss3.4sqi.net/img/categories_v2/food/tearoom_", "suffix": ".png"}}], "chains": [], "distance": 251, "geocodes": {}, "link": "/v3/places/5edef7c93e671b100bdb5d04", "location": {"address": "1199 Irving St", "census_block": "060750226001006", "country": "US", "cross_street": "Funston", "dma": "San Francisco-Oakland-San Jose", "formatted_address": "1199 Irving St (Funston), San Francisco, CA 94122", "locality": "San Francisco", "postcode": "94122", "region": "CA"}, "name": "Tekuno", "related_places": {}, "timezone": "America/Los_Angeles"}, {"fsq_id": "56f1c02bcd1085af6b45c92a", "categories": [{"id": 13263, "name": "Japanese Restaurant", "icon": {"prefix": "https://ss3.4sqi.net/img/categories_v2/food/japanese_", "suffix": ".png"}}], "chains": [], "distance": 274, "geocodes": {"main": {"latitude": 37.762421, "longitude": -122.388946}, "roof": {"latitude": 37.762421, "longitude": -122.388946}}, "link": "/v3/places/56f1c02bcd1085af6b45c92a", "location": {"address": "2152 3rd St", "census_block": "060750226002009", "country": "US", "cross_street": "", "dma": "San Francisco-Oakland-San Jose", "formatted_address": "2152 3rd St, San Francisco, CA 94107", "locality": "San Francisco", "neighborhood": ["Central Waterfront"], "postcode": "94107", "region": "CA"}, "name": "Bento", "related_places": {}, "timezone": "America/Los_Angeles"}, {"fsq_id": "4dd06d3b7d8b975f18ffd64c", "categories": [{"id": 13003, "name": "Bar", "icon": {"prefix": "https://ss3.4sqi.net/img/categories_v2/nightlife/pub_", "suffix": ".png"}}], "chains": [], "distance": 278, "geocodes": {"main": {"latitude": 37.757509, "longitude": -122.389948}, "roof": {"latitude": 37.757509, "longitude": -122.389948}}, "link": "/v3/places/4dd06d3b7d8b975f18ffd64c", "location": {"address": "1005 Minnesota St", "census_block": "060750226001006", "country": "US", "cross_street": "22nd Street", "dma": "San Francisco-Oakland-San Jose", "formatted_address": "1005 Minnesota St (22nd Street), San Francisco, CA 94107", "locality": "San Francisco", "neighborhood": ["Central Waterfront"], "postcode": "94107", "region": "CA"}, "name": "Dig", "related_places": {}, "timezone": "America/Los_Angeles"}, {"fsq_id": "615a1f630b514229c5d6df56", "categories": [{"id": 13046, "name": "Ice Cream Parlor", "icon": {"prefix": "https://ss3.4sqi.net/img/categories_v2/food/icecream_", "suffix": ".png"}}], "chains": [], "distance": 292, "geocodes": {"main": {"latitude": 37.757844, "longitude": -122.388101}}, "link": "/v3/places/615a1f630b514229c5d6df56", "location": {"address": "699 22nd St", "country": "US", "cross_street": "", "dma": "San Francisco-Oakland-San Jose", "formatted_address": "699 22nd St, San Francisco, CA 94107", "locality": "San Francisco", "neighborhood": ["Central Waterfront"], "postcode": "94107", "region": "CA"}, "name": "Sunday Social", "related_places": {}, "timezone": "America/Los_Angeles"}, {"fsq_id": "5e7412c0e38c050008b486a8", "categories": [{"id": 13002, "name": "Bakery", "icon": {"prefix": "https://ss3.4sqi.net/img/categories_v2/food/bakery_", "suffix": ".png"}}], "chains": [], "distance": 315, "geocodes": {"main": {"latitude": 37.757699, "longitude": -122.38788}, "roof": {"latitude": 37.757699, "longitude": -122.38788}}, "link": "/v3/places/5e7412c0e38c050008b486a8", "location": {"address": "615 22nd St", "census_block": "060750226001008", "country": "US", "cross_street": "3rd St", "dma": "San Francisco-Oakland-San Jose", "formatted_address": "615 22nd St (3rd St), San Francisco, CA 94107", "locality": "San Francisco", "neighborhood": ["Central Waterfront"], "postcode": "94107", "region": "CA"}, "name": "Butter", "related_places": {"parent": {"fsq_id": "4c570d33cc96c9b6da13782e", "name": "American Industrial Center"}}, "timezone": "America/Los_Angeles"}, {"fsq_id": "4c3aa073be4620a1ef2e0b13", "categories": [{"id": 13015, "name": "Karaoke Bar", "icon": {"prefix": "https://ss3.4sqi.net/img/categories_v2/nightlife/karaoke_", "suffix": ".png"}}], "chains": [], "distance": 334, "geocodes": {"main": {"latitude": 37.757151, "longitude": -122.388636}, "roof": {"latitude": 37.757151, "longitude": -122.388636}}, "link": "/v3/places/4c3aa073be4620a1ef2e0b13", "location": {"address": "2546 3rd St", "census_block": "060750226001007", "country": "US", "cross_street": "22 st", "dma": "San Francisco-Oakland-San Jose", "formatted_address": "2546 3rd St (22 st), San Francisco, CA 94107", "locality": "San Francisco", "neighborhood": ["Central Waterfront"], "postcode": "94107", "region": "CA"}, "name": "Noam Eisen's Karaoke", "related_places": {}, "timezone": "America/Los_Angeles"}], "context": {"geo_bounds": {"circle": {"center": {"latitude": 37.76, "longitude": -122.39}, "radius": 500}}}}