{"results": [{"fsq_id": "5805472838fa925140e78f74", "categories": [{"id": 13102, "name": "Cantonese Restaurant", "icon": {"prefix": "https://ss3.4sqi.net/img/categories_v2/food/asian_", "suffix": ".png"}}, {"id": 13106, "name": "Dim Sum Restaurant", "icon": {"prefix": "https://ss3.4sqi.net/img/categories_v2/food/dimsum_", "suffix": ".png"}}, {"id": 13338, "name": "Seafood Restaurant", "icon": {"prefix": "https://ss3.4sqi.net/img/categories_v2/food/seafood_", "suffix": ".png"}}], "chains": [], "distance": 426, "geocodes": {"main": {"latitude": 37.743743, "longitude": -122.439298}, "roof": {"latitude": 37.743743, "longitude": -122.439298}}, "link": "/v3/places/5805472838fa925140e78f74", "location": {"address": "5238 Diamond Heights Blvd", "census_block": "060750217001000", "country": "US", "cross_street": "btwn Duncan St & Gold Mine Dr", "dma": "San Francisco-Oakland-San Jose", "formatted_address": "5238 Diamond Heights Blvd (btwn Duncan St & Gold Mine Dr), San Francisco, CA 94131", "locality": "San Francisco", "neighborhood": ["Diamond Heights"], "postcode": "94131", "region": "CA"}, "name": "Harbor Villa Restaurant", "related_places": {"parent": {"fsq_id": "4c547b97a724e21eed4979f6", "name": "Diamond Heights Shopping Center"}}, "timezone": "America/Los_Angeles"}, {"fsq_id": "4b5741eff964a520b92d28e3", "categories": [{"id": 13035, "name": "Coffee Shop", "icon": {"prefix": "https://ss3.4sqi.net/img/categories_v2/food/coffeeshop_", "suffix": ".png"}}], "chains": [{"id": "ab4c54c0-d68a-012e-5619-003048cad9da", "name": "Starbucks"}], "distance": 431, "geocodes": {"main": {"latitude": 37.743673, "longitude": -122.438935}, "roof": {"latitude": 37.743673, "longitude": -122.438935}}, "link": "/v3/places/4b5741eff964a520b92d28e3", "location": {"address": "5290 Diamond Heights Blvd", "census_block": "060750217001000", "country": "US", "cross_street": "at Safeway", "dma": "San Francisco-Oakland-San Jose", "formatted_address": "5290 Diamond Heights Blvd (at Safeway), San Francisco, CA 94131", "locality": "San Francisco", "neighborhood": ["Diamond Heights"], "postcode": "94131", "region": "CA"}, "name": "Starbucks", "related_places": {"parent": {"fsq_id": "43e73ce3f964a5200a2f1fe3", "name": "Safeway"}}, "timezone": "America/Los_Angeles"}, {"fsq_id": "59fcbe5867af3a3ba0945ef5", "categories": [{"id": 13031, "name": "Burger Joint", "icon": {"prefix": "https://ss3.4sqi.net/img/categories_v2/food/burger_", "suffix": ".png"}}, {"id": 13289, "name": "Korean Restaurant", "icon": {"prefix": "https://ss3.4sqi.net/img/categories_v2/food/korean_", "suffix": ".png"}}], "chains": [], "distance": 423, "geocodes": {"main": {"latitude": 37.743791, "longitude": -122.439946}, "roof": {"latitude": 37.743791, "longitude": -122.439946}}, "link": "/v3/places/59fcbe5867af3a3ba0945ef5", "location": {"address": "5214 Diamond Heights Blvd", "census_block": "060750217001000", "country": "US", "cross_street": "", "dma": "San Francisco-Oakland-San Jose", "formatted_address": "5214 Diamond Heights Blvd, San Francisco, CA 94131", "locality": "San Francisco", "neighborhood": ["Diamond Heights"], "postcode": "94131", "region": "CA"}, "name": "Heavenly Cafe", "related_places": {"parent": {"fsq_id": "4c547b97a724e21eed4979f6", "name": "Diamond Heights Shopping Center"}}, "timezone": "America/Los_Angeles"}, {"fsq_id": "4aa865d9f964a5201d5120e3", "categories": [{"id": 13276, "name": "Sushi Restaurant", "icon": {"prefix": "https://ss3.4sqi.net/img/categories_v2/food/sushi_", "suffix": ".png"}}, {"id": 13303, "name": "Mexican Restaurant", "icon": {"prefix": "https://ss3.4sqi.net/img/categories_v2/food/mexican_", "suffix": ".png"}}], "chains": [], "distance": 421, "geocodes": {"main": {"latitude": 37.743791, "longitude": -122.439946}, "roof": {"latitude": 37.743791, "longitude": -122.439946}}, "link": "/v3/places/4aa865d9f964a5201d5120e3", "location": {"address": "5214 Diamond Heights Blvd", "address_extended": "# A", "census_block": "060750217001000", "country": "US", "cross_street": "near Duncan", "dma": "San Francisco-Oakland-San Jose", "formatted_address": "5214 Diamond Heights Blvd (near Duncan), San Francisco, CA 94131", "locality": "San Francisco", "neighborhood": ["Diamond Heights"], "postcode": "94131", "region": "CA"}, "name": "Choice Yakiniku", "related_places": {"parent": {"fsq_id": "4c547b97a724e21eed4979f6", "name": "Diamond Heights Shopping Center"}}, "timezone": "America/Los_Angeles"}, {"fsq_id": "4aac17b6f964a520305c20e3", "categories": [{"id": 13002, "name": "Bakery", "icon": {"prefix": "https://ss3.4sqi.net/img/categories_v2/food/bakery_", "suffix": ".png"}}, {"id": 13068, "name": "American Restaurant", "icon": {"prefix": "https://ss3.4sqi.net/img/categories_v2/food/default_", "suffix": ".png"}}, {"id": 13334, "name": "Sandwich Restaurant", "icon": {"prefix": "https://ss3.4sqi.net/img/categories_v2/food/deli_", "suffix": ".png"}}], "chains": [], "distance": 427, "geocodes": {"main": {"latitude": 37.743791, "longitude": -122.439946}, "roof": {"latitude": 37.743791, "longitude": -122.439946}}, "link": "/v3/places/4aac17b6f964a520305c20e3", "location": {"address": "5214 Diamond Heights Blvd", "census_block": "060750217001000", "country": "US", "cross_street": "near Duncan", "dma": "San Francisco-Oakland-San Jose", "formatted_address": "5214 Diamond Heights Blvd (near Duncan), San Francisco, CA 94131", "locality": "San Francisco", "neighborhood": ["Diamond Heights"], "postcode": "94131", "region": "CA"}, "name": "Creighton's Bakery & Cafe", "related_places": {"parent": {"fsq_id": "4c547b97a724e21eed4979f6", "name": "Diamond Heights Shopping Center"}}, "timezone": "America/Los_Angeles"}, {"fsq_id": "2ceb79ee5c4746d74599b8a8", "categories": [{"id": 13099, "name": "Chinese Restaurant", "icon": {"prefix": "https://ss3.4sqi.net/img/categories_v2/food/asian_", "suffix": ".png"}}], "chains": [], "distance": 386, "geocodes": {"main": {"latitude": 37.743477, "longitude": -122.439784}, "roof": {"latitude": 37.743477, "longitude": -122.439784}}, "link": "/v3/places/2ceb79ee5c4746d74599b8a8", "location": {"address": "5230 Diamond Heights Blvd", "census_block": "060750217001000", "country": "US", "dma": "San Francisco-Oakland-San Jose", "formatted_address": "5230 Diamond Heights Blvd, San Francisco, CA 94131", "locality": "San Francisco", "neighborhood": ["Diamond Heights"], "postcode": "94131", "region": "CA"}, "name": "Diamond Heights To-Go", "related_places": {}}, {"fsq_id": "fc27b418de3f44598d33d4c4", "categories": [{"id": 13002, "name": "Bakery", "icon": {"prefix": "https://ss3.4sqi.net/img/categories_v2/food/bakery_", "suffix": ".png"}}, {"id": 13042, "name": "Cupcake Shop", "icon": {"prefix": "https://ss3.4sqi.net/img/categories_v2/food/cupcakes_", "suffix": ".png"}}, {"id": 13065, "name": "Restaurant", "icon": {"prefix": "https://ss3.4sqi.net/img/categories_v2/food/default_", "suffix": ".png"}}], "chains": [], "distance": 417, "geocodes": {"main": {"latitude": 37.743646, "longitude": -122.438862}, "roof": {"latitude": 37.743646, "longitude": -122.438862}}, "link": "/v3/places/fc27b418de3f44598d33d4c4", "location": {"address": "5290 Diamond Heights Blvd", "census_block": "060750217001000", "country": "US", "dma": "San Francisco-Oakland-San Jose", "formatted_address": "5290 Diamond Heights Blvd, San Francisco, CA 94131", "locality": "San Francisco", "neighborhood": ["Diamond Heights"], "postcode": "94131", "region": "CA"}, "name": "Bake Shop", "related_places": {}}, {"fsq_id": "15c75412c8754db585c262ce", "categories": [{"id": 13034, "name": "Caf\u00e9", "icon": {"prefix": "https://ss3.4sqi.net/img/categories_v2/food/cafe_", "suffix": ".png"}}, {"id": 13039, "name": "Deli", "icon": {"prefix": "https://ss3.4sqi.net/img/categories_v2/food/deli_", "suffix": ".png"}}], "chains": [], "distance": 421, "geocodes": {"main": {"latitude": 37.743791, "longitude": -122.439946}, "roof": {"latitude": 37.743791, "longitude": -122.439946}}, "link": "/v3/places/15c75412c8754db585c262ce", "location": {"address": "5214 Diamond Heights Blvd", "census_block": "060750217001000", "country": "US", "dma": "San Francisco-Oakland-San Jose", "formatted_address": "5214 Diamond Heights Blvd, San Francisco, CA 94131", "locality": "San Francisco", "neighborhood": ["Diamond Heights"], "postcode": "94131", "region": "CA"}, "name": "Deli Shop", "related_places": {}}, {"fsq_id": "eda300f034a142ca6336744f", "categories": [{"id": 13099, "name": "Chinese Restaurant", "icon": {"prefix": "https://ss3.4sqi.net/img/categories_v2/food/asian_", "suffix": ".png"}}], "chains": [], "distance": 430, "geocodes": {"main": {"latitude": 37.743819, "longitude": -122.439159}, "roof": {"latitude": 37.743819, "longitude": -122.439159}}, "link": "/v3/places/eda300f034a142ca6336744f", "location": {"address": "5238 Diamond Heights Blvd", "census_block": "060750217001000", "country": "US", "dma": "San Francisco-Oakland-San Jose", "formatted_address": "5238 Diamond Heights Blvd, San Francisco, CA 94131", "locality": "San Francisco", "neighborhood": ["Diamond Heights"], "postcode": "94131", "region": "CA"}, "name": "Diamond Heights Shopping Center(Ho Mei Take OUT)", "related_places": {}}, {"fsq_id": "7a9c57cc07d2405fc605a63a", "categories": [{"id": 13065, "name": "Restaurant", "icon": {"prefix": "https://ss3.4sqi.net/img/categories_v2/food/default_", "suffix": ".png"}}], "chains": [], "distance": 499, "geocodes": {"main": {"latitude": 37.744442, "longitude": -122.439124}}, "link": "/v3/places/7a9c57cc07d2405fc605a63a", "location": {"address": "5214 Diamond Heights Blvd", "census_block": "060750217001000", "country": "US", "dma": "San Francisco-Oakland-San Jose", "formatted_address": "5214 Diamond Heights Blvd, San Francisco, CA 94131", "locality": "San Francisco", "neighborhood": ["Diamond Heights"], "postcode": "94131", "region": "CA"}, "name": "Taylors Taqueria", "related_places": {}}], "context": {"geo_bounds": {"circle": {"center": {"latitude": 37.74, "longitude": -122.44}, "radius": 500}}}}