{"results": [{"fsq_id": "47bae8a8f964a520d14d1fe3", "categories": [{"id": 13334, "name": "Sandwich Restaurant", "icon": {"prefix": "https://ss3.4sqi.net/img/categories_v2/food/deli_", "suffix": ".png"}}], "chains": [], "distance": 489, "geocodes": {"main": {"latitude": 37.740843, "longitude": -122.465202}, "roof": {"latitude": 37.740843, "longitude": -122.465202}}, "link": "/v3/places/47bae8a8f964a520d14d1fe3", "location": {"address": "820 Ulloa St", "census_block": "060750308001004", "country": "US", "cross_street": "at Claremont Blvd", "dma": "San Francisco-Oakland-San Jose", "formatted_address": "820 Ulloa St (at Claremont Blvd), San Francisco, CA 94127", "locality": "San Francisco", "neighborhood": ["Laguna Honda"], "postcode": "94127", "region": "CA"}, "name": "Submarine Center", "related_places": {}, "timezone": "America/Los_Angeles"}, {"fsq_id": "49f35a25f964a520916a1fe3", "categories": [{"id": 13010, "name": "Dive Bar", "icon": {"prefix": "https://ss3.4sqi.net/img/categories_v2/nightlife/divebar_", "suffix": ".png"}}, {"id": 13022, "name": "Sports Bar", "icon": {"prefix": "https://ss3.4sqi.net/img/categories_v2/nightlife/sportsbar_", "suffix": ".png"}}, {"id": 13065, "name": "Restaurant", "icon": {"prefix": "https://ss3.4sqi.net/img/categories_v2/food/default_", "suffix": ".png"}}], "chains": [], "distance": 496, "geocodes": {"main": {"latitude": 37.740832, "longitude": -122.465345}, "roof": {"latitude": 37.740832, "longitude": -122.465345}}, "link": "/v3/places/49f35a25f964a520916a1fe3", "location": {"address": "824 Ulloa St", "census_block": "060750308001004", "country": "US", "cross_street": "btw West Portal & Portola", "dma": "San Francisco-Oakland-San Jose", "formatted_address": "824 Ulloa St (btw West Portal & Portola), San Francisco, CA 94127", "locality": "San Francisco", "neighborhood": ["Forest Hill"], "postcode": "94127", "region": "CA"}, "name": "Philosopher's Club", "related_places": {}, "timezone": "America/Los_Angeles"}, {"fsq_id": "51841c27498e495ed7b5e1e8", "categories": [{"id": 13352, "name": "Thai Restaurant", "icon": {"prefix": "https://ss3.4sqi.net/img/categories_v2/food/thai_", "suffix": ".png"}}], "chains": [], "distance": 450, "geocodes": {"main": {"latitude": 37.74119, "longitude": -122.464936}, "roof": {"latitude": 37.74119, "longitude": -122.464936}}, "link": "/v3/places/51841c27498e495ed7b5e1e8", "location": {"address": "272 Claremont Blvd", "census_block": "060750308001004", "country": "US", "cross_street": "", "dma": "San Francisco-Oakland-San Jose", "formatted_address": "272 Claremont Blvd, San Francisco, CA 94127", "locality": "San Francisco", "neighborhood": ["Forest Hill"], "postcode": "94127", "region": "CA"}, "name": "Chaiya", "related_places": {}, "timezone": "America/Los_Angeles"}, {"fsq_id": "4ad808d5f964a520981021e3", "categories": [{"id": 13065, "name": "Restaurant", "icon": {"prefix": "https://ss3.4sqi.net/img/categories_v2/food/default_", "suffix": ".png"}}], "chains": [], "distance": 498, "geocodes": {"main": {"latitude": 37.740897, "longitude": -122.465349}, "roof": {"latitude": 37.740897, "longitude": -122.465349}}, "link": "/v3/places/4ad808d5f964a520981021e3", "location": {"address": "840 Ulloa St", "census_block": "060750308001004", "country": "US", "cross_street": "at W Portal Ave", "dma": "San Francisco-Oakland-San Jose", "formatted_address": "840 Ulloa St (at W Portal Ave), San Francisco, CA 94127", "locality": "San Francisco", "neighborhood": ["Forest Hill"], "postcode": "94127", "region": "CA"}, "name": "Bullshead Restaurant", "related_places": {}, "timezone": "America/Los_Angeles"}, {"fsq_id": "5ee1c4c8463f9104c6f4edda", "categories": [{"id": 13099, "name": "Chinese Restaurant", "icon": {"prefix": "https://ss3.4sqi.net/img/categories_v2/food/asian_", "suffix": ".png"}}], "chains": [], "distance": 483, "geocodes": {"main": {"latitude": 37.740598, "longitude": -122.465403}, "roof": {"latitude": 37.740598, "longitude": -122.465403}}, "link": "/v3/places/5ee1c4c8463f9104c6f4edda", "location": {"address": "811 Ulloa St", "census_block": "060750308001015", "country": "US", "cross_street": "", "dma": "San Francisco-Oakland-San Jose", "formatted_address": "811 Ulloa St, San Francisco, CA 94127", "locality": "San Francisco", "neighborhood": ["Laguna Honda"], "postcode": "94127", "region": "CA"}, "name": "New Tsing Tao Restaurant", "related_places": {}, "timezone": "America/Los_Angeles"}, {"fsq_id": "4b5bb93cf964a520521229e3", "categories": [{"id": 13352, "name": "Thai Restaurant", "icon": {"prefix": "https://ss3.4sqi.net/img/categories_v2/food/thai_", "suffix": ".png"}}], "chains": [], "distance": 467, "geocodes": {"main": {"latitude": 37.741066, "longitude": -122.464984}}, "link": "/v3/places/4b5bb93cf964a520521229e3", "location": {"address": "272 Claremont Blvd", "country": "US", "cross_street": "", "dma": "San Francisco-Oakland-San Jose", "formatted_address": "272 Claremont Blvd, San Francisco, CA 94127", "locality": "San Francisco", "neighborhood": ["Forest Hill"], "postcode": "94127", "region": "CA"}, "name": "Silver Spoon Thai Kitchen", "related_places": {}, "timezone": "America/Los_Angeles"}, {"fsq_id": "526a845332b44a8c98b5e8c8", "categories": [{"id": 13036, "name": "Tea Room", "icon": {"prefix": "https://ss3.4sqi.net/img/categories_v2/food/tearoom_", "suffix": ".png"}}, {"id": 13065, "name": "Restaurant", "icon": {"prefix": "https://ss3.4sqi.net/img/categories_v2/food/default_", "suffix": ".png"}}], "chains": [], "distance": 415, "geocodes": {"main": {"latitude": 37.737093, "longitude": -122.462974}, "roof": {"latitude": 37.737093, "longitude": -122.462974}}, "link": "/v3/places/526a845332b44a8c98b5e8c8", "location": {"address": "99 Yerba Buena Ave", "census_block": "060750308002011", "country": "US", "dma": "San Francisco-Oakland-San Jose", "formatted_address": "99 Yerba Buena Ave, San Francisco, CA 94127", "locality": "San Francisco", "neighborhood": ["St. Francis Wood"], "postcode": "94127", "region": "CA"}, "name": "Beard Papa", "related_places": {}}], "context": {"geo_bounds": {"circle": {"center": {"latitude": 37.74, "longitude": -122.46}, "radius": 500}}}}