{"results": [{"fsq_id": "5a80ea27c58ed77c7cbcd80c", "categories": [{"id": 13072, "name": "Asian Restaurant", "icon": {"prefix": "https://ss3.4sqi.net/img/categories_v2/food/asian_", "suffix": ".png"}}, {"id": 13099, "name": "Chinese Restaurant", "icon": {"prefix": "https://ss3.4sqi.net/img/categories_v2/food/asian_", "suffix": ".png"}}, {"id": 13137, "name": "Dumpling Restaurant", "icon": {"prefix": "https://ss3.4sqi.net/img/categories_v2/food/dumplings_", "suffix": ".png"}}], "chains": [], "distance": 392, "geocodes": {"main": {"latitude": 37.763667, "longitude": -122.480674}, "roof": {"latitude": 37.763667, "longitude": -122.480674}}, "link": "/v3/places/5a80ea27c58ed77c7cbcd80c", "location": {"address": "2110 Irving St", "census_block": "060750326011003", "country": "US", "cross_street": "at 22nd Ave", "dma": "San Francisco-Oakland-San Jose", "formatted_address": "2110 Irving St (at 22nd Ave), San Francisco, CA 94122", "locality": "San Francisco", "neighborhood": ["Central Sunset"], "postcode": "94122", "region": "CA"}, "name": "Yuanbao Jiaozi", "related_places": {}, "timezone": "America/Los_Angeles"}, {"fsq_id": "54ee5259498e6903bec6240d", "categories": [{"id": 13002, "name": "Bakery", "icon": {"prefix": "https://ss3.4sqi.net/img/categories_v2/food/bakery_", "suffix": ".png"}}, {"id": 13065, "name": "Restaurant", "icon": {"prefix": "https://ss3.4sqi.net/img/categories_v2/food/default_", "suffix": ".png"}}], "chains": [], "distance": 417, "geocodes": {"main": {"latitude": 37.763387, "longitude": -122.478365}, "roof": {"latitude": 37.763387, "longitude": -122.478365}}, "link": "/v3/places/54ee5259498e6903bec6240d", "location": {"address": "1915 Irving St", "census_block": "060750326012001", "country": "US", "cross_street": "at 20th Ave", "dma": "San Francisco-Oakland-San Jose", "formatted_address": "1915 Irving St (at 20th Ave), San Francisco, CA 94122", "locality": "San Francisco", "neighborhood": ["Central Sunset"], "postcode": "94122", "region": "CA"}, "name": "Pineapple King Bakery", "related_places": {}, "timezone": "America/Los_Angeles"}, {"fsq_id": "59d2eb922955136af2fd0900", "categories": [{"id": 13127, "name": "Szechuan Restaurant", "icon": {"prefix": "https://ss3.4sqi.net/img/categories_v2/food/asian_", "suffix": ".png"}}, {"id": 13315, "name": "Noodle Restaurant", "icon": {"prefix": "https://ss3.4sqi.net/img/categories_v2/food/ramen_", "suffix": ".png"}}, {"id": 13342, "name": "Soup Restaurant", "icon": {"prefix": "https://ss3.4sqi.net/img/categories_v2/food/soup_", "suffix": ".png"}}], "chains": [], "distance": 419, "geocodes": {"main": {"latitude": 37.763652, "longitude": -122.478739}, "roof": {"latitude": 37.763652, "longitude": -122.478739}}, "link": "/v3/places/59d2eb922955136af2fd0900", "location": {"address": "1920 Irving St", "census_block": "060750326011001", "country": "US", "cross_street": "", "dma": "San Francisco-Oakland-San Jose", "formatted_address": "1920 Irving St, San Francisco, CA 94122", "locality": "San Francisco", "neighborhood": ["Central Sunset"], "postcode": "94122", "region": "CA"}, "name": "Szechuan Cuisine", "related_places": {}, "timezone": "America/Los_Angeles"}, {"fsq_id": "4a669b50f964a520c4c81fe3", "categories": [{"id": 13025, "name": "Wine Bar", "icon": {"prefix": "https://ss3.4sqi.net/img/categories_v2/food/winery_", "suffix": ".png"}}, {"id": 13039, "name": "Deli", "icon": {"prefix": "https://ss3.4sqi.net/img/categories_v2/food/deli_", "suffix": ".png"}}, {"id": 13334, "name": "Sandwich Restaurant", "icon": {"prefix": "https://ss3.4sqi.net/img/categories_v2/food/deli_", "suffix": ".png"}}], "chains": [], "distance": 434, "geocodes": {"main": {"latitude": 37.763409, "longitude": -122.47808}, "roof": {"latitude": 37.763409, "longitude": -122.47808}}, "link": "/v3/places/4a669b50f964a520c4c81fe3", "location": {"address": "1899 Irving St", "census_block": "060750326012000", "country": "US", "cross_street": "20th Ave", "dma": "San Francisco-Oakland-San Jose", "formatted_address": "1899 Irving St (20th Ave), San Francisco, CA 94122", "locality": "San Francisco", "neighborhood": ["Central Sunset"], "postcode": "94122", "region": "CA"}, "name": "Lucca Foods Deli & Wine Shop", "related_places": {}, "timezone": "America/Los_Angeles"}, {"fsq_id": "4b1c7936f964a520b70724e3", "categories": [{"id": 13099, "name": "Chinese Restaurant", "icon": {"prefix": "https://ss3.4sqi.net/img/categories_v2/food/asian_", "suffix": ".png"}}, {"id": 13379, "name": "Vietnamese Restaurant", "icon": {"prefix": "https://ss3.4sqi.net/img/categories_v2/food/vietnamese_", "suffix": ".png"}}], "chains": [], "distance": 428, "geocodes": {"main": {"latitude": 37.763377, "longitude": -122.477648}, "roof": {"latitude": 37.763377, "longitude": -122.477648}}, "link": "/v3/places/4b1c7936f964a520b70724e3", "location": {"address": "1833 Irving St", "census_block": "060750326012000", "country": "US", "cross_street": "btwn 19th & 20th Ave", "dma": "San Francisco-Oakland-San Jose", "formatted_address": "1833 Irving St (btwn 19th & 20th Ave), San Francisco, CA 94122", "locality": "San Francisco", "neighborhood": ["Central Sunset"], "postcode": "94122", "region": "CA"}, "name": "Kevin & Chris's Noodle House", "related_places": {"children": [{"fsq_id": "5c913a1146e1b6002cd4df97", "name": "PPQ Beef Noodle House"}]}, "timezone": "America/Los_Angeles"}, {"fsq_id": "4a71ba30f964a5206bd91fe3", "categories": [{"id": 13065, "name": "Restaurant", "icon": {"prefix": "https://ss3.4sqi.net/img/categories_v2/food/default_", "suffix": ".png"}}], "chains": [], "distance": 379, "geocodes": {"main": {"latitude": 37.763293, "longitude": -122.480007}, "roof": {"latitude": 37.763293, "longitude": -122.480007}}, "link": "/v3/places/4a71ba30f964a5206bd91fe3", "location": {"address": "2049 Irving St", "census_block": "060750326012002", "country": "US", "cross_street": "at 22nd Ave", "dma": "San Francisco-Oakland-San Jose", "formatted_address": "2049 Irving St (at 22nd Ave), San Francisco, CA 94122", "locality": "San Francisco", "neighborhood": ["Central Sunset"], "postcode": "94122", "region": "CA"}, "name": "Uncle Benny's Donut and Bagel", "related_places": {}, "timezone": "America/Los_Angeles"}, {"fsq_id": "4ac24af8f964a520989820e3", "categories": [{"id": 13002, "name": "Bakery", "icon": {"prefix": "https://ss3.4sqi.net/img/categories_v2/food/bakery_", "suffix": ".png"}}, {"id": 13145, "name": "Fast Food Restaurant", "icon": {"prefix": "https://ss3.4sqi.net/img/categories_v2/food/fastfood_", "suffix": ".png"}}], "chains": [], "distance": 396, "geocodes": {"main": {"latitude": 37.763354, "longitude": -122.478793}, "roof": {"latitude": 37.763354, "longitude": -122.478793}}, "link": "/v3/places/4ac24af8f964a520989820e3", "location": {"address": "1941 Irving St", "census_block": "060750326012001", "country": "US", "cross_street": "at 21st Ave.", "dma": "San Francisco-Oakland-San Jose", "formatted_address": "1941 Irving St (at 21st Ave.), San Francisco, CA 94122", "locality": "San Francisco", "neighborhood": ["Central Sunset"], "postcode": "94122", "region": "CA"}, "name": "Sheng Kee Bakery", "related_places": {}, "timezone": "America/Los_Angeles"}, {"fsq_id": "4adb9f2df964a520762921e3", "categories": [{"id": 13022, "name": "Sports Bar", "icon": {"prefix": "https://ss3.4sqi.net/img/categories_v2/nightlife/sportsbar_", "suffix": ".png"}}, {"id": 13306, "name": "Taco Restaurant", "icon": {"prefix": "https://ss3.4sqi.net/img/categories_v2/food/taco_", "suffix": ".png"}}], "chains": [], "distance": 454, "geocodes": {"main": {"latitude": 37.763664, "longitude": -122.477737}, "roof": {"latitude": 37.763664, "longitude": -122.477737}}, "link": "/v3/places/4adb9f2df964a520762921e3", "location": {"address": "1824 Irving St", "census_block": "060750326011007", "country": "US", "cross_street": "at 19th Ave", "dma": "San Francisco-Oakland-San Jose", "formatted_address": "1824 Irving St (at 19th Ave), San Francisco, CA 94122", "locality": "San Francisco", "neighborhood": ["Central Sunset"], "postcode": "94122", "region": "CA"}, "name": "The Taco Shop at Underdogs", "related_places": {}, "timezone": "America/Los_Angeles"}, {"fsq_id": "554d3a53498e73f71818b4be", "categories": [{"id": 13033, "name": "Bubble Tea Shop", "icon": {"prefix": "https://ss3.4sqi.net/img/categories_v2/food/bubble_", "suffix": ".png"}}, {"id": 13036, "name": "Tea Room", "icon": {"prefix": "https://ss3.4sqi.net/img/categories_v2/food/tearoom_", "suffix": ".png"}}, {"id": 13065, "name": "Restaurant", "icon": {"prefix": "https://ss3.4sqi.net/img/categories_v2/food/default_", "suffix": ".png"}}], "chains": [], "distance": 393, "geocodes": {"main": {"latitude": 37.763542, "longitude": -122.481025}, "roof": {"latitude": 37.763542, "longitude": -122.481025}}, "link": "/v3/places/554d3a53498e73f71818b4be", "location": {"address": "2150 Irving St", "census_block": "060750326011003", "country": "US", "cross_street": "at 23rd Ave", "dma": "San Francisco-Oakland-San Jose", "formatted_address": "2150 Irving St (at 23rd Ave), San Francisco, CA 94122", "locality": "San Francisco", "neighborhood": ["Central Sunset"], "postcode": "94122", "region": "CA"}, "name": "i-Tea", "related_places": {}, "timezone": "America/Los_Angeles"}, {"fsq_id": "4b04bb5ef964a520675622e3", "categories": [{"id": 13026, "name": "BBQ Joint", "icon": {"prefix": "https://ss3.4sqi.net/img/categories_v2/food/bbqalt_", "suffix": ".png"}}, {"id": 13102, "name": "Cantonese Restaurant", "icon": {"prefix": "https://ss3.4sqi.net/img/categories_v2/food/asian_", "suffix": ".png"}}, {"id": 13379, "name": "Vietnamese Restaurant", "icon": {"prefix": "https://ss3.4sqi.net/img/categories_v2/food/vietnamese_", "suffix": ".png"}}], "chains": [], "distance": 459, "geocodes": {"main": {"latitude": 37.763193, "longitude": -122.48301}, "roof": {"latitude": 37.763193, "longitude": -122.48301}}, "link": "/v3/places/4b04bb5ef964a520675622e3", "location": {"address": "2337 Irving St", "census_block": "060750326012005", "country": "US", "cross_street": "", "dma": "San Francisco-Oakland-San Jose", "formatted_address": "2337 Irving St, San Francisco, CA 94122", "locality": "San Francisco", "neighborhood": ["Central Sunset"], "postcode": "94122", "region": "CA"}, "name": "Lam Hoa Thuan Restaurant", "related_places": {}, "timezone": "America/Los_Angeles"}, {"fsq_id": "43c8ff1df964a520932d1fe3", "categories": [{"id": 13379, "name": "Vietnamese Restaurant", "icon": {"prefix": "https://ss3.4sqi.net/img/categories_v2/food/vietnamese_", "suffix": ".png"}}], "chains": [], "distance": 460, "geocodes": {"main": {"latitude": 37.763751, "longitude": -122.477455}, "roof": {"latitude": 37.763751, "longitude": -122.477455}}, "link": "/v3/places/43c8ff1df964a520932d1fe3", "location": {"address": "1816 Irving St", "census_block": "060750326011007", "country": "US", "cross_street": "btwn 19th & 20th", "dma": "San Francisco-Oakland-San Jose", "formatted_address": "1816 Irving St (btwn 19th & 20th), San Francisco, CA 94122", "locality": "San Francisco", "neighborhood": ["Central Sunset"], "postcode": "94122", "region": "CA"}, "name": "Pho Phu Quoc Vietnamese Restaurant", "related_places": {}, "timezone": "America/Los_Angeles"}, {"fsq_id": "4a653692f964a52072c71fe3", "categories": [{"id": 13352, "name": "Thai Restaurant", "icon": {"prefix": "https://ss3.4sqi.net/img/categories_v2/food/thai_", "suffix": ".png"}}], "chains": [], "distance": 372, "geocodes": {"main": {"latitude": 37.763228, "longitude": -122.480863}, "roof": {"latitude": 37.763228, "longitude": -122.480863}}, "link": "/v3/places/4a653692f964a52072c71fe3", "location": {"address": "2123 Irving St", "census_block": "060750326012003", "country": "US", "cross_street": "btw 22nd Ave & 23rd Ave", "dma": "San Francisco-Oakland-San Jose", "formatted_address": "2123 Irving St (btw 22nd Ave & 23rd Ave), San Francisco, CA 94122", "locality": "San Francisco", "neighborhood": ["Central Sunset"], "postcode": "94122", "region": "CA"}, "name": "Chabaa Thai Cuisine", "related_places": {}, "timezone": "America/Los_Angeles"}, {"fsq_id": "3fd66200f964a52021ed1ee3", "categories": [{"id": 13065, "name": "Restaurant", "icon": {"prefix": "https://ss3.4sqi.net/img/categories_v2/food/default_", "suffix": ".png"}}], "chains": [], "distance": 406, "geocodes": {"main": {"latitude": 37.763254, "longitude": -122.481796}, "roof": {"latitude": 37.763254, "longitude": -122.481796}}, "link": "/v3/places/3fd66200f964a52021ed1ee3", "location": {"address": "2225 Irving St", "census_block": "060750326012004", "country": "US", "cross_street": "btw 23rd and 24th Ave", "dma": "San Francisco-Oakland-San Jose", "formatted_address": "2225 Irving St (btw 23rd and 24th Ave), San Francisco, CA 94122", "locality": "San Francisco", "neighborhood": ["Central Sunset"], "postcode": "94122", "region": "CA"}, "name": "Marnee Thai", "related_places": {}, "timezone": "America/Los_Angeles"}, {"fsq_id": "3fd66200f964a52018f11ee3", "categories": [{"id": 13009, "name": "Cocktail Bar", "icon": {"prefix": "https://ss3.4sqi.net/img/categories_v2/nightlife/cocktails_", "suffix": ".png"}}, {"id": 13018, "name": "Pub", "icon": {"prefix": "https://ss3.4sqi.net/img/categories_v2/nightlife/pub_", "suffix": ".png"}}, {"id": 13065, "name": "Restaurant", "icon": {"prefix": "https://ss3.4sqi.net/img/categories_v2/food/default_", "suffix": ".png"}}], "chains": [], "distance": 464, "geocodes": {"main": {"latitude": 37.763469, "longitude": -122.483003}}, "link": "/v3/places/3fd66200f964a52018f11ee3", "location": {"address": "2328 Irving St", "country": "US", "cross_street": "at 24th Ave", "dma": "San Francisco-Oakland-San Jose", "formatted_address": "2328 Irving St (at 24th Ave), San Francisco, CA 94122", "locality": "San Francisco", "neighborhood": ["Central Sunset"], "postcode": "94122", "region": "CA"}, "name": "Durty Nelly's", "related_places": {}, "timezone": "America/Los_Angeles"}, {"fsq_id": "4ae4b1b2f964a520339d21e3", "categories": [{"id": 13039, "name": "Deli", "icon": {"prefix": "https://ss3.4sqi.net/img/categories_v2/food/deli_", "suffix": ".png"}}, {"id": 13302, "name": "Mediterranean Restaurant", "icon": {"prefix": "https://ss3.4sqi.net/img/categories_v2/food/mediterranean_", "suffix": ".png"}}, {"id": 13309, "name": "Middle Eastern Restaurant", "icon": {"prefix": "https://ss3.4sqi.net/img/categories_v2/food/middleeastern_", "suffix": ".png"}}], "chains": [], "distance": 376, "geocodes": {"main": {"latitude": 37.763304, "longitude": -122.480724}, "roof": {"latitude": 37.763304, "longitude": -122.480724}}, "link": "/v3/places/4ae4b1b2f964a520339d21e3", "location": {"address": "2115 Irving St", "census_block": "060750326012003", "country": "US", "dma": "San Francisco-Oakland-San Jose", "formatted_address": "2115 Irving St, San Francisco, CA 94122", "locality": "San Francisco", "neighborhood": ["Central Sunset"], "postcode": "94122", "region": "CA"}, "name": "Sunrise Deli", "related_places": {}, "timezone": "America/Los_Angeles"}, {"fsq_id": "4c683fdf607ad13a3013a82b", "categories": [{"id": 13072, "name": "Asian Restaurant", "icon": {"prefix": "https://ss3.4sqi.net/img/categories_v2/food/asian_", "suffix": ".png"}}, {"id": 13272, "name": "Ramen Restaurant", "icon": {"prefix": "https://ss3.4sqi.net/img/categories_v2/food/ramen_", "suffix": ".png"}}, {"id": 13276, "name": "Sushi Restaurant", "icon": {"prefix": "https://ss3.4sqi.net/img/categories_v2/food/sushi_", "suffix": ".png"}}], "chains": [], "distance": 426, "geocodes": {"main": {"latitude": 37.763492, "longitude": -122.482097}, "roof": {"latitude": 37.763492, "longitude": -122.482097}}, "link": "/v3/places/4c683fdf607ad13a3013a82b", "location": {"address": "2240 Irving St", "census_block": "060750326011004", "country": "US", "cross_street": "btwn 24th and 23rd Ave", "dma": "San Francisco-Oakland-San Jose", "formatted_address": "2240 Irving St (btwn 24th and 23rd Ave), San Francisco, CA 94122", "locality": "San Francisco", "neighborhood": ["Central Sunset"], "postcode": "94122", "region": "CA"}, "name": "Saiwaii Ramen", "related_places": {}, "timezone": "America/Los_Angeles"}, {"fsq_id": "5bdbb867018cbb002caea093", "categories": [{"id": 13072, "name": "Asian Restaurant", "icon": {"prefix": "https://ss3.4sqi.net/img/categories_v2/food/asian_", "suffix": ".png"}}, {"id": 13338, "name": "Seafood Restaurant", "icon": {"prefix": "https://ss3.4sqi.net/img/categories_v2/food/seafood_", "suffix": ".png"}}, {"id": 13379, "name": "Vietnamese Restaurant", "icon": {"prefix": "https://ss3.4sqi.net/img/categories_v2/food/vietnamese_", "suffix": ".png"}}], "chains": [], "distance": 449, "geocodes": {"main": {"latitude": 37.763653, "longitude": -122.477879}, "roof": {"latitude": 37.763653, "longitude": -122.477879}}, "link": "/v3/places/5bdbb867018cbb002caea093", "location": {"address": "1830 Irving St", "census_block": "060750326011007", "country": "US", "cross_street": "19th Avenue", "dma": "San Francisco-Oakland-San Jose", "formatted_address": "1830 Irving St (19th Avenue), San Francisco, CA 94122", "locality": "San Francisco", "neighborhood": ["Central Sunset"], "postcode": "94122", "region": "CA"}, "name": "Golden Crab House", "related_places": {}, "timezone": "America/Los_Angeles"}, {"fsq_id": "4a5ad4d7f964a520d8ba1fe3", "categories": [{"id": 13039, "name": "Deli", "icon": {"prefix": "https://ss3.4sqi.net/img/categories_v2/food/deli_", "suffix": ".png"}}], "chains": [], "distance": 451, "geocodes": {"main": {"latitude": 37.763415, "longitude": -122.477579}, "roof": {"latitude": 37.763415, "longitude": -122.477579}}, "link": "/v3/places/4a5ad4d7f964a520d8ba1fe3", "location": {"address": "1815 Irving St", "census_block": "060750326012000", "country": "US", "cross_street": "", "dma": "San Francisco-Oakland-San Jose", "formatted_address": "1815 Irving St, San Francisco, CA 94122", "locality": "San Francisco", "neighborhood": ["Central Sunset"], "postcode": "94122", "region": "CA"}, "name": "Handy Delicatessen", "related_places": {}, "timezone": "America/Los_Angeles"}, {"fsq_id": "49ebf313f964a5204b671fe3", "categories": [{"id": 13033, "name": "Bubble Tea Shop", "icon": {"prefix": "https://ss3.4sqi.net/img/categories_v2/food/bubble_", "suffix": ".png"}}], "chains": [], "distance": 375, "geocodes": {"main": {"latitude": 37.763293, "longitude": -122.480007}, "roof": {"latitude": 37.763293, "longitude": -122.480007}}, "link": "/v3/places/49ebf313f964a5204b671fe3", "location": {"address": "2035 Irving St", "census_block": "060750326012002", "country": "US", "cross_street": "at 22nd Ave", "dma": "San Francisco-Oakland-San Jose", "formatted_address": "2035 Irving St (at 22nd Ave), San Francisco, CA 94122", "locality": "San Francisco", "neighborhood": ["Central Sunset"], "postcode": "94122", "region": "CA"}, "name": "Wonderful Desserts & Cafe", "related_places": {}, "timezone": "America/Los_Angeles"}, {"fsq_id": "5188525a498ecde2b8d19401", "categories": [{"id": 13026, "name": "BBQ Joint", "icon": {"prefix": "https://ss3.4sqi.net/img/categories_v2/food/bbqalt_", "suffix": ".png"}}, {"id": 13102, "name": "Cantonese Restaurant", "icon": {"prefix": "https://ss3.4sqi.net/img/categories_v2/food/asian_", "suffix": ".png"}}], "chains": [], "distance": 388, "geocodes": {"main": {"latitude": 37.763271, "longitude": -122.481152}, "roof": {"latitude": 37.763271, "longitude": -122.481152}}, "link": "/v3/places/5188525a498ecde2b8d19401", "location": {"address": "2191 Irving St", "census_block": "060750326012003", "country": "US", "cross_street": "23rd Ave", "dma": "San Francisco-Oakland-San Jose", "formatted_address": "2191 Irving St (23rd Ave), San Francisco, CA 94122", "locality": "San Francisco", "neighborhood": ["Central Sunset"], "postcode": "94122", "region": "CA"}, "name": "Guangdong Barbecue Tea House", "related_places": {}, "timezone": "America/Los_Angeles"}, {"fsq_id": "4bd34ee9caff9521e694d4f0", "categories": [{"id": 13002, "name": "Bakery", "icon": {"prefix": "https://ss3.4sqi.net/img/categories_v2/food/bakery_", "suffix": ".png"}}, {"id": 13106, "name": "Dim Sum Restaurant", "icon": {"prefix": "https://ss3.4sqi.net/img/categories_v2/food/dimsum_", "suffix": ".png"}}], "chains": [], "distance": 414, "geocodes": {"main": {"latitude": 37.763232, "longitude": -122.482081}, "roof": {"latitude": 37.763232, "longitude": -122.482081}}, "link": "/v3/places/4bd34ee9caff9521e694d4f0", "location": {"address": "2249 Irving St", "census_block": "060750326012004", "country": "US", "cross_street": "24th Ave.", "dma": "San Francisco-Oakland-San Jose", "formatted_address": "2249 Irving St (24th Ave.), San Francisco, CA 94122", "locality": "San Francisco", "neighborhood": ["Central Sunset"], "postcode": "94122", "region": "CA"}, "name": "Happy Bakery", "related_places": {}, "timezone": "America/Los_Angeles"}, {"fsq_id": "52c5d0f2498e9f7f18db0cc5", "categories": [{"id": 13039, "name": "Deli", "icon": {"prefix": "https://ss3.4sqi.net/img/categories_v2/food/deli_", "suffix": ".png"}}, {"id": 13072, "name": "Asian Restaurant", "icon": {"prefix": "https://ss3.4sqi.net/img/categories_v2/food/asian_", "suffix": ".png"}}, {"id": 13379, "name": "Vietnamese Restaurant", "icon": {"prefix": "https://ss3.4sqi.net/img/categories_v2/food/vietnamese_", "suffix": ".png"}}], "chains": [], "distance": 391, "geocodes": {"main": {"latitude": 37.763502, "longitude": -122.480934}}, "link": "/v3/places/52c5d0f2498e9f7f18db0cc5", "location": {"address": "2138 Irving St", "country": "US", "cross_street": "23rd Avenue", "dma": "San Francisco-Oakland-San Jose", "formatted_address": "2138 Irving St (23rd Avenue), San Francisco, CA 94122", "locality": "San Francisco", "neighborhood": ["Central Sunset"], "postcode": "94122", "region": "CA"}, "name": "Que Huong Vietnamese Deli", "related_places": {}, "timezone": "America/Los_Angeles"}, {"fsq_id": "4a47c4fcf964a52011aa1fe3", "categories": [{"id": 13002, "name": "Bakery", "icon": {"prefix": "https://ss3.4sqi.net/img/categories_v2/food/bakery_", "suffix": ".png"}}, {"id": 13102, "name": "Cantonese Restaurant", "icon": {"prefix": "https://ss3.4sqi.net/img/categories_v2/food/asian_", "suffix": ".png"}}, {"id": 13106, "name": "Dim Sum Restaurant", "icon": {"prefix": "https://ss3.4sqi.net/img/categories_v2/food/dimsum_", "suffix": ".png"}}], "chains": [], "distance": 409, "geocodes": {"main": {"latitude": 37.763501, "longitude": -122.481864}}, "link": "/v3/places/4a47c4fcf964a52011aa1fe3", "location": {"address": "2222 Irving St", "country": "US", "cross_street": "22nd", "dma": "San Francisco-Oakland-San Jose", "formatted_address": "2222 Irving St (22nd), San Francisco, CA 94122", "locality": "San Francisco", "neighborhood": ["Central Sunset"], "postcode": "94122", "region": "CA"}, "name": "T C Pastry", "related_places": {}, "timezone": "America/Los_Angeles"}, {"fsq_id": "56187500498e4d3becb12ee5", "categories": [{"id": 13068, "name": "American Restaurant", "icon": {"prefix": "https://ss3.4sqi.net/img/categories_v2/food/default_", "suffix": ".png"}}, {"id": 13072, "name": "Asian Restaurant", "icon": {"prefix": "https://ss3.4sqi.net/img/categories_v2/food/asian_", "suffix": ".png"}}, {"id": 13099, "name": "Chinese Restaurant", "icon": {"prefix": "https://ss3.4sqi.net/img/categories_v2/food/asian_", "suffix": ".png"}}], "chains": [], "distance": 423, "geocodes": {"main": {"latitude": 37.763525, "longitude": -122.481669}, "roof": {"latitude": 37.763525, "longitude": -122.481669}}, "link": "/v3/places/56187500498e4d3becb12ee5", "location": {"address": "2218 Irving St", "census_block": "060750326011004", "country": "US", "cross_street": "at 24th Ave", "dma": "San Francisco-Oakland-San Jose", "formatted_address": "2218 Irving St (at 24th Ave), San Francisco, CA 94122", "locality": "San Francisco", "neighborhood": ["Central Sunset"], "postcode": "94122", "region": "CA"}, "name": "Bei Fang Style", "related_places": {}, "timezone": "America/Los_Angeles"}, {"fsq_id": "4a70fc10f964a520ebd81fe3", "categories": [{"id": 13127, "name": "Szechuan Restaurant", "icon": {"prefix": "https://ss3.4sqi.net/img/categories_v2/food/asian_", "suffix": ".png"}}, {"id": 13289, "name": "Korean Restaurant", "icon": {"prefix": "https://ss3.4sqi.net/img/categories_v2/food/korean_", "suffix": ".png"}}], "chains": [], "distance": 420, "geocodes": {"main": {"latitude": 37.763652, "longitude": -122.478739}, "roof": {"latitude": 37.763652, "longitude": -122.478739}}, "link": "/v3/places/4a70fc10f964a520ebd81fe3", "location": {"address": "1920 Irving St", "census_block": "060750326011001", "country": "US", "cross_street": "at 20th Ave", "dma": "San Francisco-Oakland-San Jose", "formatted_address": "1920 Irving St (at 20th Ave), San Francisco, CA 94122", "locality": "San Francisco", "neighborhood": ["Central Sunset"], "postcode": "94122", "region": "CA"}, "name": "Tofu Village", "related_places": {}, "timezone": "America/Los_Angeles"}, {"fsq_id": "4e87cfed823178916278a7ff", "categories": [{"id": 13036, "name": "Tea Room", "icon": {"prefix": "https://ss3.4sqi.net/img/categories_v2/food/tearoom_", "suffix": ".png"}}], "chains": [], "distance": 440, "geocodes": {"main": {"latitude": 37.763546, "longitude": -122.482243}, "roof": {"latitude": 37.763546, "longitude": -122.482243}}, "link": "/v3/places/4e87cfed823178916278a7ff", "location": {"address": "2250 Irving St", "census_block": "060750326011004", "country": "US", "cross_street": "at 24th Ave", "dma": "San Francisco-Oakland-San Jose", "formatted_address": "2250 Irving St (at 24th Ave), San Francisco, CA 94122", "locality": "San Francisco", "neighborhood": ["Central Sunset"], "postcode": "94122", "region": "CA"}, "name": "TeaWay Flagship \u4e00\u8336\u9053", "related_places": {}, "timezone": "America/Los_Angeles"}, {"fsq_id": "5b6fd519270ee7002c4dc91a", "categories": [{"id": 13065, "name": "Restaurant", "icon": {"prefix": "https://ss3.4sqi.net/img/categories_v2/food/default_", "suffix": ".png"}}], "chains": [], "distance": 442, "geocodes": {"main": {"latitude": 37.763388, "longitude": -122.477505}, "roof": {"latitude": 37.763388, "longitude": -122.477505}}, "link": "/v3/places/5b6fd519270ee7002c4dc91a", "location": {"address": "1825 Irving St", "census_block": "060750326012000", "country": "US", "cross_street": "", "dma": "San Francisco-Oakland-San Jose", "formatted_address": "1825 Irving St, San Francisco, CA 94122", "locality": "San Francisco", "neighborhood": ["Central Sunset"], "postcode": "94122", "region": "CA"}, "name": "SF Hole In The Wall Pizza", "related_places": {}, "timezone": "America/Los_Angeles"}, {"fsq_id": "3fd66200f964a520d4ed1ee3", "categories": [{"id": 13009, "name": "Cocktail Bar", "icon": {"prefix": "https://ss3.4sqi.net/img/categories_v2/nightlife/cocktails_", "suffix": ".png"}}, {"id": 13010, "name": "Dive Bar", "icon": {"prefix": "https://ss3.4sqi.net/img/categories_v2/nightlife/divebar_", "suffix": ".png"}}, {"id": 13016, "name": "Lounge", "icon": {"prefix": "https://ss3.4sqi.net/img/categories_v2/nightlife/default_", "suffix": ".png"}}], "chains": [], "distance": 420, "geocodes": {"main": {"latitude": 37.763647, "longitude": -122.478381}, "roof": {"latitude": 37.763647, "longitude": -122.478381}}, "link": "/v3/places/3fd66200f964a520d4ed1ee3", "location": {"address": "1914 Irving St", "census_block": "060750326011001", "country": "US", "cross_street": "at 20th Ave", "dma": "San Francisco-Oakland-San Jose", "formatted_address": "1914 Irving St (at 20th Ave), San Francisco, CA 94122", "locality": "San Francisco", "neighborhood": ["Central Sunset"], "postcode": "94122", "region": "CA"}, "name": "Silver Spur", "related_places": {}, "timezone": "America/Los_Angeles"}, {"fsq_id": "511bfb60e4b08d6c9307f46c", "categories": [{"id": 13033, "name": "Bubble Tea Shop", "icon": {"prefix": "https://ss3.4sqi.net/img/categories_v2/food/bubble_", "suffix": ".png"}}, {"id": 13035, "name": "Coffee Shop", "icon": {"prefix": "https://ss3.4sqi.net/img/categories_v2/food/coffeeshop_", "suffix": ".png"}}, {"id": 13036, "name": "Tea Room", "icon": {"prefix": "https://ss3.4sqi.net/img/categories_v2/food/tearoom_", "suffix": ".png"}}], "chains": [], "distance": 423, "geocodes": {"main": {"latitude": 37.763674, "longitude": -122.478454}, "roof": {"latitude": 37.763674, "longitude": -122.478454}}, "link": "/v3/places/511bfb60e4b08d6c9307f46c", "location": {"address": "1916 Irving St", "census_block": "060750326011001", "country": "US", "cross_street": "btwn 20th & 21st Ave", "dma": "San Francisco-Oakland-San Jose", "formatted_address": "1916 Irving St (btwn 20th & 21st Ave), San Francisco, CA 94122", "locality": "San Francisco", "neighborhood": ["Central Sunset"], "postcode": "94122", "region": "CA"}, "name": "Tpumps", "related_places": {}, "timezone": "America/Los_Angeles"}, {"fsq_id": "4b39a82df964a520585e25e3", "categories": [{"id": 13033, "name": "Bubble Tea Shop", "icon": {"prefix": "https://ss3.4sqi.net/img/categories_v2/food/bubble_", "suffix": ".png"}}], "chains": [], "distance": 392, "geocodes": {"main": {"latitude": 37.763564, "longitude": -122.48074}, "roof": {"latitude": 37.763564, "longitude": -122.48074}}, "link": "/v3/places/4b39a82df964a520585e25e3", "location": {"address": "2128 Irving St", "census_block": "060750326011003", "country": "US", "cross_street": "btwn 22nd & 23rd Ave", "dma": "San Francisco-Oakland-San Jose", "formatted_address": "2128 Irving St (btwn 22nd & 23rd Ave), San Francisco, CA 94122", "locality": "San Francisco", "neighborhood": ["Central Sunset"], "postcode": "94122", "region": "CA"}, "name": "Quickly \u5feb\u53ef\u7acb", "related_places": {}, "timezone": "America/Los_Angeles"}, {"fsq_id": "4aafe573f964a5200f6520e3", "categories": [{"id": 13072, "name": "Asian Restaurant", "icon": {"prefix": "https://ss3.4sqi.net/img/categories_v2/food/asian_", "suffix": ".png"}}, {"id": 13276, "name": "Sushi Restaurant", "icon": {"prefix": "https://ss3.4sqi.net/img/categories_v2/food/sushi_", "suffix": ".png"}}], "chains": [], "distance": 389, "geocodes": {"main": {"latitude": 37.763526, "longitude": -122.480809}, "roof": {"latitude": 37.763526, "longitude": -122.480809}}, "link": "/v3/places/4aafe573f964a5200f6520e3", "location": {"address": "2126 Irving St", "census_block": "060750326011003", "country": "US", "cross_street": "22nd", "dma": "San Francisco-Oakland-San Jose", "formatted_address": "2126 Irving St (22nd), San Francisco, CA 94122", "locality": "San Francisco", "neighborhood": ["Central Sunset"], "postcode": "94122", "region": "CA"}, "name": "Micado Restaurant", "related_places": {}, "timezone": "America/Los_Angeles"}, {"fsq_id": "59876e049411f219a90f25eb", "categories": [{"id": 13276, "name": "Sushi Restaurant", "icon": {"prefix": "https://ss3.4sqi.net/img/categories_v2/food/sushi_", "suffix": ".png"}}], "chains": [], "distance": 368, "geocodes": {"main": {"latitude": 37.763152, "longitude": -122.481002}, "roof": {"latitude": 37.763152, "longitude": -122.481002}}, "link": "/v3/places/59876e049411f219a90f25eb", "location": {"address": "2181 Irving St", "census_block": "060750326012003", "country": "US", "cross_street": "23rd Ave", "dma": "San Francisco-Oakland-San Jose", "formatted_address": "2181 Irving St (23rd Ave), San Francisco, CA 94122", "locality": "San Francisco", "neighborhood": ["Central Sunset"], "postcode": "94122", "region": "CA"}, "name": "Yum Yum Sushi House", "related_places": {}, "timezone": "America/Los_Angeles"}, {"fsq_id": "6095e3e010f0fb76508b6967", "categories": [{"id": 13272, "name": "Ramen Restaurant", "icon": {"prefix": "https://ss3.4sqi.net/img/categories_v2/food/ramen_", "suffix": ".png"}}], "chains": [], "distance": 361, "geocodes": {"main": {"latitude": 37.763282, "longitude": -122.479952}}, "link": "/v3/places/6095e3e010f0fb76508b6967", "location": {"address": "2045 Irving St", "country": "US", "cross_street": "", "dma": "San Francisco-Oakland-San Jose", "formatted_address": "2045 Irving St, San Francisco, CA 94122", "locality": "San Francisco", "neighborhood": ["Central Sunset"], "postcode": "94122", "region": "CA"}, "name": "Kyushu Ramen", "related_places": {}, "timezone": "America/Los_Angeles"}, {"fsq_id": "5e6293666226d50008a0c054", "categories": [{"id": 13033, "name": "Bubble Tea Shop", "icon": {"prefix": "https://ss3.4sqi.net/img/categories_v2/food/bubble_", "suffix": ".png"}}, {"id": 13263, "name": "Japanese Restaurant", "icon": {"prefix": "https://ss3.4sqi.net/img/categories_v2/food/japanese_", "suffix": ".png"}}], "chains": [], "distance": 368, "geocodes": {"main": {"latitude": 37.763266, "longitude": -122.479934}, "roof": {"latitude": 37.763266, "longitude": -122.479934}}, "link": "/v3/places/5e6293666226d50008a0c054", "location": {"address": "2045 Irving St", "census_block": "060750326012002", "country": "US", "cross_street": "", "dma": "San Francisco-Oakland-San Jose", "formatted_address": "2045 Irving St, San Francisco, CA 94122", "locality": "San Francisco", "neighborhood": ["Central Sunset"], "postcode": "94122", "region": "CA"}, "name": "Super Pan & Tea", "related_places": {}, "timezone": "America/Los_Angeles"}, {"fsq_id": "60ebac7ce6479c61226069aa", "categories": [{"id": 13352, "name": "Thai Restaurant", "icon": {"prefix": "https://ss3.4sqi.net/img/categories_v2/food/thai_", "suffix": ".png"}}], "chains": [], "distance": 371, "geocodes": {"main": {"latitude": 37.763225, "longitude": -122.480834}}, "link": "/v3/places/60ebac7ce6479c61226069aa", "location": {"address": "2123 Irving St", "country": "US", "cross_street": "", "dma": "San Francisco-Oakland-San Jose", "formatted_address": "2123 Irving St, San Francisco, CA 94122", "locality": "San Francisco", "neighborhood": ["Central Sunset"], "postcode": "94122", "region": "CA"}, "name": "Bangkok House Thai Noodles", "related_places": {}, "timezone": "America/Los_Angeles"}, {"fsq_id": "621c0d7853d1a56066e0ac11", "categories": [{"id": 13035, "name": "Coffee Shop", "icon": {"prefix": "https://ss3.4sqi.net/img/categories_v2/food/coffeeshop_", "suffix": ".png"}}], "chains": [], "distance": 386, "geocodes": {"main": {"latitude": 37.76341, "longitude": -122.48087}}, "link": "/v3/places/621c0d7853d1a56066e0ac11", "location": {"address": "2142 Irving St", "country": "US", "cross_street": "", "dma": "San Francisco-Oakland-San Jose", "formatted_address": "2142 Irving St, San Francisco, CA 94122", "locality": "San Francisco", "neighborhood": ["Central Sunset"], "postcode": "94122", "region": "CA"}, "name": "Not Latte", "related_places": {}, "timezone": "America/Los_Angeles"}, {"fsq_id": "61d0b41c39f549412a6b664a", "categories": [{"id": 13043, "name": "Donut Shop", "icon": {"prefix": "https://ss3.4sqi.net/img/categories_v2/food/donuts_", "suffix": ".png"}}], "chains": [], "distance": 387, "geocodes": {"main": {"latitude": 37.763424, "longitude": -122.480845}}, "link": "/v3/places/61d0b41c39f549412a6b664a", "location": {"address": "2126 Irving St", "country": "US", "cross_street": "", "dma": "San Francisco-Oakland-San Jose", "formatted_address": "2126 Irving St, San Francisco, CA 94122", "locality": "San Francisco", "neighborhood": ["Central Sunset"], "postcode": "94122", "region": "CA"}, "name": "The Mochi Donut Shop", "related_places": {}, "timezone": "America/Los_Angeles"}, {"fsq_id": "61688db219089976364ee15b", "categories": [{"id": 13043, "name": "Donut Shop", "icon": {"prefix": "https://ss3.4sqi.net/img/categories_v2/food/donuts_", "suffix": ".png"}}], "chains": [], "distance": 390, "geocodes": {"main": {"latitude": 37.763492, "longitude": -122.480802}}, "link": "/v3/places/61688db219089976364ee15b", "location": {"address": "2126 Irving St", "country": "US", "cross_street": "", "dma": "San Francisco-Oakland-San Jose", "formatted_address": "2126 Irving St, San Francisco, CA 94122", "locality": "San Francisco", "neighborhood": ["Central Sunset"], "postcode": "94122", "region": "CA"}, "name": "Mochinut", "related_places": {}, "timezone": "America/Los_Angeles"}, {"fsq_id": "572aaab3498e61ac5316c6ab", "categories": [{"id": 13002, "name": "Bakery", "icon": {"prefix": "https://ss3.4sqi.net/img/categories_v2/food/bakery_", "suffix": ".png"}}, {"id": 13035, "name": "Coffee Shop", "icon": {"prefix": "https://ss3.4sqi.net/img/categories_v2/food/coffeeshop_", "suffix": ".png"}}], "chains": [], "distance": 415, "geocodes": {"main": {"latitude": 37.763112, "longitude": -122.48279}, "roof": {"latitude": 37.763112, "longitude": -122.48279}}, "link": "/v3/places/572aaab3498e61ac5316c6ab", "location": {"address": "2305 Irving St", "census_block": "060750326012005", "country": "US", "cross_street": "24th Ave", "dma": "San Francisco-Oakland-San Jose", "formatted_address": "2305 Irving St (24th Ave), San Francisco, CA 94122", "locality": "San Francisco", "neighborhood": ["Central Sunset"], "postcode": "94122", "region": "CA"}, "name": "Sunny Wheatfield Cafe", "related_places": {}, "timezone": "America/Los_Angeles"}, {"fsq_id": "5ee68dab7d6bae00082fadd5", "categories": [{"id": 13033, "name": "Bubble Tea Shop", "icon": {"prefix": "https://ss3.4sqi.net/img/categories_v2/food/bubble_", "suffix": ".png"}}, {"id": 13035, "name": "Coffee Shop", "icon": {"prefix": "https://ss3.4sqi.net/img/categories_v2/food/coffeeshop_", "suffix": ".png"}}], "chains": [], "distance": 400, "geocodes": {"main": {"latitude": 37.763266, "longitude": -122.480794}, "roof": {"latitude": 37.763266, "longitude": -122.480794}}, "link": "/v3/places/5ee68dab7d6bae00082fadd5", "location": {"address": "2127 Irving St", "census_block": "060750326012003", "country": "US", "cross_street": "", "dma": "San Francisco-Oakland-San Jose", "formatted_address": "2127 Irving St, San Francisco, CA 94122", "locality": "San Francisco", "neighborhood": ["Central Sunset"], "postcode": "94122", "region": "CA"}, "name": "1011 Sip Tea", "related_places": {}, "timezone": "America/Los_Angeles"}, {"fsq_id": "4ae8d83cf964a520d2b221e3", "categories": [{"id": 13106, "name": "Dim Sum Restaurant", "icon": {"prefix": "https://ss3.4sqi.net/img/categories_v2/food/dimsum_", "suffix": ".png"}}], "chains": [], "distance": 400, "geocodes": {"main": {"latitude": 37.763194, "longitude": -122.482151}, "roof": {"latitude": 37.763194, "longitude": -122.482151}}, "link": "/v3/places/4ae8d83cf964a520d2b221e3", "location": {"address": "Irving St and 24th", "census_block": "060750326012004", "country": "US", "cross_street": "", "dma": "San Francisco-Oakland-San Jose", "formatted_address": "Irving St and 24th, San Francisco, CA 94122", "locality": "San Francisco", "neighborhood": ["Central Sunset"], "postcode": "94122", "region": "CA"}, "name": "T & C Dim Sum Specialist", "related_places": {}, "timezone": "America/Los_Angeles"}, {"fsq_id": "57c48e5e498e0351441bfb6f", "categories": [{"id": 13072, "name": "Asian Restaurant", "icon": {"prefix": "https://ss3.4sqi.net/img/categories_v2/food/asian_", "suffix": ".png"}}, {"id": 13289, "name": "Korean Restaurant", "icon": {"prefix": "https://ss3.4sqi.net/img/categories_v2/food/korean_", "suffix": ".png"}}, {"id": 13379, "name": "Vietnamese Restaurant", "icon": {"prefix": "https://ss3.4sqi.net/img/categories_v2/food/vietnamese_", "suffix": ".png"}}], "chains": [], "distance": 401, "geocodes": {"main": {"latitude": 37.763548, "longitude": -122.480524}, "roof": {"latitude": 37.763548, "longitude": -122.480524}}, "link": "/v3/places/57c48e5e498e0351441bfb6f", "location": {"address": "2110 Irving St", "census_block": "060750326011003", "country": "US", "cross_street": "22nd", "dma": "San Francisco-Oakland-San Jose", "formatted_address": "2110 Irving St (22nd), San Francisco, CA 94122", "locality": "San Francisco", "neighborhood": ["Central Sunset"], "postcode": "94122", "region": "CA"}, "name": "Cherimoya 2", "related_places": {}, "timezone": "America/Los_Angeles"}, {"fsq_id": "5f9c4adf1b35472f0721bf26", "categories": [{"id": 13055, "name": "Fried Chicken Joint", "icon": {"prefix": "https://ss3.4sqi.net/img/categories_v2/food/friedchicken_", "suffix": ".png"}}], "chains": [], "distance": 404, "geocodes": {"main": {"latitude": 37.763591, "longitude": -122.480813}, "roof": {"latitude": 37.763591, "longitude": -122.480813}}, "link": "/v3/places/5f9c4adf1b35472f0721bf26", "location": {"address": "2130 Irving St", "census_block": "060750326011003", "country": "US", "cross_street": "22nd Ave", "dma": "San Francisco-Oakland-San Jose", "formatted_address": "2130 Irving St (22nd Ave), San Francisco, CA 94122", "locality": "San Francisco", "neighborhood": ["Central Sunset"], "postcode": "94122", "region": "CA"}, "name": "Krispy Krunchy Chicken", "related_places": {"parent": {"fsq_id": "4dc3d6bbb0fb5556ccc6e5d2", "name": "Irving Seafood Market"}}, "timezone": "America/Los_Angeles"}, {"fsq_id": "57e49104498e9b2fd6645a37", "categories": [{"id": 13072, "name": "Asian Restaurant", "icon": {"prefix": "https://ss3.4sqi.net/img/categories_v2/food/asian_", "suffix": ".png"}}, {"id": 13276, "name": "Sushi Restaurant", "icon": {"prefix": "https://ss3.4sqi.net/img/categories_v2/food/sushi_", "suffix": ".png"}}], "chains": [], "distance": 404, "geocodes": {"main": {"latitude": 37.763634, "longitude": -122.481102}, "roof": {"latitude": 37.763634, "longitude": -122.481102}}, "link": "/v3/places/57e49104498e9b2fd6645a37", "location": {"address": "2146 Irving St", "census_block": "060750326011003", "country": "US", "cross_street": "", "dma": "San Francisco-Oakland-San Jose", "formatted_address": "2146 Irving St, San Francisco, CA 94122", "locality": "San Francisco", "neighborhood": ["Central Sunset"], "postcode": "94122", "region": "CA"}, "name": "Sushi Uma", "related_places": {}, "timezone": "America/Los_Angeles"}, {"fsq_id": "4a90c7f9f964a5206f1920e3", "categories": [{"id": 13040, "name": "Dessert Shop", "icon": {"prefix": "https://ss3.4sqi.net/img/categories_v2/food/dessert_", "suffix": ".png"}}, {"id": 13379, "name": "Vietnamese Restaurant", "icon": {"prefix": "https://ss3.4sqi.net/img/categories_v2/food/vietnamese_", "suffix": ".png"}}], "chains": [], "distance": 415, "geocodes": {"main": {"latitude": 37.763387, "longitude": -122.478365}, "roof": {"latitude": 37.763387, "longitude": -122.478365}}, "link": "/v3/places/4a90c7f9f964a5206f1920e3", "location": {"address": "1919 Irving St", "census_block": "060750326012001", "country": "US", "cross_street": "near 20th ave", "dma": "San Francisco-Oakland-San Jose", "formatted_address": "1919 Irving St (near 20th ave), San Francisco, CA 94122", "locality": "San Francisco", "neighborhood": ["Central Sunset"], "postcode": "94122", "region": "CA"}, "name": "Irving Cafe & Deserts", "related_places": {}, "timezone": "America/Los_Angeles"}, {"fsq_id": "57ef1e5e498efc884345bf99", "categories": [{"id": 13072, "name": "Asian Restaurant", "icon": {"prefix": "https://ss3.4sqi.net/img/categories_v2/food/asian_", "suffix": ".png"}}, {"id": 13102, "name": "Cantonese Restaurant", "icon": {"prefix": "https://ss3.4sqi.net/img/categories_v2/food/asian_", "suffix": ".png"}}], "chains": [], "distance": 416, "geocodes": {"main": {"latitude": 37.763679, "longitude": -122.478812}, "roof": {"latitude": 37.763679, "longitude": -122.478812}}, "link": "/v3/places/57ef1e5e498efc884345bf99", "location": {"address": "1936 Irving St", "census_block": "060750326011001", "country": "US", "cross_street": "", "dma": "San Francisco-Oakland-San Jose", "formatted_address": "1936 Irving St, San Francisco, CA 94122", "locality": "San Francisco", "neighborhood": ["Central Sunset"], "postcode": "94122", "region": "CA"}, "name": "Canton House Gourmet", "related_places": {}, "timezone": "America/Los_Angeles"}, {"fsq_id": "4a898355f964a520350820e3", "categories": [{"id": 13035, "name": "Coffee Shop", "icon": {"prefix": "https://ss3.4sqi.net/img/categories_v2/food/coffeeshop_", "suffix": ".png"}}], "chains": [{"id": "ab4c54c0-d68a-012e-5619-003048cad9da", "name": "Starbucks"}], "distance": 470, "geocodes": {"main": {"latitude": 37.763789, "longitude": -122.477386}, "roof": {"latitude": 37.763789, "longitude": -122.477386}}, "link": "/v3/places/4a898355f964a520350820e3", "location": {"address": "1800 Irving St", "census_block": "060750326011007", "country": "US", "cross_street": "at 19th Ave", "dma": "San Francisco-Oakland-San Jose", "formatted_address": "1800 Irving St (at 19th Ave), San Francisco, CA 94122", "locality": "San Francisco", "neighborhood": ["Central Sunset"], "postcode": "94122", "region": "CA"}, "name": "Starbucks", "related_places": {}, "timezone": "America/Los_Angeles"}, {"fsq_id": "4b21b43ff964a5206f4024e3", "categories": [{"id": 13338, "name": "Seafood Restaurant", "icon": {"prefix": "https://ss3.4sqi.net/img/categories_v2/food/seafood_", "suffix": ".png"}}], "chains": [], "distance": 434, "geocodes": {"main": {"latitude": 37.763101, "longitude": -122.482933}, "roof": {"latitude": 37.763101, "longitude": -122.482933}}, "link": "/v3/places/4b21b43ff964a5206f4024e3", "location": {"address": "2333 Irving St", "census_block": "060750326012005", "country": "US", "cross_street": "26th avenue", "dma": "San Francisco-Oakland-San Jose", "formatted_address": "2333 Irving St (26th avenue), San Francisco, CA 94122", "locality": "San Francisco", "neighborhood": ["Central Sunset"], "postcode": "94122", "region": "CA"}, "name": "Sj Crawfish - Sf", "related_places": {}, "timezone": "America/Los_Angeles"}, {"fsq_id": "5980a310780eee63cca1ad91", "categories": [{"id": 13002, "name": "Bakery", "icon": {"prefix": "https://ss3.4sqi.net/img/categories_v2/food/bakery_", "suffix": ".png"}}], "chains": [], "distance": 437, "geocodes": {"main": {"latitude": 37.76315, "longitude": -122.482721}, "roof": {"latitude": 37.76315, "longitude": -122.482721}}, "link": "/v3/places/5980a310780eee63cca1ad91", "location": {"address": "2305 Irving St", "census_block": "060750326012005", "country": "US", "cross_street": "24th Ave", "dma": "San Francisco-Oakland-San Jose", "formatted_address": "2305 Irving St (24th Ave), San Francisco, CA 94122", "locality": "San Francisco", "neighborhood": ["Central Sunset"], "postcode": "94122", "region": "CA"}, "name": "Fancy Wheat Field Bakery", "related_places": {}, "timezone": "America/Los_Angeles"}, {"fsq_id": "4f433e1c19834bc91f557ec6", "categories": [{"id": 13099, "name": "Chinese Restaurant", "icon": {"prefix": "https://ss3.4sqi.net/img/categories_v2/food/asian_", "suffix": ".png"}}], "chains": [], "distance": 437, "geocodes": {"main": {"latitude": 37.763128, "longitude": -122.483006}, "roof": {"latitude": 37.763128, "longitude": -122.483006}}, "link": "/v3/places/4f433e1c19834bc91f557ec6", "location": {"address": "2335 Irving St", "census_block": "060750326012005", "country": "US", "dma": "San Francisco-Oakland-San Jose", "formatted_address": "2335 Irving St, San Francisco, CA 94122", "locality": "San Francisco", "neighborhood": ["Central Sunset"], "postcode": "94122", "region": "CA"}, "name": "Ha's Restaurant", "related_places": {}, "timezone": "America/Los_Angeles"}], "context": {"geo_bounds": {"circle": {"center": {"latitude": 37.76, "longitude": -122.48}, "radius": 500}}}}