{"results": [{"fsq_id": "4f4fe10ce4b03cdd7a9e3cad", "categories": [{"id": 13334, "name": "Sandwich Restaurant", "icon": {"prefix": "https://ss3.4sqi.net/img/categories_v2/food/deli_", "suffix": ".png"}}], "chains": [], "distance": 274, "geocodes": {"main": {"latitude": 37.722302, "longitude": -122.478566}, "roof": {"latitude": 37.722302, "longitude": -122.478566}}, "link": "/v3/places/4f4fe10ce4b03cdd7a9e3cad", "location": {"address": "1650 Holloway Ave", "census_block": "060750332011006", "country": "US", "cross_street": "", "dma": "San Francisco-Oakland-San Jose", "formatted_address": "1650 Holloway Ave, San Francisco, CA 94132", "locality": "San Francisco", "neighborhood": ["Lakeside"], "postcode": "94132", "region": "CA"}, "name": "Ike's Place", "related_places": {}, "timezone": "America/Los_Angeles"}, {"fsq_id": "4aa0126af964a5202b3e20e3", "categories": [{"id": 13034, "name": "Caf\u00e9", "icon": {"prefix": "https://ss3.4sqi.net/img/categories_v2/food/cafe_", "suffix": ".png"}}, {"id": 13035, "name": "Coffee Shop", "icon": {"prefix": "https://ss3.4sqi.net/img/categories_v2/food/coffeeshop_", "suffix": ".png"}}, {"id": 13334, "name": "Sandwich Restaurant", "icon": {"prefix": "https://ss3.4sqi.net/img/categories_v2/food/deli_", "suffix": ".png"}}], "chains": [], "distance": 322, "geocodes": {"main": {"latitude": 37.722767, "longitude": -122.480169}, "roof": {"latitude": 37.722767, "longitude": -122.480169}}, "link": "/v3/places/4aa0126af964a5202b3e20e3", "location": {"address": "1600 Holloway Ave", "census_block": "060750332011006", "country": "US", "cross_street": "at Tapia Dr", "dma": "San Francisco-Oakland-San Jose", "formatted_address": "1600 Holloway Ave (at Tapia Dr), San Francisco, CA 94132", "locality": "San Francisco", "neighborhood": ["Stonestown"], "postcode": "94132", "region": "CA"}, "name": "Cafe Rosso", "related_places": {}, "timezone": "America/Los_Angeles"}, {"fsq_id": "589bbdf00593e13bc254ebb8", "categories": [{"id": 13032, "name": "Cafes, Coffee, and Tea Houses", "icon": {"prefix": "https://ss3.4sqi.net/img/categories_v2/food/default_", "suffix": ".png"}}], "chains": [{"id": "e60a5d2d-6e9e-4d3b-bfe4-5cebfc0c3d97", "name": "Peet's Coffee and Tea"}], "distance": 246, "geocodes": {"main": {"latitude": 37.721516, "longitude": -122.478161}, "roof": {"latitude": 37.721516, "longitude": -122.478161}}, "link": "/v3/places/589bbdf00593e13bc254ebb8", "location": {"address": "1630 Holloway Ave", "census_block": "060750332011006", "country": "US", "cross_street": "", "dma": "San Francisco-Oakland-San Jose", "formatted_address": "1630 Holloway Ave, San Francisco, CA 94132", "locality": "San Francisco", "neighborhood": ["Lakeside"], "postcode": "94132", "region": "CA"}, "name": "Peet's Coffee and Tea", "related_places": {"parent": {"fsq_id": "45aa836ef964a52034411fe3", "name": "San Francisco State University"}}, "timezone": "America/Los_Angeles"}, {"fsq_id": "4acb90adf964a52057c420e3", "categories": [{"id": 13306, "name": "Taco Restaurant", "icon": {"prefix": "https://ss3.4sqi.net/img/categories_v2/food/taco_", "suffix": ".png"}}], "chains": [], "distance": 259, "geocodes": {"main": {"latitude": 37.720708, "longitude": -122.478042}, "roof": {"latitude": 37.720708, "longitude": -122.478042}}, "link": "/v3/places/4acb90adf964a52057c420e3", "location": {"address": "1650 Holloway Ave", "census_block": "060750332041002", "country": "US", "cross_street": "Cesar Chavez Student Center", "dma": "San Francisco-Oakland-San Jose", "formatted_address": "1650 Holloway Ave (Cesar Chavez Student Center), San Francisco, CA 94132", "locality": "San Francisco", "neighborhood": ["Parkmerced"], "postcode": "94132", "region": "CA"}, "name": "Taqueria Girasol", "related_places": {"parent": {"fsq_id": "4b686002f964a520b0742be3", "name": "Cesar Chavez Student Center"}}, "timezone": "America/Los_Angeles"}, {"fsq_id": "4bbe6c5e006dc9b6b32cfb3f", "categories": [{"id": 13064, "name": "Pizzeria", "icon": {"prefix": "https://ss3.4sqi.net/img/categories_v2/food/pizza_", "suffix": ".png"}}, {"id": 13334, "name": "Sandwich Restaurant", "icon": {"prefix": "https://ss3.4sqi.net/img/categories_v2/food/deli_", "suffix": ".png"}}], "chains": [], "distance": 426, "geocodes": {"main": {"latitude": 37.72322, "longitude": -122.482775}, "roof": {"latitude": 37.72322, "longitude": -122.482775}}, "link": "/v3/places/4bbe6c5e006dc9b6b32cfb3f", "location": {"address": "750 Font Blvd", "census_block": "060750332011006", "country": "US", "dma": "San Francisco-Oakland-San Jose", "formatted_address": "750 Font Blvd, San Francisco, CA 94132", "locality": "San Francisco", "neighborhood": ["Stonestown"], "postcode": "94132", "region": "CA"}, "name": "The Village Market and Pizza", "related_places": {}, "timezone": "America/Los_Angeles"}, {"fsq_id": "4e120d4cd1647a0fff863a83", "categories": [{"id": 13009, "name": "Cocktail Bar", "icon": {"prefix": "https://ss3.4sqi.net/img/categories_v2/nightlife/cocktails_", "suffix": ".png"}}], "chains": [], "distance": 224, "geocodes": {"main": {"latitude": 37.718813, "longitude": -122.481867}, "roof": {"latitude": 37.718813, "longitude": -122.481867}}, "link": "/v3/places/4e120d4cd1647a0fff863a83", "location": {"address": "405 Serrano Dr", "census_block": "060750332042001", "country": "US", "cross_street": "", "dma": "San Francisco-Oakland-San Jose", "formatted_address": "405 Serrano Dr, San Francisco, CA 94132", "locality": "San Francisco", "neighborhood": ["Park Merced"], "postcode": "94132", "region": "CA"}, "name": "The Fortress", "related_places": {}, "timezone": "America/Los_Angeles"}, {"fsq_id": "5890ee695289302f30c6dca4", "categories": [{"id": 13334, "name": "Sandwich Restaurant", "icon": {"prefix": "https://ss3.4sqi.net/img/categories_v2/food/deli_", "suffix": ".png"}}, {"id": 13342, "name": "Soup Restaurant", "icon": {"prefix": "https://ss3.4sqi.net/img/categories_v2/food/soup_", "suffix": ".png"}}], "chains": [], "distance": 260, "geocodes": {"main": {"latitude": 37.721072, "longitude": -122.477132}, "roof": {"latitude": 37.721072, "longitude": -122.477132}}, "link": "/v3/places/5890ee695289302f30c6dca4", "location": {"address": "1600 Holloway Ave", "census_block": "060750332011006", "country": "US", "cross_street": "", "dma": "San Francisco-Oakland-San Jose", "formatted_address": "1600 Holloway Ave, San Francisco, CA 94132", "locality": "San Francisco", "neighborhood": ["Lakeside"], "postcode": "94132", "region": "CA"}, "name": "Farm Fresh Underground", "related_places": {}, "timezone": "America/Los_Angeles"}, {"fsq_id": "4a9c188cf964a520f63520e3", "categories": [{"id": 13352, "name": "Thai Restaurant", "icon": {"prefix": "https://ss3.4sqi.net/img/categories_v2/food/thai_", "suffix": ".png"}}], "chains": [], "distance": 264, "geocodes": {"main": {"latitude": 37.721098, "longitude": -122.478065}, "roof": {"latitude": 37.721098, "longitude": -122.478065}}, "link": "/v3/places/4a9c188cf964a520f63520e3", "location": {"address": "1650 Holloway Ave", "census_block": "060750332011006", "country": "US", "cross_street": "Lower Conference Level", "dma": "San Francisco-Oakland-San Jose", "formatted_address": "1650 Holloway Ave (Lower Conference Level), San Francisco, CA 94132", "locality": "San Francisco", "neighborhood": ["Lakeside"], "postcode": "94132", "region": "CA"}, "name": "Tuk-Tuk Thai", "related_places": {}, "timezone": "America/Los_Angeles"}, {"fsq_id": "4b7d7114f964a5208bbe2fe3", "categories": [{"id": 13031, "name": "Burger Joint", "icon": {"prefix": "https://ss3.4sqi.net/img/categories_v2/food/burger_", "suffix": ".png"}}], "chains": [], "distance": 276, "geocodes": {"main": {"latitude": 37.722291, "longitude": -122.478709}, "roof": {"latitude": 37.722291, "longitude": -122.478709}}, "link": "/v3/places/4b7d7114f964a5208bbe2fe3", "location": {"address": "1600 Holloway Ave", "census_block": "060750332011006", "country": "US", "cross_street": "(Cesar Chavez Student Center)", "dma": "San Francisco-Oakland-San Jose", "formatted_address": "1600 Holloway Ave ((Cesar Chavez Student Center)), San Francisco, CA 94132", "locality": "San Francisco", "neighborhood": ["Lakeside"], "postcode": "94132", "region": "CA"}, "name": "Gold Coast Grill", "related_places": {}, "timezone": "America/Los_Angeles"}, {"fsq_id": "52097ad911d29afa55ef254f", "categories": [{"id": 13064, "name": "Pizzeria", "icon": {"prefix": "https://ss3.4sqi.net/img/categories_v2/food/pizza_", "suffix": ".png"}}], "chains": [], "distance": 277, "geocodes": {"main": {"latitude": 37.722508, "longitude": -122.478435}, "roof": {"latitude": 37.722508, "longitude": -122.478435}}, "link": "/v3/places/52097ad911d29afa55ef254f", "location": {"address": "1650 Holloway Ave", "address_extended": "# SB109", "census_block": "060750332011006", "country": "US", "cross_street": "Cesar Chavez Student Center", "dma": "San Francisco-Oakland-San Jose", "formatted_address": "1650 Holloway Ave (Cesar Chavez Student Center), San Francisco, CA 94132", "locality": "San Francisco", "neighborhood": ["Lakeside"], "postcode": "94132", "region": "CA"}, "name": "Nizario's Pizza", "related_places": {"parent": {"fsq_id": "4b686002f964a520b0742be3", "name": "Cesar Chavez Student Center"}}, "timezone": "America/Los_Angeles"}, {"fsq_id": "4a7bcb46f964a520cceb1fe3", "categories": [{"id": 13034, "name": "Caf\u00e9", "icon": {"prefix": "https://ss3.4sqi.net/img/categories_v2/food/cafe_", "suffix": ".png"}}], "chains": [], "distance": 425, "geocodes": {"main": {"latitude": 37.72148, "longitude": -122.475653}, "roof": {"latitude": 37.72148, "longitude": -122.475653}}, "link": "/v3/places/4a7bcb46f964a520cceb1fe3", "location": {"address": "1600 Holloway Ave", "census_block": "060750332011006", "country": "US", "cross_street": "19th Ave", "dma": "San Francisco-Oakland-San Jose", "formatted_address": "1600 Holloway Ave (19th Ave), San Francisco, CA 94132", "locality": "San Francisco", "neighborhood": ["Lakeside"], "postcode": "94132", "region": "CA"}, "name": "Station Cafe", "related_places": {}, "timezone": "America/Los_Angeles"}, {"fsq_id": "530f7e6b498e8713cf8215eb", "categories": [{"id": 13334, "name": "Sandwich Restaurant", "icon": {"prefix": "https://ss3.4sqi.net/img/categories_v2/food/deli_", "suffix": ".png"}}, {"id": 13342, "name": "Soup Restaurant", "icon": {"prefix": "https://ss3.4sqi.net/img/categories_v2/food/soup_", "suffix": ".png"}}, {"id": 13379, "name": "Vietnamese Restaurant", "icon": {"prefix": "https://ss3.4sqi.net/img/categories_v2/food/vietnamese_", "suffix": ".png"}}], "chains": [], "distance": 295, "geocodes": {"main": {"latitude": 37.72241, "longitude": -122.478859}, "roof": {"latitude": 37.72241, "longitude": -122.478859}}, "link": "/v3/places/530f7e6b498e8713cf8215eb", "location": {"address": "1650 Holloway Ave", "census_block": "060750332011006", "country": "US", "cross_street": "", "dma": "San Francisco-Oakland-San Jose", "formatted_address": "1650 Holloway Ave, San Francisco, CA 94132", "locality": "San Francisco", "neighborhood": ["Lakeside"], "postcode": "94132", "region": "CA"}, "name": "Ha Tien Cove", "related_places": {}, "timezone": "America/Los_Angeles"}, {"fsq_id": "4ad4e32ef964a52077fc20e3", "categories": [{"id": 13095, "name": "Cajun / Creole Restaurant", "icon": {"prefix": "https://ss3.4sqi.net/img/categories_v2/food/cajun_", "suffix": ".png"}}, {"id": 13338, "name": "Seafood Restaurant", "icon": {"prefix": "https://ss3.4sqi.net/img/categories_v2/food/seafood_", "suffix": ".png"}}, {"id": 13344, "name": "Southern / Soul Food Restaurant", "icon": {"prefix": "https://ss3.4sqi.net/img/categories_v2/food/southern_", "suffix": ".png"}}], "chains": [], "distance": 298, "geocodes": {"main": {"latitude": 37.721098, "longitude": -122.478065}, "roof": {"latitude": 37.721098, "longitude": -122.478065}}, "link": "/v3/places/4ad4e32ef964a52077fc20e3", "location": {"address": "1650 Holloway Ave", "census_block": "060750332011006", "country": "US", "cross_street": "Cesar Chavez Student Center", "dma": "San Francisco-Oakland-San Jose", "formatted_address": "1650 Holloway Ave (Cesar Chavez Student Center), San Francisco, CA 94132", "locality": "San Francisco", "neighborhood": ["Lakeside"], "postcode": "94132", "region": "CA"}, "name": "Jessie's Hot House", "related_places": {"parent": {"fsq_id": "4b686002f964a520b0742be3", "name": "Cesar Chavez Student Center"}}, "timezone": "America/Los_Angeles"}, {"fsq_id": "527aecd211d276025019c129", "categories": [{"id": 13144, "name": "Falafel Restaurant", "icon": {"prefix": "https://ss3.4sqi.net/img/categories_v2/food/falafel_", "suffix": ".png"}}, {"id": 13191, "name": "Halal Restaurant", "icon": {"prefix": "https://ss3.4sqi.net/img/categories_v2/food/halal_", "suffix": ".png"}}, {"id": 13199, "name": "Indian Restaurant", "icon": {"prefix": "https://ss3.4sqi.net/img/categories_v2/food/indian_", "suffix": ".png"}}], "chains": [], "distance": 305, "geocodes": {"main": {"latitude": 37.722345, "longitude": -122.478855}, "roof": {"latitude": 37.722345, "longitude": -122.478855}}, "link": "/v3/places/527aecd211d276025019c129", "location": {"address": "1650 Holloway Ave", "address_extended": "# C", "census_block": "060750332011006", "country": "US", "cross_street": "", "dma": "San Francisco-Oakland-San Jose", "formatted_address": "1650 Holloway Ave, San Francisco, CA 94132", "locality": "San Francisco", "neighborhood": ["Lakeside"], "postcode": "94132", "region": "CA"}, "name": "Halal Shop", "related_places": {}, "timezone": "America/Los_Angeles"}, {"fsq_id": "4dc403f92271f270510803bf", "categories": [{"id": 13068, "name": "American Restaurant", "icon": {"prefix": "https://ss3.4sqi.net/img/categories_v2/food/default_", "suffix": ".png"}}, {"id": 13314, "name": "New American Restaurant", "icon": {"prefix": "https://ss3.4sqi.net/img/categories_v2/food/newamerican_", "suffix": ".png"}}], "chains": [], "distance": 346, "geocodes": {"main": {"latitude": 37.721007, "longitude": -122.477128}, "roof": {"latitude": 37.721007, "longitude": -122.477128}}, "link": "/v3/places/4dc403f92271f270510803bf", "location": {"address": "1600 Holloway Ave", "address_extended": "Fl 4", "census_block": "060750332011006", "country": "US", "cross_street": "", "dma": "San Francisco-Oakland-San Jose", "formatted_address": "1600 Holloway Ave, San Francisco, CA 94132", "locality": "San Francisco", "neighborhood": ["Lakeside"], "postcode": "94132", "region": "CA"}, "name": "The Vista Room", "related_places": {}, "timezone": "America/Los_Angeles"}, {"fsq_id": "521f9e6711d20e05d11e5e08", "categories": [{"id": 13033, "name": "Bubble Tea Shop", "icon": {"prefix": "https://ss3.4sqi.net/img/categories_v2/food/bubble_", "suffix": ".png"}}, {"id": 13068, "name": "American Restaurant", "icon": {"prefix": "https://ss3.4sqi.net/img/categories_v2/food/default_", "suffix": ".png"}}, {"id": 13072, "name": "Asian Restaurant", "icon": {"prefix": "https://ss3.4sqi.net/img/categories_v2/food/asian_", "suffix": ".png"}}], "chains": [], "distance": 301, "geocodes": {"main": {"latitude": 37.722551, "longitude": -122.478724}, "roof": {"latitude": 37.722551, "longitude": -122.478724}}, "link": "/v3/places/521f9e6711d20e05d11e5e08", "location": {"address": "1650 Holloway Ave", "census_block": "060750332011006", "country": "US", "cross_street": "", "dma": "San Francisco-Oakland-San Jose", "formatted_address": "1650 Holloway Ave, San Francisco, CA 94132", "locality": "San Francisco", "neighborhood": ["Lakeside"], "postcode": "94132", "region": "CA"}, "name": "Quickly", "related_places": {}, "timezone": "America/Los_Angeles"}, {"fsq_id": "4c7e948ba7958cfa052f8e2b", "categories": [{"id": 13001, "name": "Bagel Shop", "icon": {"prefix": "https://ss3.4sqi.net/img/categories_v2/food/bagels_", "suffix": ".png"}}, {"id": 13034, "name": "Caf\u00e9", "icon": {"prefix": "https://ss3.4sqi.net/img/categories_v2/food/cafe_", "suffix": ".png"}}, {"id": 13072, "name": "Asian Restaurant", "icon": {"prefix": "https://ss3.4sqi.net/img/categories_v2/food/asian_", "suffix": ".png"}}], "chains": [], "distance": 378, "geocodes": {"main": {"latitude": 37.721837, "longitude": -122.476104}, "roof": {"latitude": 37.721837, "longitude": -122.476104}}, "link": "/v3/places/4c7e948ba7958cfa052f8e2b", "location": {"address": "1600 Holloway Ave", "address_extended": "Rm 121", "census_block": "060750332011006", "country": "US", "cross_street": "19th Ave", "dma": "San Francisco-Oakland-San Jose", "formatted_address": "1600 Holloway Ave (19th Ave), San Francisco, CA 94132", "locality": "San Francisco", "neighborhood": ["Lakeside"], "postcode": "94132", "region": "CA"}, "name": "HSS Cafe", "related_places": {}, "timezone": "America/Los_Angeles"}, {"fsq_id": "4ab01b19f964a520eb6520e3", "categories": [{"id": 13001, "name": "Bagel Shop", "icon": {"prefix": "https://ss3.4sqi.net/img/categories_v2/food/bagels_", "suffix": ".png"}}, {"id": 13302, "name": "Mediterranean Restaurant", "icon": {"prefix": "https://ss3.4sqi.net/img/categories_v2/food/mediterranean_", "suffix": ".png"}}, {"id": 13303, "name": "Mexican Restaurant", "icon": {"prefix": "https://ss3.4sqi.net/img/categories_v2/food/mexican_", "suffix": ".png"}}], "chains": [], "distance": 391, "geocodes": {"main": {"latitude": 37.72322, "longitude": -122.482775}, "roof": {"latitude": 37.72322, "longitude": -122.482775}}, "link": "/v3/places/4ab01b19f964a520eb6520e3", "location": {"address": "750 Font Blvd", "address_extended": "Ste 5004", "census_block": "060750332011006", "country": "US", "cross_street": "btwn Arballo & Tapia Dr", "dma": "San Francisco-Oakland-San Jose", "formatted_address": "750 Font Blvd (btwn Arballo & Tapia Dr), San Francisco, CA 94132", "locality": "San Francisco", "neighborhood": ["Stonestown"], "postcode": "94132", "region": "CA"}, "name": "Taza Smoothies & Wraps", "related_places": {}, "timezone": "America/Los_Angeles"}, {"fsq_id": "55a9b15b498e117d7840e5e3", "categories": [{"id": 13054, "name": "Food Truck", "icon": {"prefix": "https://ss3.4sqi.net/img/categories_v2/food/streetfood_", "suffix": ".png"}}], "chains": [], "distance": 586, "geocodes": {"main": {"latitude": 37.719984, "longitude": -122.474704}, "roof": {"latitude": 37.719984, "longitude": -122.474704}}, "link": "/v3/places/55a9b15b498e117d7840e5e3", "location": {"address": "19TH Ave", "census_block": "060750309007019", "country": "US", "cross_street": "Holloway", "dma": "San Francisco-Oakland-San Jose", "formatted_address": "19TH Ave (Holloway), San Francisco, CA 94132", "locality": "San Francisco", "neighborhood": ["Lakeside"], "postcode": "94132", "region": "CA"}, "name": "Off the Grid: Parkmerced", "related_places": {}, "timezone": "America/Los_Angeles"}, {"fsq_id": "4ba1336cf964a5207aa137e3", "categories": [{"id": 13049, "name": "Diner", "icon": {"prefix": "https://ss3.4sqi.net/img/categories_v2/food/diner_", "suffix": ".png"}}, {"id": 13303, "name": "Mexican Restaurant", "icon": {"prefix": "https://ss3.4sqi.net/img/categories_v2/food/mexican_", "suffix": ".png"}}], "chains": [], "distance": 606, "geocodes": {"main": {"latitude": 37.721007, "longitude": -122.477128}, "roof": {"latitude": 37.721007, "longitude": -122.477128}}, "link": "/v3/places/4ba1336cf964a5207aa137e3", "location": {"address": "1600 Holloway Ave", "census_block": "060750332011006", "country": "US", "dma": "San Francisco-Oakland-San Jose", "formatted_address": "1600 Holloway Ave, San Francisco, CA 94132", "locality": "San Francisco", "neighborhood": ["Lakeside"], "postcode": "94132", "region": "CA"}, "name": "Caf\u00e9 In The Park", "related_places": {"parent": {"fsq_id": "45aa836ef964a52034411fe3", "name": "San Francisco State University"}}, "timezone": "America/Los_Angeles"}, {"fsq_id": "3b7a8441d01d4349b4fa1352", "categories": [{"id": 13191, "name": "Halal Restaurant", "icon": {"prefix": "https://ss3.4sqi.net/img/categories_v2/food/halal_", "suffix": ".png"}}, {"id": 13334, "name": "Sandwich Restaurant", "icon": {"prefix": "https://ss3.4sqi.net/img/categories_v2/food/deli_", "suffix": ".png"}}], "chains": [], "distance": 209, "geocodes": {"main": {"latitude": 37.721098, "longitude": -122.478065}, "roof": {"latitude": 37.721098, "longitude": -122.478065}}, "link": "/v3/places/3b7a8441d01d4349b4fa1352", "location": {"address": "1650 Holloway Ave", "census_block": "060750332011006", "country": "US", "dma": "San Francisco-Oakland-San Jose", "formatted_address": "1650 Holloway Ave, San Francisco, CA 94132", "locality": "San Francisco", "neighborhood": ["Lakeside"], "postcode": "94132", "region": "CA"}, "name": "Shah's Halal Food", "related_places": {}}, {"fsq_id": "75ce8c101e18012f487f54d8", "categories": [{"id": 13097, "name": "Caribbean Restaurant", "icon": {"prefix": "https://ss3.4sqi.net/img/categories_v2/food/caribbean_", "suffix": ".png"}}], "chains": [], "distance": 232, "geocodes": {"main": {"latitude": 37.720204, "longitude": -122.477367}, "roof": {"latitude": 37.720204, "longitude": -122.477367}}, "link": "/v3/places/75ce8c101e18012f487f54d8", "location": {"address": "106 Serrano Dr", "census_block": "060750332041002", "country": "US", "dma": "San Francisco-Oakland-San Jose", "formatted_address": "106 Serrano Dr, San Francisco, CA 94132", "locality": "San Francisco", "neighborhood": ["Park Merced"], "postcode": "94132", "region": "CA"}, "name": "Genie's", "related_places": {}}, {"fsq_id": "79e1b33fe1a14f4fcaee1b7c", "categories": [{"id": 13145, "name": "Fast Food Restaurant", "icon": {"prefix": "https://ss3.4sqi.net/img/categories_v2/food/fastfood_", "suffix": ".png"}}], "chains": [], "distance": 276, "geocodes": {"main": {"latitude": 37.721007, "longitude": -122.477128}, "roof": {"latitude": 37.721007, "longitude": -122.477128}}, "link": "/v3/places/79e1b33fe1a14f4fcaee1b7c", "location": {"address": "1650 Holloway Ave", "census_block": "060750332011006", "country": "US", "dma": "San Francisco-Oakland-San Jose", "formatted_address": "1650 Holloway Ave, San Francisco, CA 94132", "locality": "San Francisco", "neighborhood": ["Lakeside"], "postcode": "94132", "region": "CA"}, "name": "New York Minute", "related_places": {}}, {"fsq_id": "0b6a04e1e5eb422784c7b745", "categories": [{"id": 13303, "name": "Mexican Restaurant", "icon": {"prefix": "https://ss3.4sqi.net/img/categories_v2/food/mexican_", "suffix": ".png"}}], "chains": [], "distance": 276, "geocodes": {"main": {"latitude": 37.721007, "longitude": -122.477128}, "roof": {"latitude": 37.721007, "longitude": -122.477128}}, "link": "/v3/places/0b6a04e1e5eb422784c7b745", "location": {"address": "1600 Holloway Ave", "census_block": "060750332011006", "country": "US", "dma": "San Francisco-Oakland-San Jose", "formatted_address": "1600 Holloway Ave, San Francisco, CA 94132", "locality": "San Francisco", "neighborhood": ["Lakeside"], "postcode": "94132", "region": "CA"}, "name": "Taqueria Girasol La Paz", "related_places": {}}, {"fsq_id": "69ad4eeea5614812a7d1b84f", "categories": [{"id": 13068, "name": "American Restaurant", "icon": {"prefix": "https://ss3.4sqi.net/img/categories_v2/food/default_", "suffix": ".png"}}, {"id": 13338, "name": "Seafood Restaurant", "icon": {"prefix": "https://ss3.4sqi.net/img/categories_v2/food/seafood_", "suffix": ".png"}}], "chains": [], "distance": 276, "geocodes": {"main": {"latitude": 37.721007, "longitude": -122.477128}, "roof": {"latitude": 37.721007, "longitude": -122.477128}}, "link": "/v3/places/69ad4eeea5614812a7d1b84f", "location": {"address": "1600 Holloway Ave", "census_block": "060750332011006", "country": "US", "dma": "San Francisco-Oakland-San Jose", "formatted_address": "1600 Holloway Ave, San Francisco, CA 94132", "locality": "San Francisco", "neighborhood": ["Lakeside"], "postcode": "94132", "region": "CA"}, "name": "Taste Of The Bay", "related_places": {}}, {"fsq_id": "71f75f40bef8012e48cad9da", "categories": [{"id": 13065, "name": "Restaurant", "icon": {"prefix": "https://ss3.4sqi.net/img/categories_v2/food/default_", "suffix": ".png"}}], "chains": [], "distance": 276, "geocodes": {"main": {"latitude": 37.721007, "longitude": -122.477128}, "roof": {"latitude": 37.721007, "longitude": -122.477128}}, "link": "/v3/places/71f75f40bef8012e48cad9da", "location": {"address": "1600 Holloway Ave", "census_block": "060750332011006", "country": "US", "dma": "San Francisco-Oakland-San Jose", "formatted_address": "1600 Holloway Ave, San Francisco, CA 94132", "locality": "San Francisco", "neighborhood": ["Lakeside"], "postcode": "94132", "region": "CA"}, "name": "Hungry student", "related_places": {}}, {"fsq_id": "71f2d0f0bef8012e48cad9da", "categories": [{"id": 13031, "name": "Burger Joint", "icon": {"prefix": "https://ss3.4sqi.net/img/categories_v2/food/burger_", "suffix": ".png"}}, {"id": 13068, "name": "American Restaurant", "icon": {"prefix": "https://ss3.4sqi.net/img/categories_v2/food/default_", "suffix": ".png"}}, {"id": 13303, "name": "Mexican Restaurant", "icon": {"prefix": "https://ss3.4sqi.net/img/categories_v2/food/mexican_", "suffix": ".png"}}], "chains": [], "distance": 278, "geocodes": {"main": {"latitude": 37.722291, "longitude": -122.478709}, "roof": {"latitude": 37.722291, "longitude": -122.478709}}, "link": "/v3/places/71f2d0f0bef8012e48cad9da", "location": {"address": "1650 Holloway Ave", "address_extended": "Ste C-134", "census_block": "060750332011006", "country": "US", "dma": "San Francisco-Oakland-San Jose", "formatted_address": "1650 Holloway Ave, San Francisco, CA 94132", "locality": "San Francisco", "neighborhood": ["Lakeside"], "postcode": "94132", "region": "CA"}, "name": "Gold Coast Grill & Catering", "related_places": {}}, {"fsq_id": "85f21fd4cc9e440679be6b28", "categories": [{"id": 13035, "name": "Coffee Shop", "icon": {"prefix": "https://ss3.4sqi.net/img/categories_v2/food/coffeeshop_", "suffix": ".png"}}, {"id": 13334, "name": "Sandwich Restaurant", "icon": {"prefix": "https://ss3.4sqi.net/img/categories_v2/food/deli_", "suffix": ".png"}}, {"id": 13379, "name": "Vietnamese Restaurant", "icon": {"prefix": "https://ss3.4sqi.net/img/categories_v2/food/vietnamese_", "suffix": ".png"}}], "chains": [], "distance": 278, "geocodes": {"main": {"latitude": 37.721072, "longitude": -122.477132}, "roof": {"latitude": 37.721072, "longitude": -122.477132}}, "link": "/v3/places/85f21fd4cc9e440679be6b28", "location": {"address": "1600 Holloway Ave", "census_block": "060750332011006", "country": "US", "dma": "San Francisco-Oakland-San Jose", "formatted_address": "1600 Holloway Ave, San Francisco, CA 94132", "locality": "San Francisco", "neighborhood": ["Lakeside"], "postcode": "94132", "region": "CA"}, "name": "BonMi", "related_places": {}}, {"fsq_id": "ca22524e60714009d69cc036", "categories": [{"id": 13064, "name": "Pizzeria", "icon": {"prefix": "https://ss3.4sqi.net/img/categories_v2/food/pizza_", "suffix": ".png"}}], "chains": [], "distance": 314, "geocodes": {"main": {"latitude": 37.721105, "longitude": -122.476705}, "roof": {"latitude": 37.721105, "longitude": -122.476705}}, "link": "/v3/places/ca22524e60714009d69cc036", "location": {"address": "1600 Holloway Ave", "census_block": "060750332011006", "country": "US", "dma": "San Francisco-Oakland-San Jose", "formatted_address": "1600 Holloway Ave, San Francisco, CA 94132", "locality": "San Francisco", "neighborhood": ["Lakeside"], "postcode": "94132", "region": "CA"}, "name": "Pizza & Pasta At SFSU", "related_places": {}}, {"fsq_id": "9057756aa1994e75541c0e54", "categories": [{"id": 13039, "name": "Deli", "icon": {"prefix": "https://ss3.4sqi.net/img/categories_v2/food/deli_", "suffix": ".png"}}], "chains": [], "distance": 348, "geocodes": {"main": {"latitude": 37.721073, "longitude": -122.476273}, "roof": {"latitude": 37.721073, "longitude": -122.476273}}, "link": "/v3/places/9057756aa1994e75541c0e54", "location": {"address": "1600 Holloway Ave", "census_block": "060750332011006", "country": "US", "dma": "San Francisco-Oakland-San Jose", "formatted_address": "1600 Holloway Ave, San Francisco, CA 94132", "locality": "San Francisco", "neighborhood": ["Lakeside"], "postcode": "94132", "region": "CA"}, "name": "Ike's Lair", "related_places": {}}, {"fsq_id": "d2262cb1f0924d0be8159752", "categories": [{"id": 13065, "name": "Restaurant", "icon": {"prefix": "https://ss3.4sqi.net/img/categories_v2/food/default_", "suffix": ".png"}}], "chains": [], "distance": 348, "geocodes": {"main": {"latitude": 37.721073, "longitude": -122.476273}, "roof": {"latitude": 37.721073, "longitude": -122.476273}}, "link": "/v3/places/d2262cb1f0924d0be8159752", "location": {"address": "1600 Holloway Ave", "census_block": "060750332011006", "country": "US", "dma": "San Francisco-Oakland-San Jose", "formatted_address": "1600 Holloway Ave, San Francisco, CA 94132", "locality": "San Francisco", "neighborhood": ["Lakeside"], "postcode": "94132", "region": "CA"}, "name": "Bark", "related_places": {}}, {"fsq_id": "5ec484512b994cfd0bf2e300", "categories": [{"id": 13002, "name": "Bakery", "icon": {"prefix": "https://ss3.4sqi.net/img/categories_v2/food/bakery_", "suffix": ".png"}}], "chains": [], "distance": 418, "geocodes": {"main": {"latitude": 37.718026, "longitude": -122.475948}, "roof": {"latitude": 37.718026, "longitude": -122.475948}}, "link": "/v3/places/5ec484512b994cfd0bf2e300", "location": {"address": "31 Diaz Ave", "census_block": "060750332041010", "country": "US", "dma": "San Francisco-Oakland-San Jose", "formatted_address": "31 Diaz Ave, San Francisco, CA 94132", "locality": "San Francisco", "neighborhood": ["Park Merced"], "postcode": "94132", "region": "CA"}, "name": "Kingdom Cake", "related_places": {}}, {"fsq_id": "a62c293f183b4c1a0608b46d", "categories": [{"id": 13065, "name": "Restaurant", "icon": {"prefix": "https://ss3.4sqi.net/img/categories_v2/food/default_", "suffix": ".png"}}], "chains": [], "distance": 464, "geocodes": {"main": {"latitude": 37.722769, "longitude": -122.483965}, "roof": {"latitude": 37.722769, "longitude": -122.483965}}, "link": "/v3/places/a62c293f183b4c1a0608b46d", "location": {"address": "755 Font Blvd", "address_extended": "Ste 107", "census_block": "060750332043000", "country": "US", "dma": "San Francisco-Oakland-San Jose", "formatted_address": "755 Font Blvd, San Francisco, CA 94132", "locality": "San Francisco", "neighborhood": ["Lake Shore"], "postcode": "94132", "region": "CA"}, "name": "Clean Bites", "related_places": {}}, {"fsq_id": "65e8ca36e5344d8511bf09db", "categories": [{"id": 13322, "name": "Peruvian Restaurant", "icon": {"prefix": "https://ss3.4sqi.net/img/categories_v2/food/peruvian_", "suffix": ".png"}}], "chains": [], "distance": 473, "geocodes": {"main": {"latitude": 37.715773, "longitude": -122.479323}, "roof": {"latitude": 37.715773, "longitude": -122.479323}}, "link": "/v3/places/65e8ca36e5344d8511bf09db", "location": {"address": "117 Grijalva Dr", "census_block": "060750332032011", "country": "US", "dma": "San Francisco-Oakland-San Jose", "formatted_address": "117 Grijalva Dr, San Francisco, CA 94132", "locality": "San Francisco", "neighborhood": ["Park Merced"], "postcode": "94132", "region": "CA"}, "name": "Www.Yosoyceviche.Com", "related_places": {}}, {"fsq_id": "7609ee75f31c4155a5db664e", "categories": [{"id": 13263, "name": "Japanese Restaurant", "icon": {"prefix": "https://ss3.4sqi.net/img/categories_v2/food/japanese_", "suffix": ".png"}}], "chains": [], "distance": 490, "geocodes": {"main": {"latitude": 37.723387, "longitude": -122.483572}, "roof": {"latitude": 37.723387, "longitude": -122.483572}}, "link": "/v3/places/7609ee75f31c4155a5db664e", "location": {"address": "750 Font Blvd", "census_block": "060750332011006", "country": "US", "dma": "San Francisco-Oakland-San Jose", "formatted_address": "750 Font Blvd, San Francisco, CA 94132", "locality": "San Francisco", "neighborhood": ["Stonestown"], "postcode": "94132", "region": "CA"}, "name": "Sushi Go", "related_places": {}}, {"fsq_id": "2450f818b4bc431a63558bce", "categories": [{"id": 13059, "name": "Juice Bar", "icon": {"prefix": "https://ss3.4sqi.net/img/categories_v2/food/juicebar_", "suffix": ".png"}}], "chains": [{"id": "b500edc1-bb35-4c18-b903-1171f131a61b", "name": "Jamba"}], "distance": 490, "geocodes": {"main": {"latitude": 37.723349, "longitude": -122.483642}, "roof": {"latitude": 37.723349, "longitude": -122.483642}}, "link": "/v3/places/2450f818b4bc431a63558bce", "location": {"address": "750 Font Blvd", "address_extended": "Bldg C", "census_block": "060750332011006", "country": "US", "dma": "San Francisco-Oakland-San Jose", "formatted_address": "750 Font Blvd, San Francisco, CA 94132", "locality": "San Francisco", "neighborhood": ["Stonestown"], "postcode": "94132", "region": "CA"}, "name": "Jamba", "related_places": {}}, {"fsq_id": "2b5ea7500355012f48cacd48", "categories": [{"id": 13072, "name": "Asian Restaurant", "icon": {"prefix": "https://ss3.4sqi.net/img/categories_v2/food/asian_", "suffix": ".png"}}, {"id": 13276, "name": "Sushi Restaurant", "icon": {"prefix": "https://ss3.4sqi.net/img/categories_v2/food/sushi_", "suffix": ".png"}}, {"id": 13315, "name": "Noodle Restaurant", "icon": {"prefix": "https://ss3.4sqi.net/img/categories_v2/food/ramen_", "suffix": ".png"}}], "chains": [], "distance": 490, "geocodes": {"main": {"latitude": 37.723349, "longitude": -122.483642}, "roof": {"latitude": 37.723349, "longitude": -122.483642}}, "link": "/v3/places/2b5ea7500355012f48cacd48", "location": {"address": "750 Font Blvd", "census_block": "060750332011006", "country": "US", "dma": "San Francisco-Oakland-San Jose", "formatted_address": "750 Font Blvd, San Francisco, CA 94132", "locality": "San Francisco", "neighborhood": ["Stonestown"], "postcode": "94132", "region": "CA"}, "name": "SushiGo & Noodles", "related_places": {}}], "context": {"geo_bounds": {"circle": {"center": {"latitude": 37.72, "longitude": -122.48}, "radius": 500}}}}