{"results": [{"fsq_id": "4c2176b99390c9b61127c9cd", "categories": [{"id": 13031, "name": "Burger Joint", "icon": {"prefix": "https://ss3.4sqi.net/img/categories_v2/food/burger_", "suffix": ".png"}}, {"id": 13068, "name": "American Restaurant", "icon": {"prefix": "https://ss3.4sqi.net/img/categories_v2/food/default_", "suffix": ".png"}}, {"id": 13145, "name": "Fast Food Restaurant", "icon": {"prefix": "https://ss3.4sqi.net/img/categories_v2/food/fastfood_", "suffix": ".png"}}], "chains": [], "distance": 261, "geocodes": {"main": {"latitude": 37.797841, "longitude": -122.42867}, "roof": {"latitude": 37.797841, "longitude": -122.42867}}, "link": "/v3/places/4c2176b99390c9b61127c9cd", "location": {"address": "1785 Union St", "census_block": "060750130012003", "country": "US", "cross_street": "btwn Gough St & Octavia St", "dma": "San Francisco-Oakland-San Jose", "formatted_address": "1785 Union St (btwn Gough St & Octavia St), San Francisco, CA 94123", "locality": "San Francisco", "neighborhood": ["Cow Hollow"], "postcode": "94123", "region": "CA"}, "name": "Roam Artisan Burgers", "related_places": {}, "timezone": "America/Los_Angeles"}, {"fsq_id": "49cf2129f964a520a15a1fe3", "categories": [{"id": 13065, "name": "Restaurant", "icon": {"prefix": "https://ss3.4sqi.net/img/categories_v2/food/default_", "suffix": ".png"}}], "chains": [], "distance": 222, "geocodes": {"main": {"latitude": 37.799285, "longitude": -122.432411}, "roof": {"latitude": 37.799285, "longitude": -122.432411}}, "link": "/v3/places/49cf2129f964a520a15a1fe3", "location": {"address": "3166 Buchanan St", "census_block": "060750129021004", "country": "US", "cross_street": "at Greenwich St", "dma": "San Francisco-Oakland-San Jose", "formatted_address": "3166 Buchanan St (at Greenwich St), San Francisco, CA 94123", "locality": "San Francisco", "neighborhood": ["Cow Hollow"], "postcode": "94123", "region": "CA"}, "name": "The Brazen Head", "related_places": {}, "timezone": "America/Los_Angeles"}, {"fsq_id": "55f39717498eab249a7fc0b5", "categories": [{"id": 13236, "name": "Italian Restaurant", "icon": {"prefix": "https://ss3.4sqi.net/img/categories_v2/food/italian_", "suffix": ".png"}}], "chains": [], "distance": 277, "geocodes": {"main": {"latitude": 37.797509, "longitude": -122.430872}, "roof": {"latitude": 37.797509, "longitude": -122.430872}}, "link": "/v3/places/55f39717498eab249a7fc0b5", "location": {"address": "1919 Union St", "census_block": "060750130021003", "country": "US", "cross_street": "at Laguna St", "dma": "San Francisco-Oakland-San Jose", "formatted_address": "1919 Union St (at Laguna St), San Francisco, CA 94123", "locality": "San Francisco", "neighborhood": ["Cow Hollow"], "postcode": "94123", "region": "CA"}, "name": "The Italian Homemade Company", "related_places": {}, "timezone": "America/Los_Angeles"}, {"fsq_id": "57fc2013498ec2b5a315b412", "categories": [{"id": 13303, "name": "Mexican Restaurant", "icon": {"prefix": "https://ss3.4sqi.net/img/categories_v2/food/mexican_", "suffix": ".png"}}], "chains": [], "distance": 348, "geocodes": {"main": {"latitude": 37.797611, "longitude": -122.432527}, "roof": {"latitude": 37.797611, "longitude": -122.432527}}, "link": "/v3/places/57fc2013498ec2b5a315b412", "location": {"address": "2030 Union St", "census_block": "060750130021001", "country": "US", "cross_street": "at Buchanan St", "dma": "San Francisco-Oakland-San Jose", "formatted_address": "2030 Union St (at Buchanan St), San Francisco, CA 94123", "locality": "San Francisco", "neighborhood": ["Cow Hollow"], "postcode": "94123", "region": "CA"}, "name": "Flores", "related_places": {}, "timezone": "America/Los_Angeles"}, {"fsq_id": "5a6543b89deb7d1b74ff2af6", "categories": [{"id": 13041, "name": "Creperie", "icon": {"prefix": "https://ss3.4sqi.net/img/categories_v2/food/creperie_", "suffix": ".png"}}, {"id": 13046, "name": "Ice Cream Parlor", "icon": {"prefix": "https://ss3.4sqi.net/img/categories_v2/food/icecream_", "suffix": ".png"}}, {"id": 13065, "name": "Restaurant", "icon": {"prefix": "https://ss3.4sqi.net/img/categories_v2/food/default_", "suffix": ".png"}}], "chains": [], "distance": 327, "geocodes": {"main": {"latitude": 37.797692, "longitude": -122.431887}, "roof": {"latitude": 37.797692, "longitude": -122.431887}}, "link": "/v3/places/5a6543b89deb7d1b74ff2af6", "location": {"address": "1998 Union St", "census_block": "060750130021000", "country": "US", "cross_street": "", "dma": "San Francisco-Oakland-San Jose", "formatted_address": "1998 Union St, San Francisco, CA 94123", "locality": "San Francisco", "neighborhood": ["Cow Hollow"], "postcode": "94123", "region": "CA"}, "name": "Gio Gelati", "related_places": {}, "timezone": "America/Los_Angeles"}, {"fsq_id": "4a57fea9f964a52036b71fe3", "categories": [{"id": 13003, "name": "Bar", "icon": {"prefix": "https://ss3.4sqi.net/img/categories_v2/nightlife/pub_", "suffix": ".png"}}, {"id": 13276, "name": "Sushi Restaurant", "icon": {"prefix": "https://ss3.4sqi.net/img/categories_v2/food/sushi_", "suffix": ".png"}}], "chains": [], "distance": 138, "geocodes": {"main": {"latitude": 37.800962, "longitude": -122.428855}, "roof": {"latitude": 37.800962, "longitude": -122.428855}}, "link": "/v3/places/4a57fea9f964a52036b71fe3", "location": {"address": "1662 Lombard St", "address_extended": "# A", "census_block": "060750129011002", "country": "US", "cross_street": "at Octavia St", "dma": "San Francisco-Oakland-San Jose", "formatted_address": "1662 Lombard St (at Octavia St), San Francisco, CA 94123", "locality": "San Francisco", "neighborhood": ["Cow Hollow"], "postcode": "94123", "region": "CA"}, "name": "Atami Sushi Bar & Grill", "related_places": {}, "timezone": "America/Los_Angeles"}, {"fsq_id": "5d77246152f4a00007528cb9", "categories": [{"id": 13065, "name": "Restaurant", "icon": {"prefix": "https://ss3.4sqi.net/img/categories_v2/food/default_", "suffix": ".png"}}], "chains": [], "distance": 339, "geocodes": {"main": {"latitude": 37.797638, "longitude": -122.4326}, "roof": {"latitude": 37.797638, "longitude": -122.4326}}, "link": "/v3/places/5d77246152f4a00007528cb9", "location": {"address": "2000 Union St", "census_block": "060750130021001", "country": "US", "cross_street": "", "dma": "San Francisco-Oakland-San Jose", "formatted_address": "2000 Union St, San Francisco, CA 94123", "locality": "San Francisco", "neighborhood": ["Cow Hollow"], "postcode": "94123", "region": "CA"}, "name": "Wildseed", "related_places": {}, "timezone": "America/Los_Angeles"}, {"fsq_id": "4a0499aaf964a5200d721fe3", "categories": [{"id": 13068, "name": "American Restaurant", "icon": {"prefix": "https://ss3.4sqi.net/img/categories_v2/food/default_", "suffix": ".png"}}, {"id": 13338, "name": "Seafood Restaurant", "icon": {"prefix": "https://ss3.4sqi.net/img/categories_v2/food/seafood_", "suffix": ".png"}}], "chains": [], "distance": 283, "geocodes": {"main": {"latitude": 37.797801, "longitude": -122.43132}, "roof": {"latitude": 37.797801, "longitude": -122.43132}}, "link": "/v3/places/4a0499aaf964a5200d721fe3", "location": {"address": "1944 Union St", "census_block": "060750130021000", "country": "US", "cross_street": "at Laguna St", "dma": "San Francisco-Oakland-San Jose", "formatted_address": "1944 Union St (at Laguna St), San Francisco, CA 94123", "locality": "San Francisco", "neighborhood": ["Cow Hollow"], "postcode": "94123", "region": "CA"}, "name": "Perry's", "related_places": {}, "timezone": "America/Los_Angeles"}, {"fsq_id": "4c1cebadc09ed13aa5be828e", "categories": [{"id": 13025, "name": "Wine Bar", "icon": {"prefix": "https://ss3.4sqi.net/img/categories_v2/food/winery_", "suffix": ".png"}}, {"id": 13057, "name": "Gastropub", "icon": {"prefix": "https://ss3.4sqi.net/img/categories_v2/food/gastropub_", "suffix": ".png"}}, {"id": 13068, "name": "American Restaurant", "icon": {"prefix": "https://ss3.4sqi.net/img/categories_v2/food/default_", "suffix": ".png"}}], "chains": [], "distance": 305, "geocodes": {"main": {"latitude": 37.797665, "longitude": -122.431814}, "roof": {"latitude": 37.797665, "longitude": -122.431814}}, "link": "/v3/places/4c1cebadc09ed13aa5be828e", "location": {"address": "1980 Union St", "census_block": "060750130021000", "country": "US", "cross_street": "at Buchanan St.", "dma": "San Francisco-Oakland-San Jose", "formatted_address": "1980 Union St (at Buchanan St.), San Francisco, CA 94123", "locality": "San Francisco", "neighborhood": ["Cow Hollow"], "postcode": "94123", "region": "CA"}, "name": "Marengo on Union", "related_places": {}, "timezone": "America/Los_Angeles"}, {"fsq_id": "4a0b640ff964a520f1741fe3", "categories": [{"id": 13039, "name": "Deli", "icon": {"prefix": "https://ss3.4sqi.net/img/categories_v2/food/deli_", "suffix": ".png"}}, {"id": 13334, "name": "Sandwich Restaurant", "icon": {"prefix": "https://ss3.4sqi.net/img/categories_v2/food/deli_", "suffix": ".png"}}], "chains": [], "distance": 398, "geocodes": {"main": {"latitude": 37.796974, "longitude": -122.427185}, "roof": {"latitude": 37.796974, "longitude": -122.427185}}, "link": "/v3/places/4a0b640ff964a520f1741fe3", "location": {"address": "2567 Gough St", "census_block": "060750130012004", "country": "US", "cross_street": "at Green Street", "dma": "San Francisco-Oakland-San Jose", "formatted_address": "2567 Gough St (at Green Street), San Francisco, CA 94123", "locality": "San Francisco", "neighborhood": ["Cow Hollow"], "postcode": "94123", "region": "CA"}, "name": "Blue Fog Market", "related_places": {}, "timezone": "America/Los_Angeles"}, {"fsq_id": "49baf390f964a520ca531fe3", "categories": [{"id": 13049, "name": "Diner", "icon": {"prefix": "https://ss3.4sqi.net/img/categories_v2/food/diner_", "suffix": ".png"}}, {"id": 13297, "name": "Latin American Restaurant", "icon": {"prefix": "https://ss3.4sqi.net/img/categories_v2/food/latinamerican_", "suffix": ".png"}}, {"id": 13347, "name": "Tapas Restaurant", "icon": {"prefix": "https://ss3.4sqi.net/img/categories_v2/food/tapas_", "suffix": ".png"}}], "chains": [], "distance": 416, "geocodes": {"main": {"latitude": 37.800189, "longitude": -122.434687}, "roof": {"latitude": 37.800189, "longitude": -122.434687}}, "link": "/v3/places/49baf390f964a520ca531fe3", "location": {"address": "2018 Lombard St", "census_block": "060750129023001", "country": "US", "cross_street": "at Webster", "dma": "San Francisco-Oakland-San Jose", "formatted_address": "2018 Lombard St (at Webster), San Francisco, CA 94123", "locality": "San Francisco", "neighborhood": ["Cow Hollow"], "postcode": "94123", "region": "CA"}, "name": "Alegrias Food From Spain", "related_places": {}, "timezone": "America/Los_Angeles"}, {"fsq_id": "4a74d2b2f964a520b3df1fe3", "categories": [{"id": 13145, "name": "Fast Food Restaurant", "icon": {"prefix": "https://ss3.4sqi.net/img/categories_v2/food/fastfood_", "suffix": ".png"}}, {"id": 13297, "name": "Latin American Restaurant", "icon": {"prefix": "https://ss3.4sqi.net/img/categories_v2/food/latinamerican_", "suffix": ".png"}}, {"id": 13305, "name": "Burrito Restaurant", "icon": {"prefix": "https://ss3.4sqi.net/img/categories_v2/food/burrito_", "suffix": ".png"}}], "chains": [], "distance": 321, "geocodes": {"main": {"latitude": 37.797773, "longitude": -122.432107}, "roof": {"latitude": 37.797773, "longitude": -122.432107}}, "link": "/v3/places/4a74d2b2f964a520b3df1fe3", "location": {"address": "3006 Buchanan St", "census_block": "060750130021000", "country": "US", "cross_street": "Union", "dma": "San Francisco-Oakland-San Jose", "formatted_address": "3006 Buchanan St (Union), San Francisco, CA 94123", "locality": "San Francisco", "neighborhood": ["Cow Hollow"], "postcode": "94123", "region": "CA"}, "name": "La Canasta", "related_places": {}, "timezone": "America/Los_Angeles"}, {"fsq_id": "4a6d167bf964a52082d21fe3", "categories": [{"id": 13379, "name": "Vietnamese Restaurant", "icon": {"prefix": "https://ss3.4sqi.net/img/categories_v2/food/vietnamese_", "suffix": ".png"}}], "chains": [], "distance": 85, "geocodes": {"main": {"latitude": 37.800365, "longitude": -122.430683}, "roof": {"latitude": 37.800365, "longitude": -122.430683}}, "link": "/v3/places/4a6d167bf964a52082d21fe3", "location": {"address": "1779 Lombard St", "census_block": "060750129022005", "country": "US", "cross_street": "at Laguna St", "dma": "San Francisco-Oakland-San Jose", "formatted_address": "1779 Lombard St (at Laguna St), San Francisco, CA 94123", "locality": "San Francisco", "neighborhood": ["Cow Hollow"], "postcode": "94123", "region": "CA"}, "name": "Ly's Vietnamese Cuisine", "related_places": {}, "timezone": "America/Los_Angeles"}, {"fsq_id": "43164480f964a52063271fe3", "categories": [{"id": 13010, "name": "Dive Bar", "icon": {"prefix": "https://ss3.4sqi.net/img/categories_v2/nightlife/divebar_", "suffix": ".png"}}, {"id": 13065, "name": "Restaurant", "icon": {"prefix": "https://ss3.4sqi.net/img/categories_v2/food/default_", "suffix": ".png"}}], "chains": [], "distance": 518, "geocodes": {"main": {"latitude": 37.79864, "longitude": -122.424631}, "roof": {"latitude": 37.79864, "longitude": -122.424631}}, "link": "/v3/places/43164480f964a52063271fe3", "location": {"address": "1514 Union St", "census_block": "060750130011000", "country": "US", "cross_street": "at Van Ness", "dma": "San Francisco-Oakland-San Jose", "formatted_address": "1514 Union St (at Van Ness), San Francisco, CA 94123", "locality": "San Francisco", "neighborhood": ["Cow Hollow"], "postcode": "94123", "region": "CA"}, "name": "Black Horse London Pub", "related_places": {}, "timezone": "America/Los_Angeles"}, {"fsq_id": "49d0ed30f964a520425b1fe3", "categories": [{"id": 13065, "name": "Restaurant", "icon": {"prefix": "https://ss3.4sqi.net/img/categories_v2/food/default_", "suffix": ".png"}}], "chains": [], "distance": 269, "geocodes": {"main": {"latitude": 37.80045, "longitude": -122.432982}, "roof": {"latitude": 37.80045, "longitude": -122.432982}}, "link": "/v3/places/49d0ed30f964a520425b1fe3", "location": {"address": "3301 Buchanan St", "census_block": "060750129023003", "country": "US", "cross_street": "btwn Magnolia & Lombard", "dma": "San Francisco-Oakland-San Jose", "formatted_address": "3301 Buchanan St (btwn Magnolia & Lombard), San Francisco, CA 94123", "locality": "San Francisco", "neighborhood": ["Cow Hollow"], "postcode": "94123", "region": "CA"}, "name": "Jake's Steaks", "related_places": {}, "timezone": "America/Los_Angeles"}, {"fsq_id": "5d16d59452b6b100233845cc", "categories": [{"id": 13003, "name": "Bar", "icon": {"prefix": "https://ss3.4sqi.net/img/categories_v2/nightlife/pub_", "suffix": ".png"}}, {"id": 13068, "name": "American Restaurant", "icon": {"prefix": "https://ss3.4sqi.net/img/categories_v2/food/default_", "suffix": ".png"}}], "chains": [], "distance": 481, "geocodes": {"main": {"latitude": 37.800215, "longitude": -122.435621}, "roof": {"latitude": 37.800215, "longitude": -122.435621}}, "link": "/v3/places/5d16d59452b6b100233845cc", "location": {"address": "2036 Lombard St", "census_block": "060750129023001", "country": "US", "cross_street": "", "dma": "San Francisco-Oakland-San Jose", "formatted_address": "2036 Lombard St, San Francisco, CA 94123", "locality": "San Francisco", "neighborhood": ["Cow Hollow"], "postcode": "94123", "region": "CA"}, "name": "Westwood", "related_places": {}, "timezone": "America/Los_Angeles"}, {"fsq_id": "547e6aaf498edb5a93d07dc5", "categories": [{"id": 13032, "name": "Cafes, Coffee, and Tea Houses", "icon": {"prefix": "https://ss3.4sqi.net/img/categories_v2/food/default_", "suffix": ".png"}}], "chains": [], "distance": 417, "geocodes": {"main": {"latitude": 37.797188, "longitude": -122.432932}, "roof": {"latitude": 37.797188, "longitude": -122.432932}}, "link": "/v3/places/547e6aaf498edb5a93d07dc5", "location": {"address": "2055 Union St", "address_extended": "# B", "census_block": "060750130021002", "country": "US", "cross_street": "btwn Webster & Buchanan St", "dma": "San Francisco-Oakland-San Jose", "formatted_address": "2055 Union St (btwn Webster & Buchanan St), San Francisco, CA 94123", "locality": "San Francisco", "neighborhood": ["Cow Hollow"], "postcode": "94123", "region": "CA"}, "name": "Illy Caffe Sf-Union St", "related_places": {}, "timezone": "America/Los_Angeles"}, {"fsq_id": "4ac3df48f964a520349d20e3", "categories": [{"id": 13068, "name": "American Restaurant", "icon": {"prefix": "https://ss3.4sqi.net/img/categories_v2/food/default_", "suffix": ".png"}}, {"id": 13236, "name": "Italian Restaurant", "icon": {"prefix": "https://ss3.4sqi.net/img/categories_v2/food/italian_", "suffix": ".png"}}, {"id": 13334, "name": "Sandwich Restaurant", "icon": {"prefix": "https://ss3.4sqi.net/img/categories_v2/food/deli_", "suffix": ".png"}}], "chains": [], "distance": 237, "geocodes": {"main": {"latitude": 37.798046, "longitude": -122.429399}, "roof": {"latitude": 37.798046, "longitude": -122.429399}}, "link": "/v3/places/4ac3df48f964a520349d20e3", "location": {"address": "1830 Union St", "census_block": "060750130012001", "country": "US", "cross_street": "at Octavia St", "dma": "San Francisco-Oakland-San Jose", "formatted_address": "1830 Union St (at Octavia St), San Francisco, CA 94123", "locality": "San Francisco", "neighborhood": ["Cow Hollow"], "postcode": "94123", "region": "CA"}, "name": "Caffe Union", "related_places": {}, "timezone": "America/Los_Angeles"}, {"fsq_id": "520d8e7f11d2efe5a9cabdc6", "categories": [{"id": 13276, "name": "Sushi Restaurant", "icon": {"prefix": "https://ss3.4sqi.net/img/categories_v2/food/sushi_", "suffix": ".png"}}], "chains": [], "distance": 240, "geocodes": {"main": {"latitude": 37.797688, "longitude": -122.429808}, "roof": {"latitude": 37.797688, "longitude": -122.429808}}, "link": "/v3/places/520d8e7f11d2efe5a9cabdc6", "location": {"address": "1849 Union St", "census_block": "060750130012002", "country": "US", "cross_street": "", "dma": "San Francisco-Oakland-San Jose", "formatted_address": "1849 Union St, San Francisco, CA 94123", "locality": "San Francisco", "neighborhood": ["Cow Hollow"], "postcode": "94123", "region": "CA"}, "name": "Tamashisoul Sushi Bar", "related_places": {}, "timezone": "America/Los_Angeles"}, {"fsq_id": "5367c631498e5c347cf18838", "categories": [{"id": 13065, "name": "Restaurant", "icon": {"prefix": "https://ss3.4sqi.net/img/categories_v2/food/default_", "suffix": ".png"}}], "chains": [], "distance": 371, "geocodes": {"main": {"latitude": 37.797605, "longitude": -122.433029}, "roof": {"latitude": 37.797605, "longitude": -122.433029}}, "link": "/v3/places/5367c631498e5c347cf18838", "location": {"address": "2032 Union St", "census_block": "060750130021001", "country": "US", "cross_street": "btwn Webster & Buchanan St", "dma": "San Francisco-Oakland-San Jose", "formatted_address": "2032 Union St (btwn Webster & Buchanan St), San Francisco, CA 94123", "locality": "San Francisco", "neighborhood": ["Cow Hollow"], "postcode": "94123", "region": "CA"}, "name": "Palm House", "related_places": {}, "timezone": "America/Los_Angeles"}, {"fsq_id": "578ee6d6498e67c585f8b82c", "categories": [{"id": 13009, "name": "Cocktail Bar", "icon": {"prefix": "https://ss3.4sqi.net/img/categories_v2/nightlife/cocktails_", "suffix": ".png"}}, {"id": 13303, "name": "Mexican Restaurant", "icon": {"prefix": "https://ss3.4sqi.net/img/categories_v2/food/mexican_", "suffix": ".png"}}, {"id": 13338, "name": "Seafood Restaurant", "icon": {"prefix": "https://ss3.4sqi.net/img/categories_v2/food/seafood_", "suffix": ".png"}}], "chains": [], "distance": 466, "geocodes": {"main": {"latitude": 37.800096, "longitude": -122.43547}, "roof": {"latitude": 37.800096, "longitude": -122.43547}}, "link": "/v3/places/578ee6d6498e67c585f8b82c", "location": {"address": "2030 Lombard St", "census_block": "060750129023001", "country": "US", "cross_street": "", "dma": "San Francisco-Oakland-San Jose", "formatted_address": "2030 Lombard St, San Francisco, CA 94123", "locality": "San Francisco", "neighborhood": ["Cow Hollow"], "postcode": "94123", "region": "CA"}, "name": "Don Pistos Tequila Bar", "related_places": {"children": [{"fsq_id": "5ce9e4c1d552c7002ccdcb08", "name": "Tropical Thunder"}]}, "timezone": "America/Los_Angeles"}, {"fsq_id": "436bf600f964a520b1291fe3", "categories": [{"id": 13009, "name": "Cocktail Bar", "icon": {"prefix": "https://ss3.4sqi.net/img/categories_v2/nightlife/cocktails_", "suffix": ".png"}}, {"id": 13022, "name": "Sports Bar", "icon": {"prefix": "https://ss3.4sqi.net/img/categories_v2/nightlife/sportsbar_", "suffix": ".png"}}, {"id": 13026, "name": "BBQ Joint", "icon": {"prefix": "https://ss3.4sqi.net/img/categories_v2/food/bbqalt_", "suffix": ".png"}}], "chains": [], "distance": 264, "geocodes": {"main": {"latitude": 37.797579, "longitude": -122.430703}}, "link": "/v3/places/436bf600f964a520b1291fe3", "location": {"address": "1901 Union St", "country": "US", "cross_street": "at Laguna St", "dma": "San Francisco-Oakland-San Jose", "formatted_address": "1901 Union St (at Laguna St), San Francisco, CA 94123", "locality": "San Francisco", "neighborhood": ["Cow Hollow"], "postcode": "94123", "region": "CA"}, "name": "Bus Stop", "related_places": {}, "timezone": "America/Los_Angeles"}, {"fsq_id": "3fd66200f964a5206eed1ee3", "categories": [{"id": 13010, "name": "Dive Bar", "icon": {"prefix": "https://ss3.4sqi.net/img/categories_v2/nightlife/divebar_", "suffix": ".png"}}, {"id": 13016, "name": "Lounge", "icon": {"prefix": "https://ss3.4sqi.net/img/categories_v2/nightlife/default_", "suffix": ".png"}}, {"id": 13065, "name": "Restaurant", "icon": {"prefix": "https://ss3.4sqi.net/img/categories_v2/food/default_", "suffix": ".png"}}], "chains": [], "distance": 484, "geocodes": {"main": {"latitude": 37.801436, "longitude": -122.424796}, "roof": {"latitude": 37.801436, "longitude": -122.424796}}, "link": "/v3/places/3fd66200f964a5206eed1ee3", "location": {"address": "1400 Lombard St", "census_block": "060750129011000", "country": "US", "cross_street": "at Van Ness Ave.", "dma": "San Francisco-Oakland-San Jose", "formatted_address": "1400 Lombard St (at Van Ness Ave.), San Francisco, CA 94123", "locality": "San Francisco", "neighborhood": ["Russian Hill"], "postcode": "94123", "region": "CA"}, "name": "Black Magic Voodoo Lounge", "related_places": {}, "timezone": "America/Los_Angeles"}, {"fsq_id": "5b98773235d3fc002c3a1332", "categories": [{"id": 13009, "name": "Cocktail Bar", "icon": {"prefix": "https://ss3.4sqi.net/img/categories_v2/nightlife/cocktails_", "suffix": ".png"}}, {"id": 13263, "name": "Japanese Restaurant", "icon": {"prefix": "https://ss3.4sqi.net/img/categories_v2/food/japanese_", "suffix": ".png"}}, {"id": 13322, "name": "Peruvian Restaurant", "icon": {"prefix": "https://ss3.4sqi.net/img/categories_v2/food/peruvian_", "suffix": ".png"}}], "chains": [], "distance": 233, "geocodes": {"main": {"latitude": 37.798035, "longitude": -122.429541}, "roof": {"latitude": 37.798035, "longitude": -122.429541}}, "link": "/v3/places/5b98773235d3fc002c3a1332", "location": {"address": "1838 Union St", "census_block": "060750130012001", "country": "US", "cross_street": "", "dma": "San Francisco-Oakland-San Jose", "formatted_address": "1838 Union St, San Francisco, CA 94123", "locality": "San Francisco", "neighborhood": ["Cow Hollow"], "postcode": "94123", "region": "CA"}, "name": "Kaiyo", "related_places": {}, "timezone": "America/Los_Angeles"}, {"fsq_id": "3fd66200f964a520a0ed1ee3", "categories": [{"id": 13003, "name": "Bar", "icon": {"prefix": "https://ss3.4sqi.net/img/categories_v2/nightlife/pub_", "suffix": ".png"}}], "chains": [], "distance": 337, "geocodes": {"main": {"latitude": 37.797405, "longitude": -122.431798}, "roof": {"latitude": 37.797405, "longitude": -122.431798}}, "link": "/v3/places/3fd66200f964a520a0ed1ee3", "location": {"address": "1979 Union St", "census_block": "060750130021003", "country": "US", "cross_street": "at Buchanan St", "dma": "San Francisco-Oakland-San Jose", "formatted_address": "1979 Union St (at Buchanan St), San Francisco, CA 94123", "locality": "San Francisco", "neighborhood": ["Cow Hollow"], "postcode": "94123", "region": "CA"}, "name": "The Blue Light", "related_places": {"children": [{"fsq_id": "5b2b2214c824ae002ca68f54", "name": "Bolin Barbeque"}]}, "timezone": "America/Los_Angeles"}, {"fsq_id": "5972d74eff030653f7b4454f", "categories": [{"id": 13031, "name": "Burger Joint", "icon": {"prefix": "https://ss3.4sqi.net/img/categories_v2/food/burger_", "suffix": ".png"}}], "chains": [], "distance": 441, "geocodes": {"main": {"latitude": 37.801441, "longitude": -122.425155}, "roof": {"latitude": 37.801441, "longitude": -122.425155}}, "link": "/v3/places/5972d74eff030653f7b4454f", "location": {"address": "1434 Lombard St", "census_block": "060750129011000", "country": "US", "cross_street": "Van Ness", "dma": "San Francisco-Oakland-San Jose", "formatted_address": "1434 Lombard St (Van Ness), San Francisco, CA 94123", "locality": "San Francisco", "neighborhood": ["Cow Hollow"], "postcode": "94123", "region": "CA"}, "name": "Bobo's Burger Bar", "related_places": {}, "timezone": "America/Los_Angeles"}, {"fsq_id": "4b707afff964a520181d2de3", "categories": [{"id": 13039, "name": "Deli", "icon": {"prefix": "https://ss3.4sqi.net/img/categories_v2/food/deli_", "suffix": ".png"}}, {"id": 13334, "name": "Sandwich Restaurant", "icon": {"prefix": "https://ss3.4sqi.net/img/categories_v2/food/deli_", "suffix": ".png"}}], "chains": [], "distance": 331, "geocodes": {"main": {"latitude": 37.798335, "longitude": -122.426907}, "roof": {"latitude": 37.798335, "longitude": -122.426907}}, "link": "/v3/places/4b707afff964a520181d2de3", "location": {"address": "1668 Union St", "census_block": "060750130011002", "country": "US", "cross_street": "Gough", "dma": "San Francisco-Oakland-San Jose", "formatted_address": "1668 Union St (Gough), San Francisco, CA 94123", "locality": "San Francisco", "neighborhood": ["Cow Hollow"], "postcode": "94123", "region": "CA"}, "name": "Corsagna Deli", "related_places": {}, "timezone": "America/Los_Angeles"}, {"fsq_id": "435ad280f964a52002291fe3", "categories": [{"id": 13015, "name": "Karaoke Bar", "icon": {"prefix": "https://ss3.4sqi.net/img/categories_v2/nightlife/karaoke_", "suffix": ".png"}}, {"id": 13068, "name": "American Restaurant", "icon": {"prefix": "https://ss3.4sqi.net/img/categories_v2/food/default_", "suffix": ".png"}}, {"id": 13338, "name": "Seafood Restaurant", "icon": {"prefix": "https://ss3.4sqi.net/img/categories_v2/food/seafood_", "suffix": ".png"}}], "chains": [], "distance": 388, "geocodes": {"main": {"latitude": 37.800249, "longitude": -122.434332}, "roof": {"latitude": 37.800249, "longitude": -122.434332}}, "link": "/v3/places/435ad280f964a52002291fe3", "location": {"address": "1994 Lombard St", "census_block": "060750129023003", "country": "US", "cross_street": "at Webster St", "dma": "San Francisco-Oakland-San Jose", "formatted_address": "1994 Lombard St (at Webster St), San Francisco, CA 94123", "locality": "San Francisco", "neighborhood": ["Cow Hollow"], "postcode": "94123", "region": "CA"}, "name": "Silver Cloud", "related_places": {}, "timezone": "America/Los_Angeles"}, {"fsq_id": "4a135140f964a520d3771fe3", "categories": [{"id": 13035, "name": "Coffee Shop", "icon": {"prefix": "https://ss3.4sqi.net/img/categories_v2/food/coffeeshop_", "suffix": ".png"}}], "chains": [{"id": "ab4c54c0-d68a-012e-5619-003048cad9da", "name": "Starbucks"}], "distance": 261, "geocodes": {"main": {"latitude": 37.797626, "longitude": -122.430405}}, "link": "/v3/places/4a135140f964a520d3771fe3", "location": {"address": "1899 Union St", "country": "US", "cross_street": "at Laguna St", "dma": "San Francisco-Oakland-San Jose", "formatted_address": "1899 Union St (at Laguna St), San Francisco, CA 94123", "locality": "San Francisco", "neighborhood": ["Cow Hollow"], "postcode": "94123", "region": "CA"}, "name": "Starbucks", "related_places": {}, "timezone": "America/Los_Angeles"}, {"fsq_id": "58ba381ef840855538e68561", "categories": [{"id": 13072, "name": "Asian Restaurant", "icon": {"prefix": "https://ss3.4sqi.net/img/categories_v2/food/asian_", "suffix": ".png"}}, {"id": 13272, "name": "Ramen Restaurant", "icon": {"prefix": "https://ss3.4sqi.net/img/categories_v2/food/ramen_", "suffix": ".png"}}, {"id": 13276, "name": "Sushi Restaurant", "icon": {"prefix": "https://ss3.4sqi.net/img/categories_v2/food/sushi_", "suffix": ".png"}}], "chains": [], "distance": 452, "geocodes": {"main": {"latitude": 37.801479, "longitude": -122.425085}, "roof": {"latitude": 37.801479, "longitude": -122.425085}}, "link": "/v3/places/58ba381ef840855538e68561", "location": {"address": "1424 Lombard St", "census_block": "060750129011000", "country": "US", "cross_street": "at Van Ness Ave", "dma": "San Francisco-Oakland-San Jose", "formatted_address": "1424 Lombard St (at Van Ness Ave), San Francisco, CA 94123", "locality": "San Francisco", "neighborhood": ["Cow Hollow"], "postcode": "94123", "region": "CA"}, "name": "Kui Shin Bo", "related_places": {}, "timezone": "America/Los_Angeles"}, {"fsq_id": "4ebb4b2561aff66b684455d2", "categories": [{"id": 10039, "name": "Music Venue", "icon": {"prefix": "https://ss3.4sqi.net/img/categories_v2/arts_entertainment/musicvenue_", "suffix": ".png"}}, {"id": 13003, "name": "Bar", "icon": {"prefix": "https://ss3.4sqi.net/img/categories_v2/nightlife/pub_", "suffix": ".png"}}, {"id": 13068, "name": "American Restaurant", "icon": {"prefix": "https://ss3.4sqi.net/img/categories_v2/food/default_", "suffix": ".png"}}], "chains": [], "distance": 253, "geocodes": {"main": {"latitude": 37.797563, "longitude": -122.430159}, "roof": {"latitude": 37.797563, "longitude": -122.430159}}, "link": "/v3/places/4ebb4b2561aff66b684455d2", "location": {"address": "1875 Union St", "census_block": "060750130012002", "country": "US", "cross_street": "Laguna St", "dma": "San Francisco-Oakland-San Jose", "formatted_address": "1875 Union St (Laguna St), San Francisco, CA 94123", "locality": "San Francisco", "neighborhood": ["Cow Hollow"], "postcode": "94123", "region": "CA"}, "name": "Hollow Cow", "related_places": {}, "timezone": "America/Los_Angeles"}, {"fsq_id": "61ab1fc0d219623886e21306", "categories": [{"id": 13314, "name": "New American Restaurant", "icon": {"prefix": "https://ss3.4sqi.net/img/categories_v2/food/newamerican_", "suffix": ".png"}}], "chains": [], "distance": 309, "geocodes": {"main": {"latitude": 37.797871, "longitude": -122.42763}}, "link": "/v3/places/61ab1fc0d219623886e21306", "location": {"address": "1715 Union St", "country": "US", "cross_street": "", "dma": "San Francisco-Oakland-San Jose", "formatted_address": "1715 Union St, San Francisco, CA 94123", "locality": "San Francisco", "neighborhood": ["Cow Hollow"], "postcode": "94123", "region": "CA"}, "name": "Camino Alto", "related_places": {}, "timezone": "America/Los_Angeles"}, {"fsq_id": "50707edae4b07b49cb137ad1", "categories": [{"id": 13054, "name": "Food Truck", "icon": {"prefix": "https://ss3.4sqi.net/img/categories_v2/food/streetfood_", "suffix": ".png"}}], "chains": [], "distance": 339, "geocodes": {"main": {"latitude": 37.800011, "longitude": -122.433171}, "roof": {"latitude": 37.800011, "longitude": -122.433171}}, "link": "/v3/places/50707edae4b07b49cb137ad1", "location": {"address": "Fort Mason Center", "census_block": "060750129023004", "country": "US", "cross_street": "", "dma": "San Francisco-Oakland-San Jose", "formatted_address": "Fort Mason Center, San Francisco, CA 94123", "locality": "San Francisco", "neighborhood": ["Cow Hollow"], "postcode": "94123", "region": "CA"}, "name": "Off the Pier", "related_places": {}, "timezone": "America/Los_Angeles"}, {"fsq_id": "6098442c7832402bfa4b3ca6", "categories": [{"id": 13035, "name": "Coffee Shop", "icon": {"prefix": "https://ss3.4sqi.net/img/categories_v2/food/coffeeshop_", "suffix": ".png"}}], "chains": [], "distance": 400, "geocodes": {"main": {"latitude": 37.797142, "longitude": -122.433063}}, "link": "/v3/places/6098442c7832402bfa4b3ca6", "location": {"address": "2055 Union St", "address_extended": "Ste B", "country": "US", "cross_street": "", "dma": "San Francisco-Oakland-San Jose", "formatted_address": "2055 Union St, San Francisco, CA 94123", "locality": "San Francisco", "neighborhood": ["Cow Hollow"], "postcode": "94123", "region": "CA"}, "name": "M\u00fcesi Cafe", "related_places": {}, "timezone": "America/Los_Angeles"}, {"fsq_id": "57a7f5e1498ec1f9ef06c27f", "categories": [{"id": 13068, "name": "American Restaurant", "icon": {"prefix": "https://ss3.4sqi.net/img/categories_v2/food/default_", "suffix": ".png"}}, {"id": 13072, "name": "Asian Restaurant", "icon": {"prefix": "https://ss3.4sqi.net/img/categories_v2/food/asian_", "suffix": ".png"}}, {"id": 13347, "name": "Tapas Restaurant", "icon": {"prefix": "https://ss3.4sqi.net/img/categories_v2/food/tapas_", "suffix": ".png"}}], "chains": [], "distance": 413, "geocodes": {"main": {"latitude": 37.800872, "longitude": -122.425336}, "roof": {"latitude": 37.800872, "longitude": -122.425336}}, "link": "/v3/places/57a7f5e1498ec1f9ef06c27f", "location": {"address": "1449 Lombard St", "census_block": "060750129011005", "country": "US", "cross_street": "", "dma": "San Francisco-Oakland-San Jose", "formatted_address": "1449 Lombard St, San Francisco, CA 94123", "locality": "San Francisco", "neighborhood": ["Cow Hollow"], "postcode": "94123", "region": "CA"}, "name": "Sugarhill Kitchen", "related_places": {}, "timezone": "America/Los_Angeles"}, {"fsq_id": "609f36ed64ebd1744c71a1ed", "categories": [{"id": 13272, "name": "Ramen Restaurant", "icon": {"prefix": "https://ss3.4sqi.net/img/categories_v2/food/ramen_", "suffix": ".png"}}], "chains": [], "distance": 413, "geocodes": {"main": {"latitude": 37.800917, "longitude": -122.425433}}, "link": "/v3/places/609f36ed64ebd1744c71a1ed", "location": {"address": "1449 Lombard St", "country": "US", "cross_street": "", "dma": "San Francisco-Oakland-San Jose", "formatted_address": "1449 Lombard St, San Francisco, CA 94123", "locality": "San Francisco", "neighborhood": ["Cow Hollow"], "postcode": "94123", "region": "CA"}, "name": "Torraku Ramen", "related_places": {}, "timezone": "America/Los_Angeles"}, {"fsq_id": "6164e7b8940e9e2ff2361269", "categories": [{"id": 13072, "name": "Asian Restaurant", "icon": {"prefix": "https://ss3.4sqi.net/img/categories_v2/food/asian_", "suffix": ".png"}}, {"id": 13099, "name": "Chinese Restaurant", "icon": {"prefix": "https://ss3.4sqi.net/img/categories_v2/food/asian_", "suffix": ".png"}}, {"id": 13315, "name": "Noodle Restaurant", "icon": {"prefix": "https://ss3.4sqi.net/img/categories_v2/food/ramen_", "suffix": ".png"}}], "chains": [], "distance": 454, "geocodes": {"main": {"latitude": 37.800196, "longitude": -122.435333}}, "link": "/v3/places/6164e7b8940e9e2ff2361269", "location": {"address": "2030 Lombard St", "country": "US", "cross_street": "Fillmore", "dma": "San Francisco-Oakland-San Jose", "formatted_address": "2030 Lombard St (Fillmore), San Francisco, CA 94123", "locality": "San Francisco", "neighborhood": ["Cow Hollow"], "postcode": "94123", "region": "CA"}, "name": "Barrio Chino", "related_places": {}, "timezone": "America/Los_Angeles"}, {"fsq_id": "4c239e77a852c9288fcae16c", "categories": [{"id": 13021, "name": "Speakeasy", "icon": {"prefix": "https://ss3.4sqi.net/img/categories_v2/nightlife/secretbar_", "suffix": ".png"}}], "chains": [], "distance": 463, "geocodes": {"main": {"latitude": 37.800656, "longitude": -122.42475}, "roof": {"latitude": 37.800656, "longitude": -122.42475}}, "link": "/v3/places/4c239e77a852c9288fcae16c", "location": {"address": "2725 Van Ness Ave", "census_block": "060750129011006", "country": "US", "cross_street": "", "dma": "San Francisco-Oakland-San Jose", "formatted_address": "2725 Van Ness Ave, San Francisco, CA 94109", "locality": "San Francisco", "neighborhood": ["Cow Hollow"], "postcode": "94109", "region": "CA"}, "name": "Club LOL", "related_places": {}, "timezone": "America/Los_Angeles"}, {"fsq_id": "5b2e9aa9ad910e002c506798", "categories": [{"id": 13065, "name": "Restaurant", "icon": {"prefix": "https://ss3.4sqi.net/img/categories_v2/food/default_", "suffix": ".png"}}], "chains": [], "distance": 495, "geocodes": {"main": {"latitude": 37.799159, "longitude": -122.435343}, "roof": {"latitude": 37.799159, "longitude": -122.435343}}, "link": "/v3/places/5b2e9aa9ad910e002c506798", "location": {"address": "2120 Greenwich St", "census_block": "060750129023006", "country": "US", "cross_street": "", "dma": "San Francisco-Oakland-San Jose", "formatted_address": "2120 Greenwich St, San Francisco, CA 94123", "locality": "San Francisco", "neighborhood": ["Cow Hollow"], "postcode": "94123", "region": "CA"}, "name": "Diane\u2019s Bloody Mary Bar & Brunch", "related_places": {}, "timezone": "America/Los_Angeles"}, {"fsq_id": "5de9dc3291ebb50008f13ef0", "categories": [{"id": 13016, "name": "Lounge", "icon": {"prefix": "https://ss3.4sqi.net/img/categories_v2/nightlife/default_", "suffix": ".png"}}, {"id": 13065, "name": "Restaurant", "icon": {"prefix": "https://ss3.4sqi.net/img/categories_v2/food/default_", "suffix": ".png"}}], "chains": [], "distance": 508, "geocodes": {"main": {"latitude": 37.799175, "longitude": -122.435559}, "roof": {"latitude": 37.799175, "longitude": -122.435559}}, "link": "/v3/places/5de9dc3291ebb50008f13ef0", "location": {"address": "3200 Fillmore St", "census_block": "060750129023006", "country": "US", "cross_street": "", "dma": "San Francisco-Oakland-San Jose", "formatted_address": "3200 Fillmore St, San Francisco, CA 94123", "locality": "San Francisco", "neighborhood": ["Cow Hollow"], "postcode": "94123", "region": "CA"}, "name": "Rockwell", "related_places": {}, "timezone": "America/Los_Angeles"}, {"fsq_id": "54c3c63a230b4ea911e23f3c", "categories": [{"id": 13031, "name": "Burger Joint", "icon": {"prefix": "https://ss3.4sqi.net/img/categories_v2/food/burger_", "suffix": ".png"}}], "chains": [{"id": "4c24ef5e-1982-4691-beb0-6fc687504523", "name": "Johnny Rockets"}], "distance": 108, "geocodes": {"main": {"latitude": 37.799996, "longitude": -122.431235}, "roof": {"latitude": 37.799996, "longitude": -122.431235}}, "link": "/v3/places/54c3c63a230b4ea911e23f3c", "location": {"address": "3137 Laguna St", "census_block": "060750129021005", "country": "US", "dma": "San Francisco-Oakland-San Jose", "formatted_address": "3137 Laguna St, San Francisco, CA 94123", "locality": "San Francisco", "neighborhood": ["Cow Hollow"], "postcode": "94123", "region": "CA"}, "name": "Johnny Rockets", "related_places": {}}, {"fsq_id": "08f2794333c840891e79e5f4", "categories": [{"id": 13303, "name": "Mexican Restaurant", "icon": {"prefix": "https://ss3.4sqi.net/img/categories_v2/food/mexican_", "suffix": ".png"}}], "chains": [], "distance": 228, "geocodes": {"main": {"latitude": 37.79922, "longitude": -122.432407}, "roof": {"latitude": 37.79922, "longitude": -122.432407}}, "link": "/v3/places/08f2794333c840891e79e5f4", "location": {"address": "3166 Buchanan St", "census_block": "060750129021004", "country": "US", "dma": "San Francisco-Oakland-San Jose", "formatted_address": "3166 Buchanan St, San Francisco, CA 94123", "locality": "San Francisco", "neighborhood": ["Cow Hollow"], "postcode": "94123", "region": "CA"}, "name": "Liverpool Lils", "related_places": {}}, {"fsq_id": "697521dc5fdf48c0b64ddd90", "categories": [{"id": 13065, "name": "Restaurant", "icon": {"prefix": "https://ss3.4sqi.net/img/categories_v2/food/default_", "suffix": ".png"}}], "chains": [], "distance": 228, "geocodes": {"main": {"latitude": 37.797959, "longitude": -122.42968}, "roof": {"latitude": 37.797959, "longitude": -122.42968}}, "link": "/v3/places/697521dc5fdf48c0b64ddd90", "location": {"address": "1838 Union St", "census_block": "060750130012001", "country": "US", "dma": "San Francisco-Oakland-San Jose", "formatted_address": "1838 Union St, San Francisco, CA 94123", "locality": "San Francisco", "neighborhood": ["Cow Hollow"], "postcode": "94123", "region": "CA"}, "name": "Rica Restaurant & Bar", "related_places": {}}, {"fsq_id": "c6d462b337be42679cc2f8dc", "categories": [{"id": 13065, "name": "Restaurant", "icon": {"prefix": "https://ss3.4sqi.net/img/categories_v2/food/default_", "suffix": ".png"}}], "chains": [], "distance": 260, "geocodes": {"main": {"latitude": 37.797732, "longitude": -122.429237}, "roof": {"latitude": 37.797732, "longitude": -122.429237}}, "link": "/v3/places/c6d462b337be42679cc2f8dc", "location": {"address": "1829 Union St", "census_block": "060750130012002", "country": "US", "dma": "San Francisco-Oakland-San Jose", "formatted_address": "1829 Union St, San Francisco, CA 94123", "locality": "San Francisco", "neighborhood": ["Cow Hollow"], "postcode": "94123", "region": "CA"}, "name": "Back Of The House", "related_places": {}}, {"fsq_id": "514f37fb121248ece8045bd0", "categories": [{"id": 13001, "name": "Bagel Shop", "icon": {"prefix": "https://ss3.4sqi.net/img/categories_v2/food/bagels_", "suffix": ".png"}}, {"id": 13002, "name": "Bakery", "icon": {"prefix": "https://ss3.4sqi.net/img/categories_v2/food/bakery_", "suffix": ".png"}}, {"id": 13065, "name": "Restaurant", "icon": {"prefix": "https://ss3.4sqi.net/img/categories_v2/food/default_", "suffix": ".png"}}], "chains": [], "distance": 263, "geocodes": {"main": {"latitude": 37.797637, "longitude": -122.430211}}, "link": "/v3/places/514f37fb121248ece8045bd0", "location": {"address": "1887 Union St", "country": "US", "dma": "San Francisco-Oakland-San Jose", "formatted_address": "1887 Union St, San Francisco, CA 94123", "locality": "San Francisco", "neighborhood": ["Cow Hollow"], "postcode": "94123", "region": "CA"}, "name": "Noah's Bagels", "related_places": {}}, {"fsq_id": "c38c5fad05d445d029b14ba2", "categories": [{"id": 13236, "name": "Italian Restaurant", "icon": {"prefix": "https://ss3.4sqi.net/img/categories_v2/food/italian_", "suffix": ".png"}}], "chains": [], "distance": 273, "geocodes": {"main": {"latitude": 37.797775, "longitude": -122.428666}, "roof": {"latitude": 37.797775, "longitude": -122.428666}}, "link": "/v3/places/c38c5fad05d445d029b14ba2", "location": {"address": "1785 Union St", "census_block": "060750130012003", "country": "US", "dma": "San Francisco-Oakland-San Jose", "formatted_address": "1785 Union St, San Francisco, CA 94123", "locality": "San Francisco", "neighborhood": ["Cow Hollow"], "postcode": "94123", "region": "CA"}, "name": "La Vinoteca", "related_places": {}}, {"fsq_id": "12673618aec049cae8c7ccd6", "categories": [{"id": 13065, "name": "Restaurant", "icon": {"prefix": "https://ss3.4sqi.net/img/categories_v2/food/default_", "suffix": ".png"}}], "chains": [], "distance": 281, "geocodes": {"main": {"latitude": 37.797672, "longitude": -122.428731}, "roof": {"latitude": 37.797672, "longitude": -122.428731}}, "link": "/v3/places/12673618aec049cae8c7ccd6", "location": {"address": "2760 Octavia St", "census_block": "060750130012003", "country": "US", "dma": "San Francisco-Oakland-San Jose", "formatted_address": "2760 Octavia St, San Francisco, CA 94123", "locality": "San Francisco", "neighborhood": ["Cow Hollow"], "postcode": "94123", "region": "CA"}, "name": "Cafe Merenda", "related_places": {}}, {"fsq_id": "85fe7cdbf0e34adff47f4cb3", "categories": [{"id": 13145, "name": "Fast Food Restaurant", "icon": {"prefix": "https://ss3.4sqi.net/img/categories_v2/food/fastfood_", "suffix": ".png"}}, {"id": 13334, "name": "Sandwich Restaurant", "icon": {"prefix": "https://ss3.4sqi.net/img/categories_v2/food/deli_", "suffix": ".png"}}], "chains": [], "distance": 290, "geocodes": {"main": {"latitude": 37.800428, "longitude": -122.433268}, "roof": {"latitude": 37.800428, "longitude": -122.433268}}, "link": "/v3/places/85fe7cdbf0e34adff47f4cb3", "location": {"address": "1926 Lombard St", "census_block": "060750129023003", "country": "US", "dma": "San Francisco-Oakland-San Jose", "formatted_address": "1926 Lombard St, San Francisco, CA 94123", "locality": "San Francisco", "neighborhood": ["Cow Hollow"], "postcode": "94123", "region": "CA"}, "name": "Mr. Pickle's", "related_places": {}}, {"fsq_id": "2f6e6c32186d4044547967f4", "categories": [{"id": 13272, "name": "Ramen Restaurant", "icon": {"prefix": "https://ss3.4sqi.net/img/categories_v2/food/ramen_", "suffix": ".png"}}], "chains": [], "distance": 327, "geocodes": {"main": {"latitude": 37.800395, "longitude": -122.433696}, "roof": {"latitude": 37.800395, "longitude": -122.433696}}, "link": "/v3/places/2f6e6c32186d4044547967f4", "location": {"address": "1968 Lombard St", "census_block": "060750129023003", "country": "US", "dma": "San Francisco-Oakland-San Jose", "formatted_address": "1968 Lombard St, San Francisco, CA 94123", "locality": "San Francisco", "neighborhood": ["Cow Hollow"], "postcode": "94123", "region": "CA"}, "name": "Ramen Ya", "related_places": {}}, {"fsq_id": "1958ebae3297485d6543c919", "categories": [{"id": 13065, "name": "Restaurant", "icon": {"prefix": "https://ss3.4sqi.net/img/categories_v2/food/default_", "suffix": ".png"}}], "chains": [], "distance": 355, "geocodes": {"main": {"latitude": 37.7976, "longitude": -122.43267}, "roof": {"latitude": 37.7976, "longitude": -122.43267}}, "link": "/v3/places/1958ebae3297485d6543c919", "location": {"address": "2032 Union St", "census_block": "060750130021001", "country": "US", "dma": "San Francisco-Oakland-San Jose", "formatted_address": "2032 Union St, San Francisco, CA 94123", "locality": "San Francisco", "neighborhood": ["Cow Hollow"], "postcode": "94123", "region": "CA"}, "name": "Palmetto", "related_places": {}}], "context": {"geo_bounds": {"circle": {"center": {"latitude": 37.8, "longitude": -122.43}, "radius": 500}}}}