{"results": [{"fsq_id": "523a4dfb8bbd84de289ee1ba", "categories": [{"id": 13061, "name": "Meadery", "icon": {"prefix": "https://ss3.4sqi.net/img/categories_v2/food/winery_", "suffix": ".png"}}], "chains": [], "distance": 413, "geocodes": {"main": {"latitude": 37.726996, "longitude": -122.382494}, "roof": {"latitude": 37.726996, "longitude": -122.382494}}, "link": "/v3/places/523a4dfb8bbd84de289ee1ba", "location": {"address": "1180 Shafter Ave", "census_block": "060750232002020", "country": "US", "cross_street": "btwn Hawes & Griffith", "dma": "San Francisco-Oakland-San Jose", "formatted_address": "1180 Shafter Ave (btwn Hawes & Griffith), San Francisco, CA 94124", "locality": "San Francisco", "neighborhood": ["Bayshore"], "postcode": "94124", "region": "CA"}, "name": "The Meadery San Francisco", "related_places": {}, "timezone": "America/Los_Angeles"}, {"fsq_id": "5dd6346a91e2f100081492f5", "categories": [{"id": 13000, "name": "Dining and Drinking", "icon": {"prefix": "https://ss3.4sqi.net/img/categories_v2/food/default_", "suffix": ".png"}}], "chains": [], "distance": 464, "geocodes": {"main": {"latitude": 37.732062, "longitude": -122.375195}, "roof": {"latitude": 37.732062, "longitude": -122.375195}}, "link": "/v3/places/5dd6346a91e2f100081492f5", "location": {"address": "888 Innes Ave", "census_block": "060750231032002", "country": "US", "cross_street": "", "dma": "San Francisco-Oakland-San Jose", "formatted_address": "888 Innes Ave, San Francisco, CA 94124", "locality": "San Francisco", "neighborhood": ["Bayshore"], "postcode": "94124", "region": "CA"}, "name": "Cafe Alma", "related_places": {}, "timezone": "America/Los_Angeles"}, {"fsq_id": "4f761554e4b06ff834f0a44e", "categories": [{"id": 13040, "name": "Dessert Shop", "icon": {"prefix": "https://ss3.4sqi.net/img/categories_v2/food/dessert_", "suffix": ".png"}}], "chains": [], "distance": 1315, "geocodes": {"main": {"latitude": 37.730456, "longitude": -122.384273}, "roof": {"latitude": 37.730456, "longitude": -122.384273}}, "link": "/v3/places/4f761554e4b06ff834f0a44e", "location": {"address": "255 Mendell St", "census_block": "060750231022004", "country": "US", "cross_street": "Evans Ave", "dma": "San Francisco-Oakland-San Jose", "formatted_address": "255 Mendell St (Evans Ave), San Francisco, CA 94124", "locality": "San Francisco", "neighborhood": ["Bayshore"], "postcode": "94124", "region": "CA"}, "name": "L'Artisan Gourmet Parisian Macarons", "related_places": {}, "timezone": "America/Los_Angeles"}, {"fsq_id": "26dbbf52ef55477bb60f9a4a", "categories": [{"id": 13065, "name": "Restaurant", "icon": {"prefix": "https://ss3.4sqi.net/img/categories_v2/food/default_", "suffix": ".png"}}], "chains": [], "distance": 250, "geocodes": {"main": {"latitude": 37.730706, "longitude": -122.382711}, "roof": {"latitude": 37.730706, "longitude": -122.382711}}, "link": "/v3/places/26dbbf52ef55477bb60f9a4a", "location": {"address": "110 Hunters Point Shipyard", "census_block": "060750231022004", "country": "US", "dma": "San Francisco-Oakland-San Jose", "formatted_address": "110 Hunters Point Shipyard, San Francisco, CA 94124", "locality": "San Francisco", "neighborhood": ["Bayshore"], "postcode": "94124", "region": "CA"}, "name": "Green Straw Juice", "related_places": {}}, {"fsq_id": "249a52f38a6f4bbb64ce17b0", "categories": [{"id": 13065, "name": "Restaurant", "icon": {"prefix": "https://ss3.4sqi.net/img/categories_v2/food/default_", "suffix": ".png"}}], "chains": [], "distance": 257, "geocodes": {"main": {"latitude": 37.728076, "longitude": -122.381625}, "roof": {"latitude": 37.728076, "longitude": -122.381625}}, "link": "/v3/places/249a52f38a6f4bbb64ce17b0", "location": {"address": "1176 Quesada Ave", "census_block": "060750232002013", "country": "US", "dma": "San Francisco-Oakland-San Jose", "formatted_address": "1176 Quesada Ave, San Francisco, CA 94124", "locality": "San Francisco", "neighborhood": ["Bayshore"], "postcode": "94124", "region": "CA"}, "name": "Bushka's Kitchen", "related_places": {}}, {"fsq_id": "e7e5284513e14c73deaba576", "categories": [{"id": 13035, "name": "Coffee Shop", "icon": {"prefix": "https://ss3.4sqi.net/img/categories_v2/food/coffeeshop_", "suffix": ".png"}}, {"id": 13065, "name": "Restaurant", "icon": {"prefix": "https://ss3.4sqi.net/img/categories_v2/food/default_", "suffix": ".png"}}], "chains": [], "distance": 300, "geocodes": {"main": {"latitude": 37.727674, "longitude": -122.381745}, "roof": {"latitude": 37.727674, "longitude": -122.381745}}, "link": "/v3/places/e7e5284513e14c73deaba576", "location": {"address": "1171 Quesada Ave", "census_block": "060750232002015", "country": "US", "dma": "San Francisco-Oakland-San Jose", "formatted_address": "1171 Quesada Ave, San Francisco, CA 94124", "locality": "San Francisco", "neighborhood": ["Bayshore"], "postcode": "94124", "region": "CA"}, "name": "Blue Tiger Coffee Service", "related_places": {}}, {"fsq_id": "a562f01fb01f405ac222af8f", "categories": [{"id": 13099, "name": "Chinese Restaurant", "icon": {"prefix": "https://ss3.4sqi.net/img/categories_v2/food/asian_", "suffix": ".png"}}], "chains": [], "distance": 379, "geocodes": {"main": {"latitude": 37.726588, "longitude": -122.379791}}, "link": "/v3/places/a562f01fb01f405ac222af8f", "location": {"address": "1071 Quesada Ave", "country": "US", "dma": "San Francisco-Oakland-San Jose", "formatted_address": "1071 Quesada Ave, San Francisco, CA 94124", "locality": "San Francisco", "neighborhood": ["Bayshore"], "postcode": "94124", "region": "CA"}, "name": "Golden Wheat Bean Sprout Co.", "related_places": {}}, {"fsq_id": "9e707eaa9ed84014ec15b4fa", "categories": [{"id": 13065, "name": "Restaurant", "icon": {"prefix": "https://ss3.4sqi.net/img/categories_v2/food/default_", "suffix": ".png"}}], "chains": [], "distance": 412, "geocodes": {"main": {"latitude": 37.726432, "longitude": -122.381314}, "roof": {"latitude": 37.726432, "longitude": -122.381314}}, "link": "/v3/places/9e707eaa9ed84014ec15b4fa", "location": {"address": "1115 Revere Ave", "census_block": "060750232002020", "country": "US", "dma": "San Francisco-Oakland-San Jose", "formatted_address": "1115 Revere Ave, San Francisco, CA 94124", "locality": "San Francisco", "neighborhood": ["Bayshore"], "postcode": "94124", "region": "CA"}, "name": "Yh Enterprises", "related_places": {}}, {"fsq_id": "bae319b4b6ca44bda3634f65", "categories": [{"id": 13065, "name": "Restaurant", "icon": {"prefix": "https://ss3.4sqi.net/img/categories_v2/food/default_", "suffix": ".png"}}], "chains": [], "distance": 419, "geocodes": {"main": {"latitude": 37.726367, "longitude": -122.38131}, "roof": {"latitude": 37.726367, "longitude": -122.38131}}, "link": "/v3/places/bae319b4b6ca44bda3634f65", "location": {"address": "1115 Revere Ave", "census_block": "060750232002020", "country": "US", "dma": "San Francisco-Oakland-San Jose", "formatted_address": "1115 Revere Ave, San Francisco, CA 94124", "locality": "San Francisco", "neighborhood": ["Bayshore"], "postcode": "94124", "region": "CA"}, "name": "Luong Chiem", "related_places": {}}, {"fsq_id": "f57afa27f45646e972914d5e", "categories": [{"id": 13003, "name": "Bar", "icon": {"prefix": "https://ss3.4sqi.net/img/categories_v2/nightlife/pub_", "suffix": ".png"}}, {"id": 13029, "name": "Brewery", "icon": {"prefix": "https://ss3.4sqi.net/img/categories_v2/food/brewery_", "suffix": ".png"}}, {"id": 13387, "name": "Winery", "icon": {"prefix": "https://ss3.4sqi.net/img/categories_v2/food/winery_", "suffix": ".png"}}], "chains": [], "distance": 433, "geocodes": {"main": {"latitude": 37.726807, "longitude": -122.382841}, "roof": {"latitude": 37.726807, "longitude": -122.382841}}, "link": "/v3/places/f57afa27f45646e972914d5e", "location": {"address": "1180 Shafter Ave", "census_block": "060750232002020", "country": "US", "dma": "San Francisco-Oakland-San Jose", "formatted_address": "1180 Shafter Ave, San Francisco, CA 94124", "locality": "San Francisco", "neighborhood": ["Bayshore"], "postcode": "94124", "region": "CA"}, "name": "The San Francisco Mead Company", "related_places": {}}, {"fsq_id": "1715217d18334cd2a5e47e66", "categories": [{"id": 13059, "name": "Juice Bar", "icon": {"prefix": "https://ss3.4sqi.net/img/categories_v2/food/juicebar_", "suffix": ".png"}}], "chains": [], "distance": 434, "geocodes": {"main": {"latitude": 37.726096, "longitude": -122.379718}, "roof": {"latitude": 37.726096, "longitude": -122.379718}}, "link": "/v3/places/1715217d18334cd2a5e47e66", "location": {"address": "1040 Revere Ave", "census_block": "060750232002018", "country": "US", "dma": "San Francisco-Oakland-San Jose", "formatted_address": "1040 Revere Ave, San Francisco, CA 94124", "locality": "San Francisco", "neighborhood": ["Bayshore"], "postcode": "94124", "region": "CA"}, "name": "Happy Moose Juice", "related_places": {}}, {"fsq_id": "7fab4567ed3447069d2ef41e", "categories": [{"id": 13065, "name": "Restaurant", "icon": {"prefix": "https://ss3.4sqi.net/img/categories_v2/food/default_", "suffix": ".png"}}], "chains": [], "distance": 438, "geocodes": {"main": {"latitude": 37.726058, "longitude": -122.379787}, "roof": {"latitude": 37.726058, "longitude": -122.379787}}, "link": "/v3/places/7fab4567ed3447069d2ef41e", "location": {"address": "1040 Revere Ave", "census_block": "060750232002018", "country": "US", "dma": "San Francisco-Oakland-San Jose", "formatted_address": "1040 Revere Ave, San Francisco, CA 94124", "locality": "San Francisco", "neighborhood": ["Bayshore"], "postcode": "94124", "region": "CA"}, "name": "Octoberfeast", "related_places": {}}, {"fsq_id": "340428dd1bee4bc3fad1c4b0", "categories": [{"id": 13065, "name": "Restaurant", "icon": {"prefix": "https://ss3.4sqi.net/img/categories_v2/food/default_", "suffix": ".png"}}], "chains": [], "distance": 486, "geocodes": {"main": {"latitude": 37.7257, "longitude": -122.381056}, "roof": {"latitude": 37.7257, "longitude": -122.381056}}, "link": "/v3/places/340428dd1bee4bc3fad1c4b0", "location": {"address": "1084 Shafter Ave", "census_block": "060750232002019", "country": "US", "dma": "San Francisco-Oakland-San Jose", "formatted_address": "1084 Shafter Ave, San Francisco, CA 94124", "locality": "San Francisco", "neighborhood": ["Bayshore"], "postcode": "94124", "region": "CA"}, "name": "Universal Restaurant Equipment Factory", "related_places": {}}, {"fsq_id": "6efae8f601e74f897570e9f0", "categories": [{"id": 13065, "name": "Restaurant", "icon": {"prefix": "https://ss3.4sqi.net/img/categories_v2/food/default_", "suffix": ".png"}}], "chains": [], "distance": 492, "geocodes": {"main": {"latitude": 37.731666, "longitude": -122.374813}, "roof": {"latitude": 37.731666, "longitude": -122.374813}}, "link": "/v3/places/6efae8f601e74f897570e9f0", "location": {"address": "840 Innes Ave", "census_block": "060750231032002", "country": "US", "dma": "San Francisco-Oakland-San Jose", "formatted_address": "840 Innes Ave, San Francisco, CA 94124", "locality": "San Francisco", "neighborhood": ["Bayshore"], "postcode": "94124", "region": "CA"}, "name": "Hunter's Point Restaurant", "related_places": {}}], "context": {"geo_bounds": {"circle": {"center": {"latitude": 37.73, "longitude": -122.38}, "radius": 500}}}}