{"results": [{"fsq_id": "50427be8e4b09c6ce4ee30b4", "categories": [{"id": 13011, "name": "Gay Bar", "icon": {"prefix": "https://ss3.4sqi.net/img/categories_v2/nightlife/gaybar_", "suffix": ".png"}}, {"id": 13065, "name": "Restaurant", "icon": {"prefix": "https://ss3.4sqi.net/img/categories_v2/food/default_", "suffix": ".png"}}], "chains": [], "distance": 290, "geocodes": {"main": {"latitude": 37.77003, "longitude": -122.413296}}, "link": "/v3/places/50427be8e4b09c6ce4ee30b4", "location": {"address": "398 12th St", "country": "US", "cross_street": "at Harrison St", "dma": "San Francisco-Oakland-San Jose", "formatted_address": "398 12th St (at Harrison St), San Francisco, CA 94103", "locality": "San Francisco", "neighborhood": ["Civic Center"], "postcode": "94103", "region": "CA"}, "name": "SF Eagle", "related_places": {}, "timezone": "America/Los_Angeles"}, {"fsq_id": "5459e645498e480913b7ee7b", "categories": [{"id": 13263, "name": "Japanese Restaurant", "icon": {"prefix": "https://ss3.4sqi.net/img/categories_v2/food/japanese_", "suffix": ".png"}}], "chains": [], "distance": 471, "geocodes": {"main": {"latitude": 37.768844, "longitude": -122.415272}, "roof": {"latitude": 37.768844, "longitude": -122.415272}}, "link": "/v3/places/5459e645498e480913b7ee7b", "location": {"address": "82 14th St", "census_block": "060750177002017", "country": "US", "cross_street": "at Folsom St", "dma": "San Francisco-Oakland-San Jose", "formatted_address": "82 14th St (at Folsom St), San Francisco, CA 94103", "locality": "San Francisco", "neighborhood": ["Mission"], "postcode": "94103", "region": "CA"}, "name": "Rintaro", "related_places": {"children": [{"fsq_id": "59964af218d43b6d0983125e", "name": "Okkon Japanese Street Food"}]}, "timezone": "America/Los_Angeles"}, {"fsq_id": "573e8ba3cd102b8b7351f55a", "categories": [{"id": 13302, "name": "Mediterranean Restaurant", "icon": {"prefix": "https://ss3.4sqi.net/img/categories_v2/food/mediterranean_", "suffix": ".png"}}, {"id": 13338, "name": "Seafood Restaurant", "icon": {"prefix": "https://ss3.4sqi.net/img/categories_v2/food/seafood_", "suffix": ".png"}}, {"id": 13347, "name": "Tapas Restaurant", "icon": {"prefix": "https://ss3.4sqi.net/img/categories_v2/food/tapas_", "suffix": ".png"}}], "chains": [], "distance": 476, "geocodes": {"main": {"latitude": 37.771946, "longitude": -122.405112}}, "link": "/v3/places/573e8ba3cd102b8b7351f55a", "location": {"address": "888 Brannan St", "address_extended": "Ste 110", "country": "US", "cross_street": "", "dma": "San Francisco-Oakland-San Jose", "formatted_address": "888 Brannan St, San Francisco, CA 94103", "locality": "San Francisco", "neighborhood": ["SOMISSPO"], "postcode": "94103", "region": "CA"}, "name": "Bellota", "related_places": {}, "timezone": "America/Los_Angeles"}, {"fsq_id": "548a063b498ebda5deae4f7a", "categories": [{"id": 10032, "name": "Night Club", "icon": {"prefix": "https://ss3.4sqi.net/img/categories_v2/nightlife/nightclub_", "suffix": ".png"}}, {"id": 13011, "name": "Gay Bar", "icon": {"prefix": "https://ss3.4sqi.net/img/categories_v2/nightlife/gaybar_", "suffix": ".png"}}, {"id": 13016, "name": "Lounge", "icon": {"prefix": "https://ss3.4sqi.net/img/categories_v2/nightlife/default_", "suffix": ".png"}}], "chains": [], "distance": 445, "geocodes": {"main": {"latitude": 37.771782, "longitude": -122.414442}, "roof": {"latitude": 37.771782, "longitude": -122.414442}}, "link": "/v3/places/548a063b498ebda5deae4f7a", "location": {"address": "298 11th St", "census_block": "060750177002010", "country": "US", "cross_street": "at Folsom", "dma": "San Francisco-Oakland-San Jose", "formatted_address": "298 11th St (at Folsom), San Francisco, CA 94103", "locality": "San Francisco", "neighborhood": ["Civic Center"], "postcode": "94103", "region": "CA"}, "name": "Oasis", "related_places": {}, "timezone": "America/Los_Angeles"}, {"fsq_id": "604d66c15c0663481197abae", "categories": [{"id": 13303, "name": "Mexican Restaurant", "icon": {"prefix": "https://ss3.4sqi.net/img/categories_v2/food/mexican_", "suffix": ".png"}}], "chains": [], "distance": 293, "geocodes": {"main": {"latitude": 37.771436, "longitude": -122.412881}}, "link": "/v3/places/604d66c15c0663481197abae", "location": {"address": "355 11th St", "country": "US", "cross_street": "", "dma": "San Francisco-Oakland-San Jose", "formatted_address": "355 11th St, San Francisco, CA 94103", "locality": "San Francisco", "neighborhood": ["Civic Center"], "postcode": "94103", "region": "CA"}, "name": "Californios", "related_places": {}, "timezone": "America/Los_Angeles"}, {"fsq_id": "42814b00f964a52016221fe3", "categories": [{"id": 13011, "name": "Gay Bar", "icon": {"prefix": "https://ss3.4sqi.net/img/categories_v2/nightlife/gaybar_", "suffix": ".png"}}], "chains": [], "distance": 250, "geocodes": {"main": {"latitude": 37.772082, "longitude": -122.410947}, "roof": {"latitude": 37.772082, "longitude": -122.410947}}, "link": "/v3/places/42814b00f964a52016221fe3", "location": {"address": "1354 Harrison St", "census_block": "060750178032002", "country": "US", "cross_street": "btwn 9th & 10th", "dma": "San Francisco-Oakland-San Jose", "formatted_address": "1354 Harrison St (btwn 9th & 10th), San Francisco, CA 94103", "locality": "San Francisco", "neighborhood": ["Civic Center"], "postcode": "94103", "region": "CA"}, "name": "Lone Star Saloon", "related_places": {}, "timezone": "America/Los_Angeles"}, {"fsq_id": "5190201d498e12df2d433aff", "categories": [{"id": 13022, "name": "Sports Bar", "icon": {"prefix": "https://ss3.4sqi.net/img/categories_v2/nightlife/sportsbar_", "suffix": ".png"}}, {"id": 13057, "name": "Gastropub", "icon": {"prefix": "https://ss3.4sqi.net/img/categories_v2/food/gastropub_", "suffix": ".png"}}, {"id": 13068, "name": "American Restaurant", "icon": {"prefix": "https://ss3.4sqi.net/img/categories_v2/food/default_", "suffix": ".png"}}], "chains": [], "distance": 458, "geocodes": {"main": {"latitude": 37.771153, "longitude": -122.414978}, "roof": {"latitude": 37.771153, "longitude": -122.414978}}, "link": "/v3/places/5190201d498e12df2d433aff", "location": {"address": "1582 Folsom St", "census_block": "060750177002010", "country": "US", "cross_street": "at 12th St", "dma": "San Francisco-Oakland-San Jose", "formatted_address": "1582 Folsom St (at 12th St), San Francisco, CA 94103", "locality": "San Francisco", "neighborhood": ["Civic Center"], "postcode": "94103", "region": "CA"}, "name": "The Willows", "related_places": {}, "timezone": "America/Los_Angeles"}, {"fsq_id": "536c170f498e257eb7c70999", "categories": [{"id": 13035, "name": "Coffee Shop", "icon": {"prefix": "https://ss3.4sqi.net/img/categories_v2/food/coffeeshop_", "suffix": ".png"}}, {"id": 13065, "name": "Restaurant", "icon": {"prefix": "https://ss3.4sqi.net/img/categories_v2/food/default_", "suffix": ".png"}}], "chains": [], "distance": 368, "geocodes": {"main": {"latitude": 37.772476, "longitude": -122.413049}, "roof": {"latitude": 37.772476, "longitude": -122.413049}}, "link": "/v3/places/536c170f498e257eb7c70999", "location": {"address": "1415 Folsom St", "census_block": "060750178032004", "country": "US", "cross_street": "btwn 10th St & Juniper St", "dma": "San Francisco-Oakland-San Jose", "formatted_address": "1415 Folsom St (btwn 10th St & Juniper St), San Francisco, CA 94103", "locality": "San Francisco", "neighborhood": ["Civic Center"], "postcode": "94103", "region": "CA"}, "name": "Sextant Coffee Roasters", "related_places": {}, "timezone": "America/Los_Angeles"}, {"fsq_id": "579921ab498e220f33bd59a2", "categories": [{"id": 10032, "name": "Night Club", "icon": {"prefix": "https://ss3.4sqi.net/img/categories_v2/nightlife/nightclub_", "suffix": ".png"}}, {"id": 13003, "name": "Bar", "icon": {"prefix": "https://ss3.4sqi.net/img/categories_v2/nightlife/pub_", "suffix": ".png"}}], "chains": [], "distance": 422, "geocodes": {"main": {"latitude": 37.767481, "longitude": -122.40659}, "roof": {"latitude": 37.767481, "longitude": -122.40659}}, "link": "/v3/places/579921ab498e220f33bd59a2", "location": {"address": "119 Utah St", "census_block": "060750177001003", "country": "US", "cross_street": "at 15th St", "dma": "San Francisco-Oakland-San Jose", "formatted_address": "119 Utah St (at 15th St), San Francisco, CA 94103", "locality": "San Francisco", "neighborhood": ["Inner Mission"], "postcode": "94103", "region": "CA"}, "name": "The Great Northern", "related_places": {}, "timezone": "America/Los_Angeles"}, {"fsq_id": "58b1dfbd2980db0b0f878004", "categories": [{"id": 13065, "name": "Restaurant", "icon": {"prefix": "https://ss3.4sqi.net/img/categories_v2/food/default_", "suffix": ".png"}}], "chains": [], "distance": 445, "geocodes": {"main": {"latitude": 37.768735, "longitude": -122.414978}, "roof": {"latitude": 37.768735, "longitude": -122.414978}}, "link": "/v3/places/58b1dfbd2980db0b0f878004", "location": {"address": "64 14th St", "census_block": "060750177002017", "country": "US", "cross_street": "Folsom St", "dma": "San Francisco-Oakland-San Jose", "formatted_address": "64 14th St (Folsom St), San Francisco, CA 94103", "locality": "San Francisco", "neighborhood": ["Inner Mission"], "postcode": "94103", "region": "CA"}, "name": "Pink Onion", "related_places": {}, "timezone": "America/Los_Angeles"}, {"fsq_id": "45206915f964a520b73a1fe3", "categories": [{"id": 13065, "name": "Restaurant", "icon": {"prefix": "https://ss3.4sqi.net/img/categories_v2/food/default_", "suffix": ".png"}}], "chains": [], "distance": 439, "geocodes": {"main": {"latitude": 37.774023, "longitude": -122.408625}, "roof": {"latitude": 37.774023, "longitude": -122.408625}}, "link": "/v3/places/45206915f964a520b73a1fe3", "location": {"address": "397 8th St", "census_block": "060750178043007", "country": "US", "cross_street": "", "dma": "San Francisco-Oakland-San Jose", "formatted_address": "397 8th St, San Francisco, CA 94103", "locality": "San Francisco", "neighborhood": ["South Of Market"], "postcode": "94103", "region": "CA"}, "name": "AK Subs", "related_places": {}, "timezone": "America/Los_Angeles"}, {"fsq_id": "45a578cdf964a52000411fe3", "categories": [{"id": 13303, "name": "Mexican Restaurant", "icon": {"prefix": "https://ss3.4sqi.net/img/categories_v2/food/mexican_", "suffix": ".png"}}], "chains": [], "distance": 579, "geocodes": {"main": {"latitude": 37.768541, "longitude": -122.413247}, "roof": {"latitude": 37.768541, "longitude": -122.413247}}, "link": "/v3/places/45a578cdf964a52000411fe3", "location": {"census_block": "060750177001007", "country": "US", "dma": "San Francisco-Oakland-San Jose", "formatted_address": "San Francisco, CA 94103", "locality": "San Francisco", "neighborhood": ["Inner Mission"], "postcode": "94103", "region": "CA"}, "name": "El Tonayense Taco Truck", "related_places": {}, "timezone": "America/Los_Angeles"}, {"fsq_id": "3fd66200f964a52029f11ee3", "categories": [{"id": 10032, "name": "Night Club", "icon": {"prefix": "https://ss3.4sqi.net/img/categories_v2/nightlife/nightclub_", "suffix": ".png"}}, {"id": 13009, "name": "Cocktail Bar", "icon": {"prefix": "https://ss3.4sqi.net/img/categories_v2/nightlife/cocktails_", "suffix": ".png"}}, {"id": 13064, "name": "Pizzeria", "icon": {"prefix": "https://ss3.4sqi.net/img/categories_v2/food/pizza_", "suffix": ".png"}}], "chains": [], "distance": 258, "geocodes": {"main": {"latitude": 37.771002, "longitude": -122.412675}, "roof": {"latitude": 37.771002, "longitude": -122.412675}}, "link": "/v3/places/3fd66200f964a52029f11ee3", "location": {"address": "375 11th St", "census_block": "060750178032004", "country": "US", "cross_street": "at Harrison St", "dma": "San Francisco-Oakland-San Jose", "formatted_address": "375 11th St (at Harrison St), San Francisco, CA 94103", "locality": "San Francisco", "neighborhood": ["Civic Center"], "postcode": "94103", "region": "CA"}, "name": "DNA Lounge", "related_places": {"children": [{"fsq_id": "4d3a0942ad8860fc1eb11252", "name": "Bootie San Francisco"}, {"fsq_id": "5a166f73f0b4905fe10fd3ef", "name": "Dark Sparkle"}]}, "timezone": "America/Los_Angeles"}, {"fsq_id": "40bbc700f964a520b0001fe3", "categories": [{"id": 10000, "name": "Arts and Entertainment", "icon": {"prefix": "https://ss3.4sqi.net/img/categories_v2/arts_entertainment/default_", "suffix": ".png"}}, {"id": 13011, "name": "Gay Bar", "icon": {"prefix": "https://ss3.4sqi.net/img/categories_v2/nightlife/gaybar_", "suffix": ".png"}}, {"id": 13065, "name": "Restaurant", "icon": {"prefix": "https://ss3.4sqi.net/img/categories_v2/food/default_", "suffix": ".png"}}], "chains": [], "distance": 419, "geocodes": {"main": {"latitude": 37.773145, "longitude": -122.412159}}, "link": "/v3/places/40bbc700f964a520b0001fe3", "location": {"address": "1347 Folsom St", "country": "US", "cross_street": "at Dore Alley", "dma": "San Francisco-Oakland-San Jose", "formatted_address": "1347 Folsom St (at Dore Alley), San Francisco, CA 94103", "locality": "San Francisco", "neighborhood": ["Civic Center"], "postcode": "94103", "region": "CA"}, "name": "Powerhouse", "related_places": {}, "timezone": "America/Los_Angeles"}, {"fsq_id": "410c3280f964a520ba0b1fe3", "categories": [{"id": 13009, "name": "Cocktail Bar", "icon": {"prefix": "https://ss3.4sqi.net/img/categories_v2/nightlife/cocktails_", "suffix": ".png"}}, {"id": 13010, "name": "Dive Bar", "icon": {"prefix": "https://ss3.4sqi.net/img/categories_v2/nightlife/divebar_", "suffix": ".png"}}, {"id": 13145, "name": "Fast Food Restaurant", "icon": {"prefix": "https://ss3.4sqi.net/img/categories_v2/food/fastfood_", "suffix": ".png"}}], "chains": [], "distance": 316, "geocodes": {"main": {"latitude": 37.771099, "longitude": -122.413263}}, "link": "/v3/places/410c3280f964a520ba0b1fe3", "location": {"address": "354 11th St", "country": "US", "cross_street": "btwn Harrison & Folsom St", "dma": "San Francisco-Oakland-San Jose", "formatted_address": "354 11th St (btwn Harrison & Folsom St), San Francisco, CA 94103", "locality": "San Francisco", "neighborhood": ["Civic Center"], "postcode": "94103", "region": "CA"}, "name": "Butter", "related_places": {}, "timezone": "America/Los_Angeles"}, {"fsq_id": "4a44417af964a52062a71fe3", "categories": [{"id": 13352, "name": "Thai Restaurant", "icon": {"prefix": "https://ss3.4sqi.net/img/categories_v2/food/thai_", "suffix": ".png"}}], "chains": [], "distance": 387, "geocodes": {"main": {"latitude": 37.771809, "longitude": -122.413655}, "roof": {"latitude": 37.771809, "longitude": -122.413655}}, "link": "/v3/places/4a44417af964a52062a71fe3", "location": {"address": "1489 Folsom St", "census_block": "060750178032004", "country": "US", "cross_street": "at 11th", "dma": "San Francisco-Oakland-San Jose", "formatted_address": "1489 Folsom St (at 11th), San Francisco, CA 94103", "locality": "San Francisco", "neighborhood": ["Civic Center"], "postcode": "94103", "region": "CA"}, "name": "Basil Canteen", "related_places": {}, "timezone": "America/Los_Angeles"}, {"fsq_id": "58e442312b04f86848ca0006", "categories": [{"id": 13055, "name": "Fried Chicken Joint", "icon": {"prefix": "https://ss3.4sqi.net/img/categories_v2/food/friedchicken_", "suffix": ".png"}}, {"id": 13289, "name": "Korean Restaurant", "icon": {"prefix": "https://ss3.4sqi.net/img/categories_v2/food/korean_", "suffix": ".png"}}, {"id": 13388, "name": "Wings Joint", "icon": {"prefix": "https://ss3.4sqi.net/img/categories_v2/food/wings_", "suffix": ".png"}}], "chains": [], "distance": 152, "geocodes": {"main": {"latitude": 37.769783, "longitude": -122.411958}, "roof": {"latitude": 37.769783, "longitude": -122.411958}}, "link": "/v3/places/58e442312b04f86848ca0006", "location": {"address": "428 11th St", "census_block": "060750177001007", "country": "US", "cross_street": "", "dma": "San Francisco-Oakland-San Jose", "formatted_address": "428 11th St, San Francisco, CA 94103", "locality": "San Francisco", "neighborhood": ["Civic Center"], "postcode": "94103", "region": "CA"}, "name": "Kokio Republic", "related_places": {"parent": {"fsq_id": "4fc7c071e4b06e4ecff8e93d", "name": "SOMA StrEat Food Park"}}, "timezone": "America/Los_Angeles"}, {"fsq_id": "44c6433df964a520da351fe3", "categories": [{"id": 13011, "name": "Gay Bar", "icon": {"prefix": "https://ss3.4sqi.net/img/categories_v2/nightlife/gaybar_", "suffix": ".png"}}, {"id": 13034, "name": "Caf\u00e9", "icon": {"prefix": "https://ss3.4sqi.net/img/categories_v2/food/cafe_", "suffix": ".png"}}, {"id": 13303, "name": "Mexican Restaurant", "icon": {"prefix": "https://ss3.4sqi.net/img/categories_v2/food/mexican_", "suffix": ".png"}}], "chains": [], "distance": 403, "geocodes": {"main": {"latitude": 37.772948, "longitude": -122.412432}, "roof": {"latitude": 37.772948, "longitude": -122.412432}}, "link": "/v3/places/44c6433df964a520da351fe3", "location": {"address": "1369 Folsom St", "census_block": "060750178032003", "country": "US", "cross_street": "btwn 9th & 10th", "dma": "San Francisco-Oakland-San Jose", "formatted_address": "1369 Folsom St (btwn 9th & 10th), San Francisco, CA 94103", "locality": "San Francisco", "neighborhood": ["Civic Center"], "postcode": "94103", "region": "CA"}, "name": "Hole in the Wall Saloon", "related_places": {}, "timezone": "America/Los_Angeles"}, {"fsq_id": "581183ce38fa0296ba7471d0", "categories": [{"id": 13146, "name": "Filipino Restaurant", "icon": {"prefix": "https://ss3.4sqi.net/img/categories_v2/food/filipino_", "suffix": ".png"}}], "chains": [], "distance": 173, "geocodes": {"main": {"latitude": 37.769745, "longitude": -122.412028}, "roof": {"latitude": 37.769745, "longitude": -122.412028}}, "link": "/v3/places/581183ce38fa0296ba7471d0", "location": {"address": "428 11th St", "census_block": "060750177001007", "country": "US", "cross_street": "", "dma": "San Francisco-Oakland-San Jose", "formatted_address": "428 11th St, San Francisco, CA 94103", "locality": "San Francisco", "neighborhood": ["Civic Center"], "postcode": "94103", "region": "CA"}, "name": "The Sarap Shop", "related_places": {}, "timezone": "America/Los_Angeles"}, {"fsq_id": "523f8d55498ed5f83f304633", "categories": [{"id": 13031, "name": "Burger Joint", "icon": {"prefix": "https://ss3.4sqi.net/img/categories_v2/food/burger_", "suffix": ".png"}}], "chains": [{"id": "97d3f1c8-2493-48d7-b915-e0375b522a94", "name": "Smashburger"}], "distance": 483, "geocodes": {"main": {"latitude": 37.766012, "longitude": -122.408155}, "roof": {"latitude": 37.766033, "longitude": -122.40801}}, "link": "/v3/places/523f8d55498ed5f83f304633", "location": {"address": "2300 16th St", "address_extended": "Ste 293", "census_block": "060750177001015", "country": "US", "cross_street": "Potrero Ave", "dma": "San Francisco-Oakland-San Jose", "formatted_address": "2300 16th St (Potrero Ave), San Francisco, CA 94103", "locality": "San Francisco", "neighborhood": ["Inner Mission"], "postcode": "94103", "region": "CA"}, "name": "Smashburger", "related_places": {"parent": {"fsq_id": "49c99371f964a5207d581fe3", "name": "Potrero Center"}}, "timezone": "America/Los_Angeles"}, {"fsq_id": "4e74ba83922ef20af586d846", "categories": [{"id": 13016, "name": "Lounge", "icon": {"prefix": "https://ss3.4sqi.net/img/categories_v2/nightlife/default_", "suffix": ".png"}}, {"id": 13303, "name": "Mexican Restaurant", "icon": {"prefix": "https://ss3.4sqi.net/img/categories_v2/food/mexican_", "suffix": ".png"}}], "chains": [], "distance": 460, "geocodes": {"main": {"latitude": 37.773989, "longitude": -122.411633}, "roof": {"latitude": 37.773989, "longitude": -122.411633}}, "link": "/v3/places/4e74ba83922ef20af586d846", "location": {"address": "299 9th St", "census_block": "060750178031002", "country": "US", "cross_street": "at Folsom St", "dma": "San Francisco-Oakland-San Jose", "formatted_address": "299 9th St (at Folsom St), San Francisco, CA 94103", "locality": "San Francisco", "neighborhood": ["Civic Center"], "postcode": "94103", "region": "CA"}, "name": "Azucar Lounge", "related_places": {"children": [{"fsq_id": "580e7c2c38fa2c4ddccaaaa3", "name": "El Palenque"}]}, "timezone": "America/Los_Angeles"}, {"fsq_id": "45645906f964a520c03d1fe3", "categories": [{"id": 13064, "name": "Pizzeria", "icon": {"prefix": "https://ss3.4sqi.net/img/categories_v2/food/pizza_", "suffix": ".png"}}, {"id": 13072, "name": "Asian Restaurant", "icon": {"prefix": "https://ss3.4sqi.net/img/categories_v2/food/asian_", "suffix": ".png"}}, {"id": 13116, "name": "Hunan Restaurant", "icon": {"prefix": "https://ss3.4sqi.net/img/categories_v2/food/asian_", "suffix": ".png"}}], "chains": [], "distance": 325, "geocodes": {"main": {"latitude": 37.772316, "longitude": -122.407449}, "roof": {"latitude": 37.772316, "longitude": -122.407449}}, "link": "/v3/places/45645906f964a520c03d1fe3", "location": {"address": "1016 Bryant St", "census_block": "060750180004015", "country": "US", "cross_street": "at 8th", "dma": "San Francisco-Oakland-San Jose", "formatted_address": "1016 Bryant St (at 8th), San Francisco, CA 94103", "locality": "San Francisco", "neighborhood": ["SOMISSPO"], "postcode": "94103", "region": "CA"}, "name": "Henry's Hunan Restaurant", "related_places": {}, "timezone": "America/Los_Angeles"}, {"fsq_id": "57587782498e1367ff5c38ec", "categories": [{"id": 10003, "name": "Arcade", "icon": {"prefix": "https://ss3.4sqi.net/img/categories_v2/arts_entertainment/arcade_", "suffix": ".png"}}, {"id": 13006, "name": "Beer Bar", "icon": {"prefix": "https://ss3.4sqi.net/img/categories_v2/nightlife/pub_", "suffix": ".png"}}, {"id": 13022, "name": "Sports Bar", "icon": {"prefix": "https://ss3.4sqi.net/img/categories_v2/nightlife/sportsbar_", "suffix": ".png"}}], "chains": [], "distance": 297, "geocodes": {"main": {"latitude": 37.771289, "longitude": -122.412764}, "roof": {"latitude": 37.771289, "longitude": -122.412764}}, "link": "/v3/places/57587782498e1367ff5c38ec", "location": {"address": "365 11th St", "census_block": "060750178032004", "country": "US", "cross_street": "btwn Folsom & Harrison St", "dma": "San Francisco-Oakland-San Jose", "formatted_address": "365 11th St (btwn Folsom & Harrison St), San Francisco, CA 94103", "locality": "San Francisco", "neighborhood": ["Civic Center"], "postcode": "94103", "region": "CA"}, "name": "BuzzWorks", "related_places": {}, "timezone": "America/Los_Angeles"}, {"fsq_id": "580908d9d67c079762534ad5", "categories": [{"id": 10032, "name": "Night Club", "icon": {"prefix": "https://ss3.4sqi.net/img/categories_v2/nightlife/nightclub_", "suffix": ".png"}}, {"id": 13003, "name": "Bar", "icon": {"prefix": "https://ss3.4sqi.net/img/categories_v2/nightlife/pub_", "suffix": ".png"}}, {"id": 13065, "name": "Restaurant", "icon": {"prefix": "https://ss3.4sqi.net/img/categories_v2/food/default_", "suffix": ".png"}}], "chains": [], "distance": 385, "geocodes": {"main": {"latitude": 37.771424, "longitude": -122.41399}, "roof": {"latitude": 37.771424, "longitude": -122.41399}}, "link": "/v3/places/580908d9d67c079762534ad5", "location": {"address": "314 11th St", "census_block": "060750177002011", "country": "US", "cross_street": "Folsom", "dma": "San Francisco-Oakland-San Jose", "formatted_address": "314 11th St (Folsom), San Francisco, CA 94103", "locality": "San Francisco", "neighborhood": ["Civic Center"], "postcode": "94103", "region": "CA"}, "name": "Halcyon", "related_places": {}, "timezone": "America/Los_Angeles"}, {"fsq_id": "4c11636d416620a17c03d9e4", "categories": [{"id": 13002, "name": "Bakery", "icon": {"prefix": "https://ss3.4sqi.net/img/categories_v2/food/bakery_", "suffix": ".png"}}, {"id": 13034, "name": "Caf\u00e9", "icon": {"prefix": "https://ss3.4sqi.net/img/categories_v2/food/cafe_", "suffix": ".png"}}, {"id": 13334, "name": "Sandwich Restaurant", "icon": {"prefix": "https://ss3.4sqi.net/img/categories_v2/food/deli_", "suffix": ".png"}}], "chains": [], "distance": 189, "geocodes": {"main": {"latitude": 37.771231, "longitude": -122.408818}, "roof": {"latitude": 37.771231, "longitude": -122.408818}}, "link": "/v3/places/4c11636d416620a17c03d9e4", "location": {"address": "498 9th St", "address_extended": "Ste C", "census_block": "060750180004016", "country": "US", "cross_street": "at Bryant", "dma": "San Francisco-Oakland-San Jose", "formatted_address": "498 9th St (at Bryant), San Francisco, CA 94103", "locality": "San Francisco", "neighborhood": ["Civic Center"], "postcode": "94103", "region": "CA"}, "name": "L'acajou", "related_places": {}, "timezone": "America/Los_Angeles"}, {"fsq_id": "49b5de30f964a52004531fe3", "categories": [{"id": 13099, "name": "Chinese Restaurant", "icon": {"prefix": "https://ss3.4sqi.net/img/categories_v2/food/asian_", "suffix": ".png"}}], "chains": [], "distance": 470, "geocodes": {"main": {"latitude": 37.765846, "longitude": -122.410684}}, "link": "/v3/places/49b5de30f964a52004531fe3", "location": {"address": "1688 Bryant St", "country": "US", "cross_street": "at 16th St", "dma": "San Francisco-Oakland-San Jose", "formatted_address": "1688 Bryant St (at 16th St), San Francisco, CA 94103", "locality": "San Francisco", "neighborhood": ["Inner Mission"], "postcode": "94103", "region": "CA"}, "name": "Jade Cafe", "related_places": {}, "timezone": "America/Los_Angeles"}, {"fsq_id": "5ccbe7c766fc65002cf4bcd3", "categories": [{"id": 13035, "name": "Coffee Shop", "icon": {"prefix": "https://ss3.4sqi.net/img/categories_v2/food/coffeeshop_", "suffix": ".png"}}], "chains": [{"id": "ab4c54c0-d68a-012e-5619-003048cad9da", "name": "Starbucks"}], "distance": 352, "geocodes": {"main": {"latitude": 37.766742, "longitude": -122.409414}, "roof": {"latitude": 37.766742, "longitude": -122.409414}}, "link": "/v3/places/5ccbe7c766fc65002cf4bcd3", "location": {"address": "2300 16th St", "address_extended": "Unit 203", "census_block": "060750177001015", "country": "US", "cross_street": "Between Bryant St & Potrero Ave", "dma": "San Francisco-Oakland-San Jose", "formatted_address": "2300 16th St (Between Bryant St & Potrero Ave), San Francisco, CA 94103", "locality": "San Francisco", "neighborhood": ["Inner Mission"], "postcode": "94103", "region": "CA"}, "name": "Starbucks", "related_places": {"parent": {"fsq_id": "49dcfdb3f964a520dd5f1fe3", "name": "Safeway"}}, "timezone": "America/Los_Angeles"}, {"fsq_id": "4cc0aa7f56bda0937e45e735", "categories": [{"id": 13035, "name": "Coffee Shop", "icon": {"prefix": "https://ss3.4sqi.net/img/categories_v2/food/coffeeshop_", "suffix": ".png"}}, {"id": 13068, "name": "American Restaurant", "icon": {"prefix": "https://ss3.4sqi.net/img/categories_v2/food/default_", "suffix": ".png"}}], "chains": [], "distance": 373, "geocodes": {"main": {"latitude": 37.767977, "longitude": -122.413787}, "roof": {"latitude": 37.767977, "longitude": -122.413787}}, "link": "/v3/places/4cc0aa7f56bda0937e45e735", "location": {"address": "1830 Harrison St", "census_block": "060750177002019", "country": "US", "cross_street": "14th", "dma": "San Francisco-Oakland-San Jose", "formatted_address": "1830 Harrison St (14th), San Francisco, CA 94103", "locality": "San Francisco", "neighborhood": ["Inner Mission"], "postcode": "94103", "region": "CA"}, "name": "Cafe Harrison", "related_places": {}, "timezone": "America/Los_Angeles"}, {"fsq_id": "599c459116fa041ee1250f20", "categories": [{"id": 13022, "name": "Sports Bar", "icon": {"prefix": "https://ss3.4sqi.net/img/categories_v2/nightlife/sportsbar_", "suffix": ".png"}}, {"id": 13026, "name": "BBQ Joint", "icon": {"prefix": "https://ss3.4sqi.net/img/categories_v2/food/bbqalt_", "suffix": ".png"}}, {"id": 13068, "name": "American Restaurant", "icon": {"prefix": "https://ss3.4sqi.net/img/categories_v2/food/default_", "suffix": ".png"}}], "chains": [], "distance": 465, "geocodes": {"main": {"latitude": 37.77043, "longitude": -122.404757}, "roof": {"latitude": 37.77043, "longitude": -122.404757}}, "link": "/v3/places/599c459116fa041ee1250f20", "location": {"address": "680 8th St", "address_extended": "Ste 170", "census_block": "060750180003002", "country": "US", "cross_street": "Brannan St.", "dma": "San Francisco-Oakland-San Jose", "formatted_address": "680 8th St (Brannan St.), San Francisco, CA 94103", "locality": "San Francisco", "neighborhood": ["SOMISSPO"], "postcode": "94103", "region": "CA"}, "name": "Hardwood Bar & Smokery", "related_places": {"children": []}, "timezone": "America/Los_Angeles"}, {"fsq_id": "49ff7752f964a52029701fe3", "categories": [{"id": 13032, "name": "Cafes, Coffee, and Tea Houses", "icon": {"prefix": "https://ss3.4sqi.net/img/categories_v2/food/default_", "suffix": ".png"}}], "chains": [{"id": "e60a5d2d-6e9e-4d3b-bfe4-5cebfc0c3d97", "name": "Peet's Coffee and Tea"}], "distance": 398, "geocodes": {"main": {"latitude": 37.766531, "longitude": -122.409186}, "roof": {"latitude": 37.766531, "longitude": -122.409186}}, "link": "/v3/places/49ff7752f964a52029701fe3", "location": {"address": "2300 16th St", "address_extended": "Ste 240", "census_block": "060750177001015", "country": "US", "cross_street": "", "dma": "San Francisco-Oakland-San Jose", "formatted_address": "2300 16th St, San Francisco, CA 94103", "locality": "San Francisco", "neighborhood": ["Inner Mission"], "postcode": "94103", "region": "CA"}, "name": "Peet's Coffee and Tea", "related_places": {"parent": {"fsq_id": "49c99371f964a5207d581fe3", "name": "Potrero Center"}}, "timezone": "America/Los_Angeles"}, {"fsq_id": "5025567ee4b0c6da26677c3c", "categories": [{"id": 13054, "name": "Food Truck", "icon": {"prefix": "https://ss3.4sqi.net/img/categories_v2/food/streetfood_", "suffix": ".png"}}], "chains": [], "distance": 89, "geocodes": {"main": {"latitude": 37.769745, "longitude": -122.412028}, "roof": {"latitude": 37.769745, "longitude": -122.412028}}, "link": "/v3/places/5025567ee4b0c6da26677c3c", "location": {"address": "428 11th St", "census_block": "060750177001007", "country": "US", "cross_street": "Division St.", "dma": "San Francisco-Oakland-San Jose", "formatted_address": "428 11th St (Division St.), San Francisco, CA 94103", "locality": "San Francisco", "neighborhood": ["Civic Center"], "postcode": "94103", "region": "CA"}, "name": "Mama Cass", "related_places": {"parent": {"fsq_id": "4fc7c071e4b06e4ecff8e93d", "name": "SOMA StrEat Food Park"}}, "timezone": "America/Los_Angeles"}, {"fsq_id": "4fe13b8fe4b01a070890cbb5", "categories": [{"id": 13065, "name": "Restaurant", "icon": {"prefix": "https://ss3.4sqi.net/img/categories_v2/food/default_", "suffix": ".png"}}], "chains": [], "distance": 158, "geocodes": {"main": {"latitude": 37.769783, "longitude": -122.411958}, "roof": {"latitude": 37.769783, "longitude": -122.411958}}, "link": "/v3/places/4fe13b8fe4b01a070890cbb5", "location": {"address": "428 11th St", "census_block": "060750177001007", "country": "US", "cross_street": "Division Street", "dma": "San Francisco-Oakland-San Jose", "formatted_address": "428 11th St (Division Street), San Francisco, CA 94103", "locality": "San Francisco", "neighborhood": ["Civic Center"], "postcode": "94103", "region": "CA"}, "name": "Yumsilog", "related_places": {}, "timezone": "America/Los_Angeles"}, {"fsq_id": "4fc7e4d1e4b0f325e181bfe3", "categories": [{"id": 13000, "name": "Dining and Drinking", "icon": {"prefix": "https://ss3.4sqi.net/img/categories_v2/food/default_", "suffix": ".png"}}], "chains": [], "distance": 166, "geocodes": {"main": {"latitude": 37.769783, "longitude": -122.411958}, "roof": {"latitude": 37.769783, "longitude": -122.411958}}, "link": "/v3/places/4fc7e4d1e4b0f325e181bfe3", "location": {"address": "428 11th St", "census_block": "060750177001007", "country": "US", "cross_street": "Division", "dma": "San Francisco-Oakland-San Jose", "formatted_address": "428 11th St (Division), San Francisco, CA 94103", "locality": "San Francisco", "neighborhood": ["Civic Center"], "postcode": "94103", "region": "CA"}, "name": "La Pastrami", "related_places": {}, "timezone": "America/Los_Angeles"}, {"fsq_id": "50d5130fe4b0ab0ed2c167d8", "categories": [{"id": 13054, "name": "Food Truck", "icon": {"prefix": "https://ss3.4sqi.net/img/categories_v2/food/streetfood_", "suffix": ".png"}}], "chains": [], "distance": 167, "geocodes": {"main": {"latitude": 37.769783, "longitude": -122.411958}, "roof": {"latitude": 37.769783, "longitude": -122.411958}}, "link": "/v3/places/50d5130fe4b0ab0ed2c167d8", "location": {"address": "428 11th St", "census_block": "060750177001007", "country": "US", "dma": "San Francisco-Oakland-San Jose", "formatted_address": "428 11th St, San Francisco, CA 94103", "locality": "San Francisco", "neighborhood": ["Civic Center"], "postcode": "94103", "region": "CA"}, "name": "Eire Trea", "related_places": {}, "timezone": "America/Los_Angeles"}, {"fsq_id": "4fe75ffae4b03c981bd5a626", "categories": [{"id": 13000, "name": "Dining and Drinking", "icon": {"prefix": "https://ss3.4sqi.net/img/categories_v2/food/default_", "suffix": ".png"}}], "chains": [], "distance": 170, "geocodes": {"main": {"latitude": 37.769745, "longitude": -122.412028}, "roof": {"latitude": 37.769745, "longitude": -122.412028}}, "link": "/v3/places/4fe75ffae4b03c981bd5a626", "location": {"address": "428 11th St", "census_block": "060750177001007", "country": "US", "cross_street": "13th Street", "dma": "San Francisco-Oakland-San Jose", "formatted_address": "428 11th St (13th Street), San Francisco, CA 94103", "locality": "San Francisco", "neighborhood": ["Civic Center"], "postcode": "94103", "region": "CA"}, "name": "Subs on Hubs", "related_places": {}, "timezone": "America/Los_Angeles"}, {"fsq_id": "5081b0fd183ffdbfc3027c43", "categories": [{"id": 10024, "name": "Movie Theater", "icon": {"prefix": "https://ss3.4sqi.net/img/categories_v2/arts_entertainment/movietheater_", "suffix": ".png"}}, {"id": 13007, "name": "Beer Garden", "icon": {"prefix": "https://ss3.4sqi.net/img/categories_v2/nightlife/beergarden_", "suffix": ".png"}}, {"id": 13068, "name": "American Restaurant", "icon": {"prefix": "https://ss3.4sqi.net/img/categories_v2/food/default_", "suffix": ".png"}}], "chains": [], "distance": 171, "geocodes": {"main": {"latitude": 37.769783, "longitude": -122.411958}, "roof": {"latitude": 37.769783, "longitude": -122.411958}}, "link": "/v3/places/5081b0fd183ffdbfc3027c43", "location": {"address": "428 11th St", "census_block": "060750177001007", "country": "US", "cross_street": "Division", "dma": "San Francisco-Oakland-San Jose", "formatted_address": "428 11th St (Division), San Francisco, CA 94103", "locality": "San Francisco", "neighborhood": ["Civic Center"], "postcode": "94103", "region": "CA"}, "name": "StrEat Brew", "related_places": {}, "timezone": "America/Los_Angeles"}, {"fsq_id": "511b13cbe4b082c08ab73d8b", "categories": [{"id": 13000, "name": "Dining and Drinking", "icon": {"prefix": "https://ss3.4sqi.net/img/categories_v2/food/default_", "suffix": ".png"}}], "chains": [], "distance": 181, "geocodes": {"main": {"latitude": 37.769745, "longitude": -122.412028}, "roof": {"latitude": 37.769745, "longitude": -122.412028}}, "link": "/v3/places/511b13cbe4b082c08ab73d8b", "location": {"address": "428 11th St", "census_block": "060750177001007", "country": "US", "cross_street": "", "dma": "San Francisco-Oakland-San Jose", "formatted_address": "428 11th St, San Francisco, CA 94103", "locality": "San Francisco", "neighborhood": ["Civic Center"], "postcode": "94103", "region": "CA"}, "name": "Candy Bar Dessert Truck", "related_places": {}, "timezone": "America/Los_Angeles"}, {"fsq_id": "6115539d1e360013fe858f0b", "categories": [{"id": 13035, "name": "Coffee Shop", "icon": {"prefix": "https://ss3.4sqi.net/img/categories_v2/food/coffeeshop_", "suffix": ".png"}}], "chains": [], "distance": 237, "geocodes": {"main": {"latitude": 37.772048, "longitude": -122.409221}}, "link": "/v3/places/6115539d1e360013fe858f0b", "location": {"address": "451 9th St", "country": "US", "cross_street": "Harrison", "dma": "San Francisco-Oakland-San Jose", "formatted_address": "451 9th St (Harrison), San Francisco, CA 94103", "locality": "San Francisco", "neighborhood": ["Civic Center"], "postcode": "94103", "region": "CA"}, "name": "Telescope Coffee", "related_places": {}, "timezone": "America/Los_Angeles"}, {"fsq_id": "4fc7cbbfe4b0fd7896eec75d", "categories": [{"id": 13000, "name": "Dining and Drinking", "icon": {"prefix": "https://ss3.4sqi.net/img/categories_v2/food/default_", "suffix": ".png"}}], "chains": [], "distance": 246, "geocodes": {"main": {"latitude": 37.77039, "longitude": -122.412567}, "roof": {"latitude": 37.77039, "longitude": -122.412567}}, "link": "/v3/places/4fc7cbbfe4b0fd7896eec75d", "location": {"address": "428 11th St", "census_block": "060750177001007", "country": "US", "cross_street": "Division Street", "dma": "San Francisco-Oakland-San Jose", "formatted_address": "428 11th St (Division Street), San Francisco, CA 94103", "locality": "San Francisco", "neighborhood": ["Civic Center"], "postcode": "94103", "region": "CA"}, "name": "Brass Knuckle", "related_places": {}, "timezone": "America/Los_Angeles"}, {"fsq_id": "49ea4c2cf964a5204a661fe3", "categories": [{"id": 13064, "name": "Pizzeria", "icon": {"prefix": "https://ss3.4sqi.net/img/categories_v2/food/pizza_", "suffix": ".png"}}], "chains": [], "distance": 281, "geocodes": {"main": {"latitude": 37.771186, "longitude": -122.41283}, "roof": {"latitude": 37.771186, "longitude": -122.41283}}, "link": "/v3/places/49ea4c2cf964a5204a661fe3", "location": {"address": "371 11th St", "census_block": "060750178032004", "country": "US", "cross_street": "btw Harrison St & Folsom St", "dma": "San Francisco-Oakland-San Jose", "formatted_address": "371 11th St (btw Harrison St & Folsom St), San Francisco, CA 94103", "locality": "San Francisco", "neighborhood": ["Civic Center"], "postcode": "94103", "region": "CA"}, "name": "Bowzer's Pizza", "related_places": {}, "timezone": "America/Los_Angeles"}, {"fsq_id": "5aaea0a6b37e2b16af9caf02", "categories": [{"id": 13034, "name": "Caf\u00e9", "icon": {"prefix": "https://ss3.4sqi.net/img/categories_v2/food/cafe_", "suffix": ".png"}}, {"id": 13035, "name": "Coffee Shop", "icon": {"prefix": "https://ss3.4sqi.net/img/categories_v2/food/coffeeshop_", "suffix": ".png"}}], "chains": [], "distance": 309, "geocodes": {"main": {"latitude": 37.769573, "longitude": -122.40657}, "roof": {"latitude": 37.769573, "longitude": -122.40657}}, "link": "/v3/places/5aaea0a6b37e2b16af9caf02", "location": {"address": "202 Division St", "census_block": "060750177001002", "country": "US", "cross_street": "", "dma": "San Francisco-Oakland-San Jose", "formatted_address": "202 Division St, San Francisco, CA 94103", "locality": "San Francisco", "neighborhood": ["SOMISSPO"], "postcode": "94103", "region": "CA"}, "name": "Simply SF", "related_places": {"parent": {"fsq_id": "4a4dce3ef964a52010ae1fe3", "name": "Fitness Sf Soma"}}, "timezone": "America/Los_Angeles"}, {"fsq_id": "4ae9f461f964a520f7b721e3", "categories": [{"id": 13034, "name": "Caf\u00e9", "icon": {"prefix": "https://ss3.4sqi.net/img/categories_v2/food/cafe_", "suffix": ".png"}}, {"id": 13035, "name": "Coffee Shop", "icon": {"prefix": "https://ss3.4sqi.net/img/categories_v2/food/coffeeshop_", "suffix": ".png"}}, {"id": 13065, "name": "Restaurant", "icon": {"prefix": "https://ss3.4sqi.net/img/categories_v2/food/default_", "suffix": ".png"}}], "chains": [], "distance": 293, "geocodes": {"main": {"latitude": 37.772331, "longitude": -122.411965}, "roof": {"latitude": 37.772331, "longitude": -122.411965}}, "link": "/v3/places/4ae9f461f964a520f7b721e3", "location": {"address": "353 10th St", "census_block": "060750178032003", "country": "US", "cross_street": "btwn Folsom & Harrison St", "dma": "San Francisco-Oakland-San Jose", "formatted_address": "353 10th St (btwn Folsom & Harrison St), San Francisco, CA 94103", "locality": "San Francisco", "neighborhood": ["Civic Center"], "postcode": "94103", "region": "CA"}, "name": "Capricorn Coffees", "related_places": {}, "timezone": "America/Los_Angeles"}, {"fsq_id": "612086bbb81147639880eb4e", "categories": [{"id": 13099, "name": "Chinese Restaurant", "icon": {"prefix": "https://ss3.4sqi.net/img/categories_v2/food/asian_", "suffix": ".png"}}], "chains": [], "distance": 343, "geocodes": {"main": {"latitude": 37.772359, "longitude": -122.407465}}, "link": "/v3/places/612086bbb81147639880eb4e", "location": {"address": "1010 Bryant St", "country": "US", "cross_street": "", "dma": "San Francisco-Oakland-San Jose", "formatted_address": "1010 Bryant St, San Francisco, CA 94103", "locality": "San Francisco", "neighborhood": ["SOMISSPO"], "postcode": "94103", "region": "CA"}, "name": "Beyond Cafe", "related_places": {}, "timezone": "America/Los_Angeles"}, {"fsq_id": "584ca138febfbd728e00de45", "categories": [{"id": 13029, "name": "Brewery", "icon": {"prefix": "https://ss3.4sqi.net/img/categories_v2/food/brewery_", "suffix": ".png"}}], "chains": [], "distance": 344, "geocodes": {"main": {"latitude": 37.767209, "longitude": -122.408438}, "roof": {"latitude": 37.767209, "longitude": -122.408438}}, "link": "/v3/places/584ca138febfbd728e00de45", "location": {"address": "726 15th St", "census_block": "060750177001005", "country": "US", "cross_street": "", "dma": "San Francisco-Oakland-San Jose", "formatted_address": "726 15th St, San Francisco, CA 94103", "locality": "San Francisco", "neighborhood": ["Inner Mission"], "postcode": "94103", "region": "CA"}, "name": "Comrades Beer Lab", "related_places": {}, "timezone": "America/Los_Angeles"}, {"fsq_id": "4ae7cc14f964a520abad21e3", "categories": [{"id": 13068, "name": "American Restaurant", "icon": {"prefix": "https://ss3.4sqi.net/img/categories_v2/food/default_", "suffix": ".png"}}, {"id": 13145, "name": "Fast Food Restaurant", "icon": {"prefix": "https://ss3.4sqi.net/img/categories_v2/food/fastfood_", "suffix": ".png"}}], "chains": [{"id": "ab4aebd0-d68a-012e-5619-003048cad9da", "name": "Boston Market"}], "distance": 487, "geocodes": {"main": {"latitude": 37.765903, "longitude": -122.408002}, "roof": {"latitude": 37.765903, "longitude": -122.408002}}, "link": "/v3/places/4ae7cc14f964a520abad21e3", "location": {"address": "2300 16th St", "address_extended": "Ste 100", "census_block": "060750177001015", "country": "US", "cross_street": "at Potrero Ave", "dma": "San Francisco-Oakland-San Jose", "formatted_address": "2300 16th St (at Potrero Ave), San Francisco, CA 94103", "locality": "San Francisco", "neighborhood": ["Inner Mission"], "postcode": "94103", "region": "CA"}, "name": "Boston Market", "related_places": {"parent": {"fsq_id": "49c99371f964a5207d581fe3", "name": "Potrero Center"}}, "timezone": "America/Los_Angeles"}, {"fsq_id": "4be31f5321d5a593bf401811", "categories": [{"id": 13001, "name": "Bagel Shop", "icon": {"prefix": "https://ss3.4sqi.net/img/categories_v2/food/bagels_", "suffix": ".png"}}], "chains": [], "distance": 484, "geocodes": {"main": {"latitude": 37.766033, "longitude": -122.40801}, "roof": {"latitude": 37.766033, "longitude": -122.40801}}, "link": "/v3/places/4be31f5321d5a593bf401811", "location": {"address": "2300 16th St", "address_extended": "Ste 250", "census_block": "060750177001015", "country": "US", "cross_street": "between Potrero Ave and Bryant St", "dma": "San Francisco-Oakland-San Jose", "formatted_address": "2300 16th St (between Potrero Ave and Bryant St), San Francisco, CA 94103", "locality": "San Francisco", "neighborhood": ["Inner Mission"], "postcode": "94103", "region": "CA"}, "name": "Noah's NY Bagels", "related_places": {"parent": {"fsq_id": "49c99371f964a5207d581fe3", "name": "Potrero Center"}}, "timezone": "America/Los_Angeles"}, {"fsq_id": "4f326e8a19836c91c7d7332b", "categories": [{"id": 13031, "name": "Burger Joint", "icon": {"prefix": "https://ss3.4sqi.net/img/categories_v2/food/burger_", "suffix": ".png"}}, {"id": 13035, "name": "Coffee Shop", "icon": {"prefix": "https://ss3.4sqi.net/img/categories_v2/food/coffeeshop_", "suffix": ".png"}}, {"id": 13303, "name": "Mexican Restaurant", "icon": {"prefix": "https://ss3.4sqi.net/img/categories_v2/food/mexican_", "suffix": ".png"}}], "chains": [], "distance": 435, "geocodes": {"main": {"latitude": 37.769722, "longitude": -122.414893}, "roof": {"latitude": 37.769722, "longitude": -122.414893}}, "link": "/v3/places/4f326e8a19836c91c7d7332b", "location": {"address": "70 13th St", "census_block": "060750177002013", "country": "US", "dma": "San Francisco-Oakland-San Jose", "formatted_address": "70 13th St, San Francisco, CA 94103", "locality": "San Francisco", "neighborhood": ["Civic Center"], "postcode": "94103", "region": "CA"}, "name": "San Francisco Coffee Company", "related_places": {}, "timezone": "America/Los_Angeles"}, {"fsq_id": "5a70d5dbc47cf902da660d7c", "categories": [{"id": 13034, "name": "Caf\u00e9", "icon": {"prefix": "https://ss3.4sqi.net/img/categories_v2/food/cafe_", "suffix": ".png"}}, {"id": 13035, "name": "Coffee Shop", "icon": {"prefix": "https://ss3.4sqi.net/img/categories_v2/food/coffeeshop_", "suffix": ".png"}}, {"id": 13065, "name": "Restaurant", "icon": {"prefix": "https://ss3.4sqi.net/img/categories_v2/food/default_", "suffix": ".png"}}], "chains": [], "distance": 445, "geocodes": {"main": {"latitude": 37.767334, "longitude": -122.406366}, "roof": {"latitude": 37.767334, "longitude": -122.406366}}, "link": "/v3/places/5a70d5dbc47cf902da660d7c", "location": {"address": "550 15th St", "census_block": "060750177001003", "country": "US", "cross_street": "urah", "dma": "San Francisco-Oakland-San Jose", "formatted_address": "550 15th St (urah), San Francisco, CA 94103", "locality": "San Francisco", "neighborhood": ["Inner Mission"], "postcode": "94103", "region": "CA"}, "name": "Mayah's Restaurant Cafe", "related_places": {}, "timezone": "America/Los_Angeles"}, {"fsq_id": "4bdbf0e9c79cc9288eda84e9", "categories": [{"id": 13058, "name": "Hot Dog Joint", "icon": {"prefix": "https://ss3.4sqi.net/img/categories_v2/food/hotdog_", "suffix": ".png"}}], "chains": [], "distance": 471, "geocodes": {"main": {"latitude": 37.774196, "longitude": -122.409782}, "roof": {"latitude": 37.774196, "longitude": -122.409782}}, "link": "/v3/places/4bdbf0e9c79cc9288eda84e9", "location": {"census_block": "060750178032001", "country": "US", "cross_street": "", "dma": "San Francisco-Oakland-San Jose", "formatted_address": "San Francisco, CA", "locality": "San Francisco", "neighborhood": ["Civic Center"], "region": "CA"}, "name": "Bacon Dog Cart", "related_places": {}, "timezone": "America/Los_Angeles"}, {"fsq_id": "59964af218d43b6d0983125e", "categories": [{"id": 13263, "name": "Japanese Restaurant", "icon": {"prefix": "https://ss3.4sqi.net/img/categories_v2/food/japanese_", "suffix": ".png"}}], "chains": [], "distance": 490, "geocodes": {"main": {"latitude": 37.768844, "longitude": -122.415272}, "roof": {"latitude": 37.768844, "longitude": -122.415272}}, "link": "/v3/places/59964af218d43b6d0983125e", "location": {"address": "82 14th St", "census_block": "060750177002017", "country": "US", "cross_street": "", "dma": "San Francisco-Oakland-San Jose", "formatted_address": "82 14th St, San Francisco, CA 94103", "locality": "San Francisco", "neighborhood": ["Mission"], "postcode": "94103", "region": "CA"}, "name": "Okkon Japanese Street Food", "related_places": {"parent": {"fsq_id": "5459e645498e480913b7ee7b", "name": "Rintaro"}}, "timezone": "America/Los_Angeles"}], "context": {"geo_bounds": {"circle": {"center": {"latitude": 37.77, "longitude": -122.41}, "radius": 500}}}}